{"prefix": "9qc00", "type": "FeatureCollection", "properties": {}, "features": [{"onestopId": "s-9qc009meth-hilltop~rollinghillsmemorialpark", "name": "Hilltop Dr:Rolling Hills Memorial Park", "tags": {}, "geometry": {"type": "Point", "coordinates": [-122.314009, 37.97624]}, "servedBy": ["o-9q9-actransit"], "identifiers": [{"identifier": "f-actransit-s-1301930", "tags": {"stop_lat": "37.976240", "stop_code": "54993", "stop_lon": "-122.314009", "parent_station": "place_HPNR", "stop_id": "1301930", "stop_name": "Hilltop Dr:Rolling Hills Memorial Park", "location_type": ""}}], "type": "Feature", "properties": {}}, {"onestopId": "s-9qc00c3z6v-hilltop~lapaloma", "name": "Hilltop Dr:La Paloma Rd", "tags": {}, "geometry": {"type": "Point", "coordinates": [-122.308267, 37.976888]}, "servedBy": ["o-9q9-actransit"], "identifiers": [{"identifier": "f-actransit-s-1301900", "tags": {"stop_lat": "37.976888", "stop_code": "51532", "stop_lon": "-122.308267", "parent_station": "", "stop_id": "1301900", "stop_name": "Hilltop Dr:La Paloma Rd", "location_type": ""}}], "type": "Feature", "properties": {}}, {"onestopId": "s-9qc0011e18-aberdeen~gospelchurch", "name": "Aberdeen Way:Gospel Church", "tags": {}, "geometry": {"type": "Point", "coordinates": [-122.341616, 37.97476]}, "servedBy": ["o-9q9-actransit"], "identifiers": [{"identifier": "f-actransit-s-1300550", "tags": {"stop_lat": "37.974760", "stop_code": "54778", "stop_lon": "-122.341616", "parent_station": "", "stop_id": "1300550", "stop_name": "Aberdeen Way:Gospel Church", "location_type": ""}}], "type": "Feature", "properties": {}}, {"onestopId": "s-9qc00dr05z-parkcentral~", "name": "Park Central:Parkway Dr", "tags": {}, "geometry": {"type": "Point", "coordinates": [-122.311998, 37.981149]}, "servedBy": ["o-9q9-actransit"], "identifiers": [{"identifier": "f-actransit-s-1302740", "tags": {"stop_lat": "37.981149", "stop_code": "52965", "stop_lon": "-122.311998", "parent_station": "", "stop_id": "1302740", "stop_name": "Park Central:Parkway Dr", "location_type": ""}}], "type": "Feature", "properties": {}}, {"onestopId": "s-9qc00b4qmy-appian~santarita", "name": "Appian Way:Santa Rita Rd", "tags": {}, "geometry": {"type": "Point", "coordinates": [-122.30745, 37.969857]}, "servedBy": ["o-9q9-actransit"], "identifiers": [{"identifier": "f-actransit-s-9900180", "tags": {"stop_lat": "37.969857", "stop_code": "54010", "stop_lon": "-122.307450", "parent_station": "", "stop_id": "9900180", "stop_name": "Appian Way:Santa Rita Rd", "location_type": ""}}], "type": "Feature", "properties": {}}, {"onestopId": "s-9qc00153gd-aberdeen~lancaster", "name": "Aberdeen Way:Lancaster Dr", "tags": {}, "geometry": {"type": "Point", "coordinates": [-122.339127, 37.974556]}, "servedBy": ["o-9q9-actransit"], "identifiers": [{"identifier": "f-actransit-s-1300570", "tags": {"stop_lat": "37.974556", "stop_code": "50822", "stop_lon": "-122.339127", "parent_station": "", "stop_id": "1300570", "stop_name": "Aberdeen Way:Lancaster Dr", "location_type": ""}}], "type": "Feature", "properties": {}}, {"onestopId": "s-9qc00579rm-hilltop~vistadelmar", "name": "Hilltop Dr:Vista Del Mar", "tags": {}, "geometry": {"type": "Point", "coordinates": [-122.338632, 37.986848]}, "servedBy": ["o-9q9-actransit"], "identifiers": [{"identifier": "f-actransit-s-1303930", "tags": {"stop_lat": "37.986848", "stop_code": "55253", "stop_lon": "-122.338632", "parent_station": "", "stop_id": "1303930", "stop_name": "Hilltop Dr:Vista Del Mar", "location_type": ""}}], "type": "Feature", "properties": {}}, {"onestopId": "s-9qc0022p4y-shane~birmingham", "name": "Shane Dr:Birmingham Dr", "tags": {}, "geometry": {"type": "Point", "coordinates": [-122.332644, 37.971359]}, "servedBy": ["o-9q9-actransit"], "identifiers": [{"identifier": "f-actransit-s-1303720", "tags": {"stop_lat": "37.971359", "stop_code": "56730", "stop_lon": "-122.332644", "parent_station": "", "stop_id": "1303720", "stop_name": "Shane Dr:Birmingham Dr", "location_type": ""}}], "type": "Feature", "properties": {}}, {"onestopId": "s-9qc00b7yc5-appian~lapaloma", "name": "Appian Way:La Paloma Rd", "tags": {}, "geometry": {"type": "Point", "coordinates": [-122.305594, 37.9713]}, "servedBy": ["o-9q9-actransit"], "identifiers": [{"identifier": "f-actransit-s-9900140", "tags": {"stop_lat": "37.971300", "stop_code": "57726", "stop_lon": "-122.305594", "parent_station": "", "stop_id": "9900140", "stop_name": "Appian Way:La Paloma Rd", "location_type": ""}}], "type": "Feature", "properties": {}}, {"onestopId": "s-9qc009rv4b-hilltop~santamaria", "name": "Hilltop Dr:Santa Maria Rd", "tags": {}, "geometry": {"type": "Point", "coordinates": [-122.311015, 37.976478]}, "servedBy": ["o-9q9-actransit"], "identifiers": [{"identifier": "f-actransit-s-1301940", "tags": {"stop_lat": "37.976478", "stop_code": "51921", "stop_lon": "-122.311015", "parent_station": "", "stop_id": "1301940", "stop_name": "Hilltop Dr:Santa Maria Rd", "location_type": ""}}], "type": "Feature", "properties": {}}, {"onestopId": "s-9qc009qkuk-hilltop~parkcentral", "name": "Hilltop Dr:Park Central", "tags": {}, "geometry": {"type": "Point", "coordinates": [-122.31301, 37.976455]}, "servedBy": ["o-9q9-actransit"], "identifiers": [{"identifier": "f-actransit-s-1301920", "tags": {"stop_lat": "37.976455", "stop_code": "51621", "stop_lon": "-122.313010", "parent_station": "", "stop_id": "1301920", "stop_name": "Hilltop Dr:Park Central", "location_type": ""}}], "type": "Feature", "properties": {}}, {"onestopId": "s-9qc004xe01-hilltop~hillview", "name": "Hilltop Dr:Hillview Dr", "tags": {}, "geometry": {"type": "Point", "coordinates": [-122.333447, 37.983005]}, "servedBy": ["o-9q9-actransit"], "identifiers": [{"identifier": "f-actransit-s-1301890", "tags": {"stop_lat": "37.983005", "stop_code": "58448", "stop_lon": "-122.333447", "parent_station": "", "stop_id": "1301890", "stop_name": "Hilltop Dr:Hillview Dr", "location_type": ""}}], "type": "Feature", "properties": {}}, {"onestopId": "s-9qc00f14u5-parkcentral~parkridge", "name": "Park Central:Parkridge Dr", "tags": {}, "geometry": {"type": "Point", "coordinates": [-122.309241, 37.980229]}, "servedBy": ["o-9q9-actransit"], "identifiers": [{"identifier": "f-actransit-s-1302720", "tags": {"stop_lat": "37.980229", "stop_code": "56012", "stop_lon": "-122.309241", "parent_station": "", "stop_id": "1302720", "stop_name": "Park Central:Parkridge Dr", "location_type": ""}}], "type": "Feature", "properties": {}}, {"onestopId": "s-9qc002ht07-moyers~phillips", "name": "Moyers Rd:Phillips Ct", "tags": {}, "geometry": {"type": "Point", "coordinates": [-122.326566, 37.969629]}, "servedBy": ["o-9q9-actransit"], "identifiers": [{"identifier": "f-actransit-s-1302700", "tags": {"stop_lat": "37.969629", "stop_code": "58766", "stop_lon": "-122.326566", "parent_station": "", "stop_id": "1302700", "stop_name": "Moyers Rd:Phillips Ct", "location_type": ""}}], "type": "Feature", "properties": {}}, {"onestopId": "s-9qc003fr4p-hilltopmall~jcpenney", "name": "Hilltop Mall:J.C. Penney", "tags": {}, "geometry": {"type": "Point", "coordinates": [-122.329582, 37.979604]}, "servedBy": ["o-9q9-actransit"], "identifiers": [{"identifier": "f-actransit-s-1301950", "tags": {"stop_lat": "37.979604", "stop_code": "57888", "stop_lon": "-122.329582", "parent_station": "", "stop_id": "1301950", "stop_name": "Hilltop Mall:J.C. Penney", "location_type": ""}}], "type": "Feature", "properties": {}}, {"onestopId": "s-9qc0006xqn-contracostacollege", "name": "Contra Costa College", "tags": {}, "geometry": {"type": "Point", "coordinates": [-122.340051, 37.971401]}, "servedBy": ["o-9q9-actransit"], "identifiers": [{"identifier": "f-actransit-s-1600430", "tags": {"stop_lat": "37.971401", "stop_code": "56262", "stop_lon": "-122.340051", "parent_station": "place_CCCO", "stop_id": "1600430", "stop_name": "Contra Costa College", "location_type": ""}}], "type": "Feature", "properties": {}}, {"onestopId": "s-9qc0006mr5-contracostacollege", "name": "Contra Costa College", "tags": {}, "geometry": {"type": "Point", "coordinates": [-122.34035, 37.971041]}, "servedBy": ["o-9q9-actransit"], "identifiers": [{"identifier": "f-actransit-s-1600350", "tags": {"stop_lat": "37.971041", "stop_code": "50503", "stop_lon": "-122.340350", "parent_station": "place_CCCO", "stop_id": "1600350", "stop_name": "Contra Costa College", "location_type": ""}}], "type": "Feature", "properties": {}}, {"onestopId": "s-9qc0034vp6-shane~gilma", "name": "Shane Dr:Gilma Dr", "tags": {}, "geometry": {"type": "Point", "coordinates": [-122.328674, 37.975113]}, "servedBy": ["o-9q9-actransit"], "identifiers": [{"identifier": "f-actransit-s-1303730", "tags": {"stop_lat": "37.975113", "stop_code": "56790", "stop_lon": "-122.328674", "parent_station": "", "stop_id": "1303730", "stop_name": "Shane Dr:Gilma Dr", "location_type": ""}}], "type": "Feature", "properties": {}}, {"onestopId": "s-9qc0000ws4-delcamino~missionbell", "name": "Del Camino Dr:Mission Bell Dr", "tags": {}, "geometry": {"type": "Point", "coordinates": [-122.342889, 37.969878]}, "servedBy": ["o-9q9-actransit"], "identifiers": [{"identifier": "f-actransit-s-1600440", "tags": {"stop_lat": "37.969878", "stop_code": "54573", "stop_lon": "-122.342889", "parent_station": "", "stop_id": "1600440", "stop_name": "Del Camino Dr:Mission Bell Dr", "location_type": ""}}], "type": "Feature", "properties": {}}, {"onestopId": "s-9qc000085z-college~missionbell", "name": "College Ln:Mission Bell Dr", "tags": {}, "geometry": {"type": "Point", "coordinates": [-122.342901, 37.96879]}, "servedBy": ["o-9q9-actransit"], "identifiers": [{"identifier": "f-actransit-s-1600320", "tags": {"stop_lat": "37.968790", "stop_code": "56899", "stop_lon": "-122.342901", "parent_station": "", "stop_id": "1600320", "stop_name": "College Ln:Mission Bell Dr", "location_type": ""}}], "type": "Feature", "properties": {}}, {"onestopId": "s-9qc00e5e6r-richmondtransitpark~ride", "name": "Richmond Pkwy Transit Center (Park & Ride)", "tags": {}, "geometry": {"type": "Point", "coordinates": [-122.316868, 37.985829]}, "servedBy": ["o-9q9-actransit"], "identifiers": [{"identifier": "f-actransit-s-1303215", "tags": {"stop_lat": "37.985829", "stop_code": "56780", "stop_lon": "-122.316868", "parent_station": "", "stop_id": "1303215", "stop_name": "Richmond Pkwy Transit Center (Park & Ride)", "location_type": ""}}], "type": "Feature", "properties": {}}, {"onestopId": "s-9qc002szmw-moyers~altamira", "name": "Moyers Rd:Alta Mira Dr", "tags": {}, "geometry": {"type": "Point", "coordinates": [-122.326, 37.972774]}, "servedBy": ["o-9q9-actransit"], "identifiers": [{"identifier": "f-actransit-s-1302620", "tags": {"stop_lat": "37.972774", "stop_code": "59877", "stop_lon": "-122.326000", "parent_station": "", "stop_id": "1302620", "stop_name": "Moyers Rd:Alta Mira Dr", "location_type": ""}}], "type": "Feature", "properties": {}}, {"onestopId": "s-9qc0015329-aberdeen~lancaster", "name": "Aberdeen Way:Lancaster Dr", "tags": {}, "geometry": {"type": "Point", "coordinates": [-122.339256, 37.974464]}, "servedBy": ["o-9q9-actransit"], "identifiers": [{"identifier": "f-actransit-s-1300560", "tags": {"stop_lat": "37.974464", "stop_code": "56997", "stop_lon": "-122.339256", "parent_station": "", "stop_id": "1300560", "stop_name": "Aberdeen Way:Lancaster Dr", "location_type": ""}}], "type": "Feature", "properties": {}}, {"onestopId": "s-9qc00btmf7-appian~4630", "name": "Appian Way:#4630", "tags": {}, "geometry": {"type": "Point", "coordinates": [-122.303481, 37.9725]}, "servedBy": ["o-9q9-actransit"], "identifiers": [{"identifier": "f-actransit-s-9900050", "tags": {"stop_lat": "37.972500", "stop_code": "51142", "stop_lon": "-122.303481", "parent_station": "", "stop_id": "9900050", "stop_name": "Appian Way:#4630", "location_type": ""}}], "type": "Feature", "properties": {}}, {"onestopId": "s-9qc00e5tpx-richmondtransitpark~ride", "name": "Richmond Pkwy Transit Center (Park & Ride)", "tags": {}, "geometry": {"type": "Point", "coordinates": [-122.316644, 37.986126]}, "servedBy": ["o-9q9-actransit"], "identifiers": [{"identifier": "f-actransit-s-1303200", "tags": {"stop_lat": "37.986126", "stop_code": "55228", "stop_lon": "-122.316644", "parent_station": "", "stop_id": "1303200", "stop_name": "Richmond Pkwy Transit Center (Park & Ride)", "location_type": ""}}], "type": "Feature", "properties": {}}, {"onestopId": "s-9qc002ym57-moyers~benjamin", "name": "Moyers Rd:Benjamin Dr", "tags": {}, "geometry": {"type": "Point", "coordinates": [-122.324033, 37.973749]}, "servedBy": ["o-9q9-actransit"], "identifiers": [{"identifier": "f-actransit-s-1302660", "tags": {"stop_lat": "37.973749", "stop_code": "59896", "stop_lon": "-122.324033", "parent_station": "", "stop_id": "1302660", "stop_name": "Moyers Rd:Benjamin Dr", "location_type": ""}}], "type": "Feature", "properties": {}}, {"onestopId": "s-9qc007xxcq-richmond~3400", "name": "Richmond Pkwy:#3400", "tags": {}, "geometry": {"type": "Point", "coordinates": [-122.32241, 37.989341]}, "servedBy": ["o-9q9-actransit"], "identifiers": [{"identifier": "f-actransit-s-1303230", "tags": {"stop_lat": "37.989341", "stop_code": "54413", "stop_lon": "-122.322410", "parent_station": "", "stop_id": "1303230", "stop_name": "Richmond Pkwy:#3400", "location_type": ""}}], "type": "Feature", "properties": {}}, {"onestopId": "s-9qc0006vd6-contracostacollege", "name": "Contra Costa College", "tags": {}, "geometry": {"type": "Point", "coordinates": [-122.339875, 37.971079]}, "servedBy": ["o-9q9-actransit"], "identifiers": [{"identifier": "f-actransit-s-1600410", "tags": {"stop_lat": "37.971079", "stop_code": "55888", "stop_lon": "-122.339875", "parent_station": "place_CCCO", "stop_id": "1600410", "stop_name": "Contra Costa College", "location_type": ""}}], "type": "Feature", "properties": {}}, {"onestopId": "s-9qc001hjkg-lancaster~southampton", "name": "Lancaster Dr:Southampton Ct", "tags": {}, "geometry": {"type": "Point", "coordinates": [-122.338052, 37.975162]}, "servedBy": ["o-9q9-actransit"], "identifiers": [{"identifier": "f-actransit-s-1302120", "tags": {"stop_lat": "37.975162", "stop_code": "51266", "stop_lon": "-122.338052", "parent_station": "", "stop_id": "1302120", "stop_name": "Lancaster Dr:Southampton Ct", "location_type": ""}}], "type": "Feature", "properties": {}}, {"onestopId": "s-9qc00fmsqz-hilltop~marin", "name": "Hilltop Dr:Marin Rd", "tags": {}, "geometry": {"type": "Point", "coordinates": [-122.302946, 37.981879]}, "servedBy": ["o-9q9-actransit"], "identifiers": [{"identifier": "f-actransit-s-9900670", "tags": {"stop_lat": "37.981879", "stop_code": "51652", "stop_lon": "-122.302946", "parent_station": "", "stop_id": "9900670", "stop_name": "Hilltop Dr:Marin Rd", "location_type": ""}}], "type": "Feature", "properties": {}}, {"onestopId": "s-9qc0009061-delcamino~rivers", "name": "Del Camino Dr:Rivers St", "tags": {}, "geometry": {"type": "Point", "coordinates": [-122.342288, 37.971546]}, "servedBy": ["o-9q9-actransit"], "identifiers": [{"identifier": "f-actransit-s-1600450", "tags": {"stop_lat": "37.971546", "stop_code": "58442", "stop_lon": "-122.342288", "parent_station": "", "stop_id": "1600450", "stop_name": "Del Camino Dr:Rivers St", "location_type": ""}}], "type": "Feature", "properties": {}}, {"onestopId": "s-9qc0006yd1-contracostacollege", "name": "Contra Costa College", "tags": {}, "geometry": {"type": "Point", "coordinates": [-122.339883, 37.971249]}, "servedBy": ["o-9q9-actransit"], "identifiers": [{"identifier": "f-actransit-s-1600420", "tags": {"stop_lat": "37.971249", "stop_code": "54442", "stop_lon": "-122.339883", "parent_station": "place_CCCO", "stop_id": "1600420", "stop_name": "Contra Costa College", "location_type": ""}}], "type": "Feature", "properties": {}}, {"onestopId": "s-9qc00976ft-hilltop~park~ride", "name": "Hilltop Dr:Park & Ride", "tags": {}, "geometry": {"type": "Point", "coordinates": [-122.317197, 37.976118]}, "servedBy": ["o-9q9-actransit"], "identifiers": [{"identifier": "f-actransit-s-1301910", "tags": {"stop_lat": "37.976118", "stop_code": "50656", "stop_lon": "-122.317197", "parent_station": "place_HPNR", "stop_id": "1301910", "stop_name": "Hilltop Dr:Park & Ride", "location_type": ""}}], "type": "Feature", "properties": {}}, {"onestopId": "s-9qc009qn2f-parkcentral~hilltop", "name": "Park Central:Hilltop Dr", "tags": {}, "geometry": {"type": "Point", "coordinates": [-122.313504, 37.976705]}, "servedBy": ["o-9q9-actransit"], "identifiers": [{"identifier": "f-actransit-s-1302715", "tags": {"stop_lat": "37.976705", "stop_code": "56225", "stop_lon": "-122.313504", "parent_station": "", "stop_id": "1302715", "stop_name": "Park Central:Hilltop Dr", "location_type": ""}}], "type": "Feature", "properties": {}}, {"onestopId": "s-9qc009reyj-hilltop~santamaria", "name": "Hilltop Dr:Santa Maria Rd", "tags": {}, "geometry": {"type": "Point", "coordinates": [-122.311214, 37.976292]}, "servedBy": ["o-9q9-actransit"], "identifiers": [{"identifier": "f-actransit-s-9900710", "tags": {"stop_lat": "37.976292", "stop_code": "54690", "stop_lon": "-122.311214", "parent_station": "", "stop_id": "9900710", "stop_name": "Hilltop Dr:Santa Maria Rd", "location_type": ""}}], "type": "Feature", "properties": {}}, {"onestopId": "s-9qc0006ktf-contracostacollege", "name": "Contra Costa College", "tags": {}, "geometry": {"type": "Point", "coordinates": [-122.340413, 37.970909]}, "servedBy": ["o-9q9-actransit"], "identifiers": [{"identifier": "f-actransit-s-1600340", "tags": {"stop_lat": "37.970909", "stop_code": "58441", "stop_lon": "-122.340413", "parent_station": "place_CCCO", "stop_id": "1600340", "stop_name": "Contra Costa College", "location_type": ""}}], "type": "Feature", "properties": {}}, {"onestopId": "s-9qc0006s1r-contracostacollege", "name": "Contra Costa College", "tags": {}, "geometry": {"type": "Point", "coordinates": [-122.340253, 37.970852]}, "servedBy": ["o-9q9-actransit"], "identifiers": [{"identifier": "f-actransit-s-1600370", "tags": {"stop_lat": "37.970852", "stop_code": "55959", "stop_lon": "-122.340253", "parent_station": "place_CCCO", "stop_id": "1600370", "stop_name": "Contra Costa College", "location_type": ""}}], "type": "Feature", "properties": {}}, {"onestopId": "s-9qc007fspp-richmond~lakeside", "name": "Richmond Pkwy:Lakeside Dr", "tags": {}, "geometry": {"type": "Point", "coordinates": [-122.329021, 37.990078]}, "servedBy": ["o-9q9-actransit"], "identifiers": [{"identifier": "f-actransit-s-1303240", "tags": {"stop_lat": "37.990078", "stop_code": "51477", "stop_lon": "-122.329021", "parent_station": "", "stop_id": "1303240", "stop_name": "Richmond Pkwy:Lakeside Dr", "location_type": ""}}], "type": "Feature", "properties": {}}, {"onestopId": "s-9qc00g3fvk-crespimiddleschool", "name": "Crespi Middle School", "tags": {}, "geometry": {"type": "Point", "coordinates": [-122.308154, 37.987099]}, "servedBy": ["o-9q9-actransit"], "identifiers": [{"identifier": "f-actransit-s-9900720", "tags": {"stop_lat": "37.987099", "stop_code": "51122", "stop_lon": "-122.308154", "parent_station": "", "stop_id": "9900720", "stop_name": "Crespi Middle School", "location_type": ""}}], "type": "Feature", "properties": {}}, {"onestopId": "s-9qc00bys9f-appian~pebble", "name": "Appian Way:Pebble Dr", "tags": {}, "geometry": {"type": "Point", "coordinates": [-122.30178, 37.973657]}, "servedBy": ["o-9q9-actransit"], "identifiers": [{"identifier": "f-actransit-s-9900150", "tags": {"stop_lat": "37.973657", "stop_code": "50150", "stop_lon": "-122.301780", "parent_station": "", "stop_id": "9900150", "stop_name": "Appian Way:Pebble Dr", "location_type": ""}}], "type": "Feature", "properties": {}}, {"onestopId": "s-9qc00010wq-missionbell~college", "name": "Mission Bell Dr:College Ln", "tags": {}, "geometry": {"type": "Point", "coordinates": [-122.342103, 37.968871]}, "servedBy": ["o-9q9-actransit"], "identifiers": [{"identifier": "f-actransit-s-1600650", "tags": {"stop_lat": "37.968871", "stop_code": "58033", "stop_lon": "-122.342103", "parent_station": "", "stop_id": "1600650", "stop_name": "Mission Bell Dr:College Ln", "location_type": ""}}], "type": "Feature", "properties": {}}, {"onestopId": "s-9qc002syks-moyers~altamira", "name": "Moyers Rd:Alta Mira Dr", "tags": {}, "geometry": {"type": "Point", "coordinates": [-122.326043, 37.972592]}, "servedBy": ["o-9q9-actransit"], "identifiers": [{"identifier": "f-actransit-s-1302610", "tags": {"stop_lat": "37.972592", "stop_code": "55038", "stop_lon": "-122.326043", "parent_station": "", "stop_id": "1302610", "stop_name": "Moyers Rd:Alta Mira Dr", "location_type": ""}}], "type": "Feature", "properties": {}}, {"onestopId": "s-9qc00e5sm5-richmondtransitpark~ride", "name": "Richmond Pkwy Transit Center (Park & Ride)", "tags": {}, "geometry": {"type": "Point", "coordinates": [-122.316756, 37.98598]}, "servedBy": ["o-9q9-actransit"], "identifiers": [{"identifier": "f-actransit-s-1303210", "tags": {"stop_lat": "37.985980", "stop_code": "56664", "stop_lon": "-122.316756", "parent_station": "", "stop_id": "1303210", "stop_name": "Richmond Pkwy Transit Center (Park & Ride)", "location_type": ""}}], "type": "Feature", "properties": {}}, {"onestopId": "s-9qc00cusnh-hilltop~renfrew", "name": "Hilltop Dr:Renfrew Rd", "tags": {}, "geometry": {"type": "Point", "coordinates": [-122.304353, 37.979076]}, "servedBy": ["o-9q9-actransit"], "identifiers": [{"identifier": "f-actransit-s-9900700", "tags": {"stop_lat": "37.979076", "stop_code": "51659", "stop_lon": "-122.304353", "parent_station": "", "stop_id": "9900700", "stop_name": "Hilltop Dr:Renfrew Rd", "location_type": ""}}], "type": "Feature", "properties": {}}, {"onestopId": "s-9qc007xuhq-richmond~3400", "name": "Richmond Pkwy:#3400", "tags": {}, "geometry": {"type": "Point", "coordinates": [-122.321931, 37.988695]}, "servedBy": ["o-9q9-actransit"], "identifiers": [{"identifier": "f-actransit-s-1303220", "tags": {"stop_lat": "37.988695", "stop_code": "58055", "stop_lon": "-122.321931", "parent_station": "", "stop_id": "1303220", "stop_name": "Richmond Pkwy:#3400", "location_type": ""}}], "type": "Feature", "properties": {}}, {"onestopId": "s-9qc00067q6-contracostacollege", "name": "Contra Costa College", "tags": {}, "geometry": {"type": "Point", "coordinates": [-122.340387, 37.970695]}, "servedBy": ["o-9q9-actransit"], "identifiers": [{"identifier": "f-actransit-s-1600380", "tags": {"stop_lat": "37.970695", "stop_code": "55114", "stop_lon": "-122.340387", "parent_station": "place_CCCO", "stop_id": "1600380", "stop_name": "Contra Costa College", "location_type": ""}}], "type": "Feature", "properties": {}}, {"onestopId": "s-9qc004rpm4-hilltop~hillviewhilltopvillage", "name": "Hilltop Dr:Hillview Dr (Hilltop Village)", "tags": {}, "geometry": {"type": "Point", "coordinates": [-122.333912, 37.982367]}, "servedBy": ["o-9q9-actransit"], "identifiers": [{"identifier": "f-actransit-s-1301880", "tags": {"stop_lat": "37.982367", "stop_code": "50965", "stop_lon": "-122.333912", "parent_station": "", "stop_id": "1301880", "stop_name": "Hilltop Dr:Hillview Dr (Hilltop Village)", "location_type": ""}}], "type": "Feature", "properties": {}}, {"onestopId": "s-9qc00b4km6-appian~santarita", "name": "Appian Way:Santa Rita Rd", "tags": {}, "geometry": {"type": "Point", "coordinates": [-122.307475, 37.969494]}, "servedBy": ["o-9q9-actransit"], "identifiers": [{"identifier": "f-actransit-s-9900190", "tags": {"stop_lat": "37.969494", "stop_code": "57731", "stop_lon": "-122.307475", "parent_station": "", "stop_id": "9900190", "stop_name": "Appian Way:Santa Rita Rd", "location_type": ""}}], "type": "Feature", "properties": {}}, {"onestopId": "s-9qc0093s3k-hilltop~eastshorefwy", "name": "Hilltop Dr:Eastshore Fwy", "tags": {}, "geometry": {"type": "Point", "coordinates": [-122.319663, 37.976371]}, "servedBy": ["o-9q9-actransit"], "identifiers": [{"identifier": "f-actransit-s-1301860", "tags": {"stop_lat": "37.976371", "stop_code": "59410", "stop_lon": "-122.319663", "parent_station": "", "stop_id": "1301860", "stop_name": "Hilltop Dr:Eastshore Fwy", "location_type": ""}}], "type": "Feature", "properties": {}}, {"onestopId": "s-9qc00dhee6-~fairway", "name": "Parkway Dr:Fairway Dr", "tags": {}, "geometry": {"type": "Point", "coordinates": [-122.315448, 37.980352]}, "servedBy": ["o-9q9-actransit"], "identifiers": [{"identifier": "f-actransit-s-1302750", "tags": {"stop_lat": "37.980352", "stop_code": "56123", "stop_lon": "-122.315448", "parent_station": "", "stop_id": "1302750", "stop_name": "Parkway Dr:Fairway Dr", "location_type": ""}}], "type": "Feature", "properties": {}}, {"onestopId": "s-9qc000c7dw-lancaster~aberdeen", "name": "Lancaster Dr:Aberdeen Way", "tags": {}, "geometry": {"type": "Point", "coordinates": [-122.341921, 37.973508]}, "servedBy": ["o-9q9-actransit"], "identifiers": [{"identifier": "f-actransit-s-1302100", "tags": {"stop_lat": "37.973508", "stop_code": "54996", "stop_lon": "-122.341921", "parent_station": "", "stop_id": "1302100", "stop_name": "Lancaster Dr:Aberdeen Way", "location_type": ""}}], "type": "Feature", "properties": {}}, {"onestopId": "s-9qc00cuu0e-hilltop~renfrew", "name": "Hilltop Dr:Renfrew Rd", "tags": {}, "geometry": {"type": "Point", "coordinates": [-122.304243, 37.979067]}, "servedBy": ["o-9q9-actransit"], "identifiers": [{"identifier": "f-actransit-s-9900690", "tags": {"stop_lat": "37.979067", "stop_code": "54630", "stop_lon": "-122.304243", "parent_station": "", "stop_id": "9900690", "stop_name": "Hilltop Dr:Renfrew Rd", "location_type": ""}}], "type": "Feature", "properties": {}}, {"onestopId": "s-9qc0097bcv-hilltop~i80offramp", "name": "Hilltop Dr:I-80 Offramp", "tags": {}, "geometry": {"type": "Point", "coordinates": [-122.316552, 37.975777]}, "servedBy": ["o-9q9-actransit"], "identifiers": [{"identifier": "f-actransit-s-1304100", "tags": {"stop_lat": "37.975777", "stop_code": "59165", "stop_lon": "-122.316552", "parent_station": "place_HPNR", "stop_id": "1304100", "stop_name": "Hilltop Dr:I-80 Offramp", "location_type": ""}}], "type": "Feature", "properties": {}}, {"onestopId": "s-9qc007g71h-richmond~lakeside", "name": "Richmond Pkwy:Lakeside Dr", "tags": {}, "geometry": {"type": "Point", "coordinates": [-122.328254, 37.989888]}, "servedBy": ["o-9q9-actransit"], "identifiers": [{"identifier": "f-actransit-s-1303250", "tags": {"stop_lat": "37.989888", "stop_code": "58775", "stop_lon": "-122.328254", "parent_station": "", "stop_id": "1303250", "stop_name": "Richmond Pkwy:Lakeside Dr", "location_type": ""}}], "type": "Feature", "properties": {}}, {"onestopId": "s-9qc00ftdyd-hilltop~manor", "name": "Hilltop Dr:Manor Rd", "tags": {}, "geometry": {"type": "Point", "coordinates": [-122.302956, 37.982966]}, "servedBy": ["o-9q9-actransit"], "identifiers": [{"identifier": "f-actransit-s-9900660", "tags": {"stop_lat": "37.982966", "stop_code": "51095", "stop_lon": "-122.302956", "parent_station": "", "stop_id": "9900660", "stop_name": "Hilltop Dr:Manor Rd", "location_type": ""}}], "type": "Feature", "properties": {}}, {"onestopId": "s-9qc000vs6p-birmingham~oxford", "name": "Birmingham Dr:Oxford Av", "tags": {}, "geometry": {"type": "Point", "coordinates": [-122.336107, 37.973638]}, "servedBy": ["o-9q9-actransit"], "identifiers": [{"identifier": "f-actransit-s-1300730", "tags": {"stop_lat": "37.973638", "stop_code": "58717", "stop_lon": "-122.336107", "parent_station": "", "stop_id": "1300730", "stop_name": "Birmingham Dr:Oxford Av", "location_type": ""}}], "type": "Feature", "properties": {}}, {"onestopId": "s-9qc00ujjcz-fitzgerald~sizzlerrestaurantpinoleshoppcr", "name": "Fitzgerald Dr:Sizzler Restaurant(Pinole Shopp Cr.)", "tags": {}, "geometry": {"type": "Point", "coordinates": [-122.303845, 37.991748]}, "servedBy": ["o-9q9-actransit"], "identifiers": [{"identifier": "f-actransit-s-1200050", "tags": {"stop_lat": "37.991748", "stop_code": "55737", "stop_lon": "-122.303845", "parent_station": "", "stop_id": "1200050", "stop_name": "Fitzgerald Dr:Sizzler Restaurant(Pinole Shopp Cr.)", "location_type": ""}}], "type": "Feature", "properties": {}}, {"onestopId": "s-9qc00dn78p-~greenway", "name": "Parkway Dr:Greenway Dr", "tags": {}, "geometry": {"type": "Point", "coordinates": [-122.313189, 37.98038]}, "servedBy": ["o-9q9-actransit"], "identifiers": [{"identifier": "f-actransit-s-1302760", "tags": {"stop_lat": "37.980380", "stop_code": "53032", "stop_lon": "-122.313189", "parent_station": "", "stop_id": "1302760", "stop_name": "Parkway Dr:Greenway Dr", "location_type": ""}}], "type": "Feature", "properties": {}}, {"onestopId": "s-9qc0006u1n-contracostacollege", "name": "Contra Costa College", "tags": {}, "geometry": {"type": "Point", "coordinates": [-122.339928, 37.970847]}, "servedBy": ["o-9q9-actransit"], "identifiers": [{"identifier": "f-actransit-s-1600400", "tags": {"stop_lat": "37.970847", "stop_code": "53733", "stop_lon": "-122.339928", "parent_station": "place_CCCO", "stop_id": "1600400", "stop_name": "Contra Costa College", "location_type": ""}}], "type": "Feature", "properties": {}}, {"onestopId": "s-9qc00g8445-fitzgerald~targetstorepinoleshoppingcent", "name": "Fitzgerald Dr:Target Store (Pinole Shopping Cent.)", "tags": {}, "geometry": {"type": "Point", "coordinates": [-122.310704, 37.988336]}, "servedBy": ["o-9q9-actransit"], "identifiers": [{"identifier": "f-actransit-s-1200070", "tags": {"stop_lat": "37.988336", "stop_code": "58845", "stop_lon": "-122.310704", "parent_station": "place_TAPI", "stop_id": "1200070", "stop_name": "Fitzgerald Dr:Target Store (Pinole Shopping Cent.)", "location_type": ""}}], "type": "Feature", "properties": {}}, {"onestopId": "s-9qc00btjgs-appian~4630", "name": "Appian Way:#4630", "tags": {}, "geometry": {"type": "Point", "coordinates": [-122.303773, 37.972509]}, "servedBy": ["o-9q9-actransit"], "identifiers": [{"identifier": "f-actransit-s-9900060", "tags": {"stop_lat": "37.972509", "stop_code": "59354", "stop_lon": "-122.303773", "parent_station": "", "stop_id": "9900060", "stop_name": "Appian Way:#4630", "location_type": ""}}], "type": "Feature", "properties": {}}, {"onestopId": "s-9qc0006t5b-contracostacollege", "name": "Contra Costa College", "tags": {}, "geometry": {"type": "Point", "coordinates": [-122.340149, 37.970986]}, "servedBy": ["o-9q9-actransit"], "identifiers": [{"identifier": "f-actransit-s-1600360", "tags": {"stop_lat": "37.970986", "stop_code": "56662", "stop_lon": "-122.340149", "parent_station": "place_CCCO", "stop_id": "1600360", "stop_name": "Contra Costa College", "location_type": ""}}], "type": "Feature", "properties": {}}, {"onestopId": "s-9qc00c3ycy-hilltop~lapaloma", "name": "Hilltop Dr:La Paloma Rd", "tags": {}, "geometry": {"type": "Point", "coordinates": [-122.308312, 37.976808]}, "servedBy": ["o-9q9-actransit"], "identifiers": [{"identifier": "f-actransit-s-9900640", "tags": {"stop_lat": "37.976808", "stop_code": "50420", "stop_lon": "-122.308312", "parent_station": "", "stop_id": "9900640", "stop_name": "Hilltop Dr:La Paloma Rd", "location_type": ""}}], "type": "Feature", "properties": {}}, {"onestopId": "s-9qc003j12b-groom~altamira", "name": "Groom Dr:Alta Mira Dr", "tags": {}, "geometry": {"type": "Point", "coordinates": [-122.325865, 37.974459]}, "servedBy": ["o-9q9-actransit"], "identifiers": [{"identifier": "f-actransit-s-1301650", "tags": {"stop_lat": "37.974459", "stop_code": "52852", "stop_lon": "-122.325865", "parent_station": "", "stop_id": "1301650", "stop_name": "Groom Dr:Alta Mira Dr", "location_type": ""}}], "type": "Feature", "properties": {}}, {"onestopId": "s-9qc003hcyj-groom~altamira", "name": "Groom Dr:Alta Mira Dr", "tags": {}, "geometry": {"type": "Point", "coordinates": [-122.325981, 37.974574]}, "servedBy": ["o-9q9-actransit"], "identifiers": [{"identifier": "f-actransit-s-1301660", "tags": {"stop_lat": "37.974574", "stop_code": "55724", "stop_lon": "-122.325981", "parent_station": "", "stop_id": "1301660", "stop_name": "Groom Dr:Alta Mira Dr", "location_type": ""}}], "type": "Feature", "properties": {}}, {"onestopId": "s-9qc00u53pz-fitzgerald~bestbuy", "name": "Fitzgerald Dr:Best Buy", "tags": {}, "geometry": {"type": "Point", "coordinates": [-122.305992, 37.990935]}, "servedBy": ["o-9q9-actransit"], "identifiers": [{"identifier": "f-actransit-s-1200020", "tags": {"stop_lat": "37.990935", "stop_code": "53318", "stop_lon": "-122.305992", "parent_station": "", "stop_id": "1200020", "stop_name": "Fitzgerald Dr:Best Buy", "location_type": ""}}], "type": "Feature", "properties": {}}, {"onestopId": "s-9qc003p57f-groom~moyers", "name": "Groom Dr:Moyers Rd", "tags": {}, "geometry": {"type": "Point", "coordinates": [-122.322981, 37.974814]}, "servedBy": ["o-9q9-actransit"], "identifiers": [{"identifier": "f-actransit-s-1301680", "tags": {"stop_lat": "37.974814", "stop_code": "55632", "stop_lon": "-122.322981", "parent_station": "", "stop_id": "1301680", "stop_name": "Groom Dr:Moyers Rd", "location_type": ""}}], "type": "Feature", "properties": {}}, {"onestopId": "s-9qc00d9dym-klose~hilltopplaza", "name": "Klose Way:Hilltop Plaza", "tags": {}, "geometry": {"type": "Point", "coordinates": [-122.319444, 37.982984]}, "servedBy": ["o-9q9-actransit"], "identifiers": [{"identifier": "f-actransit-s-1302070", "tags": {"stop_lat": "37.982984", "stop_code": "51565", "stop_lon": "-122.319444", "parent_station": "", "stop_id": "1302070", "stop_name": "Klose Way:Hilltop Plaza", "location_type": ""}}], "type": "Feature", "properties": {}}, {"onestopId": "s-9qc00ftgb0-hilltop~manor", "name": "Hilltop Dr:Manor Rd", "tags": {}, "geometry": {"type": "Point", "coordinates": [-122.30289, 37.983129]}, "servedBy": ["o-9q9-actransit"], "identifiers": [{"identifier": "f-actransit-s-9900650", "tags": {"stop_lat": "37.983129", "stop_code": "51091", "stop_lon": "-122.302890", "parent_station": "", "stop_id": "9900650", "stop_name": "Hilltop Dr:Manor Rd", "location_type": ""}}], "type": "Feature", "properties": {}}, {"onestopId": "s-9qc002yjr5-moyers~benjamin", "name": "Moyers Rd:Benjamin Dr", "tags": {}, "geometry": {"type": "Point", "coordinates": [-122.324219, 37.973792]}, "servedBy": ["o-9q9-actransit"], "identifiers": [{"identifier": "f-actransit-s-1302650", "tags": {"stop_lat": "37.973792", "stop_code": "59893", "stop_lon": "-122.324219", "parent_station": "", "stop_id": "1302650", "stop_name": "Moyers Rd:Benjamin Dr", "location_type": ""}}], "type": "Feature", "properties": {}}, {"onestopId": "s-9qc00u563z-fitzgerald~pinoleridgeshopping", "name": "Fitzgerald Dr:Pinole Ridge Shopping Center", "tags": {}, "geometry": {"type": "Point", "coordinates": [-122.306245, 37.991151]}, "servedBy": ["o-9q9-actransit"], "identifiers": [{"identifier": "f-actransit-s-1200030", "tags": {"stop_lat": "37.991151", "stop_code": "51580", "stop_lon": "-122.306245", "parent_station": "", "stop_id": "1200030", "stop_name": "Fitzgerald Dr:Pinole Ridge Shopping Center", "location_type": ""}}], "type": "Feature", "properties": {}}, {"onestopId": "s-9qc00h9z87-atlas~upsfacility", "name": "Atlas Rd:UPS Facility", "tags": {}, "geometry": {"type": "Point", "coordinates": [-122.341333, 37.994774]}, "servedBy": ["o-9q9-actransit"], "identifiers": [{"identifier": "f-actransit-s-1300580", "tags": {"stop_lat": "37.994774", "stop_code": "52466", "stop_lon": "-122.341333", "parent_station": "", "stop_id": "1300580", "stop_name": "Atlas Rd:UPS Facility", "location_type": ""}}], "type": "Feature", "properties": {}}, {"onestopId": "s-9qc002cb9h-shane~3046", "name": "Shane Dr:#3046", "tags": {}, "geometry": {"type": "Point", "coordinates": [-122.330317, 37.972981]}, "servedBy": ["o-9q9-actransit"], "identifiers": [{"identifier": "f-actransit-s-1303710", "tags": {"stop_lat": "37.972981", "stop_code": "57327", "stop_lon": "-122.330317", "parent_station": "", "stop_id": "1303710", "stop_name": "Shane Dr:#3046", "location_type": ""}}], "type": "Feature", "properties": {}}, {"onestopId": "s-9qc000c7jx-lancaster~aberdeen", "name": "Lancaster Dr:Aberdeen Way", "tags": {}, "geometry": {"type": "Point", "coordinates": [-122.341796, 37.973426]}, "servedBy": ["o-9q9-actransit"], "identifiers": [{"identifier": "f-actransit-s-1302090", "tags": {"stop_lat": "37.973426", "stop_code": "56883", "stop_lon": "-122.341796", "parent_station": "", "stop_id": "1302090", "stop_name": "Lancaster Dr:Aberdeen Way", "location_type": ""}}], "type": "Feature", "properties": {}}, {"onestopId": "s-9qc00b7yz3-appian~lapaloma", "name": "Appian Way:La Paloma Rd", "tags": {}, "geometry": {"type": "Point", "coordinates": [-122.305323, 37.971288]}, "servedBy": ["o-9q9-actransit"], "identifiers": [{"identifier": "f-actransit-s-9901540", "tags": {"stop_lat": "37.971288", "stop_code": "58012", "stop_lon": "-122.305323", "parent_station": "", "stop_id": "9901540", "stop_name": "Appian Way:La Paloma Rd", "location_type": ""}}], "type": "Feature", "properties": {}}, {"onestopId": "s-9qc003fr1v-hilltopmall~jcpenneys", "name": "Hilltop Mall:J.C. Penney's", "tags": {}, "geometry": {"type": "Point", "coordinates": [-122.329588, 37.979592]}, "servedBy": ["o-9q9-actransit"], "identifiers": [{"identifier": "f-actransit-s-1301960", "tags": {"stop_lat": "37.979592", "stop_code": "55455", "stop_lon": "-122.329588", "parent_station": "", "stop_id": "1301960", "stop_name": "Hilltop Mall:J.C. Penney's", "location_type": ""}}], "type": "Feature", "properties": {}}, {"onestopId": "s-9qc001j4sd-birmingham~groom", "name": "Birmingham Dr:Groom Dr", "tags": {}, "geometry": {"type": "Point", "coordinates": [-122.336681, 37.974686]}, "servedBy": ["o-9q9-actransit"], "identifiers": [{"identifier": "f-actransit-s-1300720", "tags": {"stop_lat": "37.974686", "stop_code": "53850", "stop_lon": "-122.336681", "parent_station": "", "stop_id": "1300720", "stop_name": "Birmingham Dr:Groom Dr", "location_type": ""}}], "type": "Feature", "properties": {}}, {"onestopId": "s-9qc0035j4s-shane~gilma", "name": "Shane Dr:Gilma Dr", "tags": {}, "geometry": {"type": "Point", "coordinates": [-122.328532, 37.975128]}, "servedBy": ["o-9q9-actransit"], "identifiers": [{"identifier": "f-actransit-s-1303740", "tags": {"stop_lat": "37.975128", "stop_code": "51866", "stop_lon": "-122.328532", "parent_station": "", "stop_id": "1303740", "stop_name": "Shane Dr:Gilma Dr", "location_type": ""}}], "type": "Feature", "properties": {}}, {"onestopId": "s-9qc002he24-moyers~parker", "name": "Moyers Rd:Parker Rd", "tags": {}, "geometry": {"type": "Point", "coordinates": [-122.326579, 37.96932]}, "servedBy": ["o-9q9-actransit"], "identifiers": [{"identifier": "f-actransit-s-1302690", "tags": {"stop_lat": "37.969320", "stop_code": "53585", "stop_lon": "-122.326579", "parent_station": "", "stop_id": "1302690", "stop_name": "Moyers Rd:Parker Rd", "location_type": ""}}], "type": "Feature", "properties": {}}, {"onestopId": "s-9qc0092ymt-hilltop~eastshorefwy", "name": "Hilltop Dr:Eastshore Fwy", "tags": {}, "geometry": {"type": "Point", "coordinates": [-122.320507, 37.976719]}, "servedBy": ["o-9q9-actransit"], "identifiers": [{"identifier": "f-actransit-s-1301870", "tags": {"stop_lat": "37.976719", "stop_code": "55746", "stop_lon": "-122.320507", "parent_station": "", "stop_id": "1301870", "stop_name": "Hilltop Dr:Eastshore Fwy", "location_type": ""}}], "type": "Feature", "properties": {}}, {"onestopId": "s-9qc00ujucm-fitzgerald~lucky", "name": "Fitzgerald Dr:Lucky", "tags": {}, "geometry": {"type": "Point", "coordinates": [-122.302833, 37.991568]}, "servedBy": ["o-9q9-actransit"], "identifiers": [{"identifier": "f-actransit-s-1200040", "tags": {"stop_lat": "37.991568", "stop_code": "59855", "stop_lon": "-122.302833", "parent_station": "", "stop_id": "1200040", "stop_name": "Fitzgerald Dr:Lucky", "location_type": ""}}], "type": "Feature", "properties": {}}, {"onestopId": "s-9qc000cxgn-aberdeen~gospelchurch", "name": "Aberdeen Way:Gospel Church", "tags": {}, "geometry": {"type": "Point", "coordinates": [-122.341552, 37.974236]}, "servedBy": ["o-9q9-actransit"], "identifiers": [{"identifier": "f-actransit-s-1300540", "tags": {"stop_lat": "37.974236", "stop_code": "53080", "stop_lon": "-122.341552", "parent_station": "", "stop_id": "1300540", "stop_name": "Aberdeen Way:Gospel Church", "location_type": ""}}], "type": "Feature", "properties": {}}, {"onestopId": "s-9qc001hkby-lancaster~southampton", "name": "Lancaster Dr:Southampton Ct", "tags": {}, "geometry": {"type": "Point", "coordinates": [-122.337875, 37.975093]}, "servedBy": ["o-9q9-actransit"], "identifiers": [{"identifier": "f-actransit-s-1302130", "tags": {"stop_lat": "37.975093", "stop_code": "58060", "stop_lon": "-122.337875", "parent_station": "", "stop_id": "1302130", "stop_name": "Lancaster Dr:Southampton Ct", "location_type": ""}}], "type": "Feature", "properties": {}}, {"onestopId": "s-9qc003ph0d-groom~moyers", "name": "Groom Dr:Moyers Rd", "tags": {}, "geometry": {"type": "Point", "coordinates": [-122.323119, 37.974945]}, "servedBy": ["o-9q9-actransit"], "identifiers": [{"identifier": "f-actransit-s-1301670", "tags": {"stop_lat": "37.974945", "stop_code": "53668", "stop_lon": "-122.323119", "parent_station": "", "stop_id": "1301670", "stop_name": "Groom Dr:Moyers Rd", "location_type": ""}}], "type": "Feature", "properties": {}}, {"onestopId": "s-9qc00fmg22-hilltop~marin", "name": "Hilltop Dr:Marin Rd", "tags": {}, "geometry": {"type": "Point", "coordinates": [-122.302877, 37.981671]}, "servedBy": ["o-9q9-actransit"], "identifiers": [{"identifier": "f-actransit-s-9900680", "tags": {"stop_lat": "37.981671", "stop_code": "51653", "stop_lon": "-122.302877", "parent_station": "", "stop_id": "9900680", "stop_name": "Hilltop Dr:Marin Rd", "location_type": ""}}], "type": "Feature", "properties": {}}, {"onestopId": "s-9qc000rz61-birmingham~shane", "name": "Birmingham Dr:Shane Dr", "tags": {}, "geometry": {"type": "Point", "coordinates": [-122.333011, 37.971375]}, "servedBy": ["o-9q9-actransit"], "identifiers": [{"identifier": "f-actransit-s-1300740", "tags": {"stop_lat": "37.971375", "stop_code": "55274", "stop_lon": "-122.333011", "parent_station": "", "stop_id": "1300740", "stop_name": "Birmingham Dr:Shane Dr", "location_type": ""}}], "type": "Feature", "properties": {}}, {"onestopId": "s-9qc00h9wmu-atlas~upsfacility", "name": "Atlas Rd:UPS Facility", "tags": {}, "geometry": {"type": "Point", "coordinates": [-122.341439, 37.994565]}, "servedBy": ["o-9q9-actransit"], "identifiers": [{"identifier": "f-actransit-s-1300590", "tags": {"stop_lat": "37.994565", "stop_code": "58565", "stop_lon": "-122.341439", "parent_station": "", "stop_id": "1300590", "stop_name": "Atlas Rd:UPS Facility", "location_type": ""}}], "type": "Feature", "properties": {}}, {"onestopId": "s-9qc000x6w4-birmingham~barkley", "name": "Birmingham Dr:Barkley Dr", "tags": {}, "geometry": {"type": "Point", "coordinates": [-122.333529, 37.971941]}, "servedBy": ["o-9q9-actransit"], "identifiers": [{"identifier": "f-actransit-s-1300700", "tags": {"stop_lat": "37.971941", "stop_code": "54491", "stop_lon": "-122.333529", "parent_station": "", "stop_id": "1300700", "stop_name": "Birmingham Dr:Barkley Dr", "location_type": ""}}], "type": "Feature", "properties": {}}, {"onestopId": "s-9qc005hxhw-hilltop~vistadelmar", "name": "Hilltop Dr:Vista Del Mar", "tags": {}, "geometry": {"type": "Point", "coordinates": [-122.337369, 37.986466]}, "servedBy": ["o-9q9-actransit"], "identifiers": [{"identifier": "f-actransit-s-1303950", "tags": {"stop_lat": "37.986466", "stop_code": "57607", "stop_lon": "-122.337369", "parent_station": "", "stop_id": "1303950", "stop_name": "Hilltop Dr:Vista Del Mar", "location_type": ""}}], "type": "Feature", "properties": {}}, {"onestopId": "s-9qc009mz89-parkcentral~hilltop", "name": "Park Central:Hilltop Dr", "tags": {}, "geometry": {"type": "Point", "coordinates": [-122.313852, 37.976911]}, "servedBy": ["o-9q9-actransit"], "identifiers": [{"identifier": "f-actransit-s-1302710", "tags": {"stop_lat": "37.976911", "stop_code": "52921", "stop_lon": "-122.313852", "parent_station": "", "stop_id": "1302710", "stop_name": "Park Central:Hilltop Dr", "location_type": ""}}], "type": "Feature", "properties": {}}, {"onestopId": "s-9qc00fwt07-manor~kelvin", "name": "Manor Rd:Kelvin Rd", "tags": {}, "geometry": {"type": "Point", "coordinates": [-122.301848, 37.983361]}, "servedBy": ["o-9q9-actransit"], "identifiers": [{"identifier": "f-actransit-s-9900760", "tags": {"stop_lat": "37.983361", "stop_code": "52109", "stop_lon": "-122.301848", "parent_station": "", "stop_id": "9900760", "stop_name": "Manor Rd:Kelvin Rd", "location_type": ""}}], "type": "Feature", "properties": {}}, {"onestopId": "s-9qc00fwt0e-manor~kelvin", "name": "Manor Rd:Kelvin Rd", "tags": {}, "geometry": {"type": "Point", "coordinates": [-122.301843, 37.983362]}, "servedBy": ["o-9q9-actransit"], "identifiers": [{"identifier": "f-actransit-s-9900770", "tags": {"stop_lat": "37.983362", "stop_code": "54920", "stop_lon": "-122.301843", "parent_station": "", "stop_id": "9900770", "stop_name": "Manor Rd:Kelvin Rd", "location_type": ""}}], "type": "Feature", "properties": {}}, {"onestopId": "s-9qc00byugk-appian~cortearrango", "name": "Appian Way:Corte Arrango", "tags": {}, "geometry": {"type": "Point", "coordinates": [-122.30138, 37.97371]}, "servedBy": ["o-9q9-actransit"], "identifiers": [{"identifier": "f-actransit-s-9900100", "tags": {"stop_lat": "37.973710", "stop_code": "50133", "stop_lon": "-122.301380", "parent_station": "", "stop_id": "9900100", "stop_name": "Appian Way:Corte Arrango", "location_type": ""}}], "type": "Feature", "properties": {}}, {"onestopId": "s-9qc00f0grf-parkcentral~parkridge", "name": "Park Central:Parkridge Dr", "tags": {}, "geometry": {"type": "Point", "coordinates": [-122.309418, 37.980308]}, "servedBy": ["o-9q9-actransit"], "identifiers": [{"identifier": "f-actransit-s-1302730", "tags": {"stop_lat": "37.980308", "stop_code": "52932", "stop_lon": "-122.309418", "parent_station": "", "stop_id": "1302730", "stop_name": "Park Central:Parkridge Dr", "location_type": ""}}], "type": "Feature", "properties": {}}, {"onestopId": "s-9qc000xj05-birmingham~2953", "name": "Birmingham Dr:#2953", "tags": {}, "geometry": {"type": "Point", "coordinates": [-122.334135, 37.972374]}, "servedBy": ["o-9q9-actransit"], "identifiers": [{"identifier": "f-actransit-s-1300690", "tags": {"stop_lat": "37.972374", "stop_code": "56538", "stop_lon": "-122.334135", "parent_station": "", "stop_id": "1300690", "stop_name": "Birmingham Dr:#2953", "location_type": ""}}], "type": "Feature", "properties": {}}, {"onestopId": "s-9qc001f58b-lapuerta~sanpablo", "name": "La Puerta Dr:San Pablo Av", "tags": {}, "geometry": {"type": "Point", "coordinates": [-122.340966, 37.978965]}, "servedBy": ["o-9q9-actransit"], "identifiers": [{"identifier": "f-actransit-s-1302080", "tags": {"stop_lat": "37.978965", "stop_code": "59820", "stop_lon": "-122.340966", "parent_station": "", "stop_id": "1302080", "stop_name": "La Puerta Dr:San Pablo Av", "location_type": ""}}], "type": "Feature", "properties": {}}, {"onestopId": "s-9qc00083zk-sanpablo~rivers", "name": "San Pablo Av:Rivers St", "tags": {}, "geometry": {"type": "Point", "coordinates": [-122.343087, 37.971822]}, "servedBy": ["o-9q9-actransit"], "identifiers": [{"identifier": "f-actransit-s-1600950", "tags": {"stop_lat": "37.971822", "stop_code": "54099", "stop_lon": "-122.343087", "parent_station": "", "stop_id": "1600950", "stop_name": "San Pablo Av:Rivers St", "location_type": ""}}], "type": "Feature", "properties": {}}, {"onestopId": "s-9qc0029rx4-shane~3033", "name": "Shane Dr:#3033", "tags": {}, "geometry": {"type": "Point", "coordinates": [-122.330742, 37.972799]}, "servedBy": ["o-9q9-actransit"], "identifiers": [{"identifier": "f-actransit-s-1303700", "tags": {"stop_lat": "37.972799", "stop_code": "57217", "stop_lon": "-122.330742", "parent_station": "", "stop_id": "1303700", "stop_name": "Shane Dr:#3033", "location_type": ""}}], "type": "Feature", "properties": {}}, {"onestopId": "s-9qc00ex94w-fitzgerald~targetpinoleshopping", "name": "Fitzgerald Dr:Target (Pinole Shopping Center)", "tags": {}, "geometry": {"type": "Point", "coordinates": [-122.31137, 37.988184]}, "servedBy": ["o-9q9-actransit"], "identifiers": [{"identifier": "f-actransit-s-1200060", "tags": {"stop_lat": "37.988184", "stop_code": "55358", "stop_lon": "-122.311370", "parent_station": "", "stop_id": "1200060", "stop_name": "Fitzgerald Dr:Target (Pinole Shopping Center)", "location_type": ""}}], "type": "Feature", "properties": {}}, {"onestopId": "s-9qc000y1zb-birmingham~belfast", "name": "Birmingham Dr:Belfast Way", "tags": {}, "geometry": {"type": "Point", "coordinates": [-122.335174, 37.973174]}, "servedBy": ["o-9q9-actransit"], "identifiers": [{"identifier": "f-actransit-s-1300710", "tags": {"stop_lat": "37.973174", "stop_code": "53830", "stop_lon": "-122.335174", "parent_station": "", "stop_id": "1300710", "stop_name": "Birmingham Dr:Belfast Way", "location_type": ""}}], "type": "Feature", "properties": {}}, {"onestopId": "s-9qc00dmrjm-fairway~parkcentral", "name": "Fairway Dr:Park Central", "tags": {}, "geometry": {"type": "Point", "coordinates": [-122.314335, 37.982341]}, "servedBy": ["o-9q9-actransit"], "identifiers": [{"identifier": "f-actransit-s-1301420", "tags": {"stop_lat": "37.982341", "stop_code": "54210", "stop_lon": "-122.314335", "parent_station": "", "stop_id": "1301420", "stop_name": "Fairway Dr:Park Central", "location_type": ""}}], "type": "Feature", "properties": {}}, {"onestopId": "s-9qc003dume-shane~hilltopmall", "name": "Shane Dr:Hilltop Mall Rd", "tags": {}, "geometry": {"type": "Point", "coordinates": [-122.328748, 37.977738]}, "servedBy": ["o-9q9-actransit"], "identifiers": [{"identifier": "f-actransit-s-1303750", "tags": {"stop_lat": "37.977738", "stop_code": "56332", "stop_lon": "-122.328748", "parent_station": "", "stop_id": "1303750", "stop_name": "Shane Dr:Hilltop Mall Rd", "location_type": ""}}], "type": "Feature", "properties": {}}]}