{"prefix": "9q95z", "type": "FeatureCollection", "properties": {}, "features": [{"onestopId": "s-9q95zpe4jj-saratogasunnyvale~walnut", "name": "SARATOGA-SUNNYVALE & WALNUT", "tags": {}, "geometry": {"type": "Point", "coordinates": [-122.03178953, 37.263249436]}, "servedBy": ["o-9q9-vta"], "identifiers": [{"identifier": "f-vta-s-2236", "tags": {"stop_lat": "37.263249436000002", "zone_id": "1", "stop_lon": "-122.03178953", "stop_id": "2236", "stop_desc": "", "stop_name": "SARATOGA-SUNNYVALE & WALNUT"}}], "type": "Feature", "properties": {}}, {"onestopId": "s-9q95zrfq5s-saratoga~herriman", "name": "SARATOGA & HERRIMAN", "tags": {}, "geometry": {"type": "Point", "coordinates": [-122.021895887, 37.26530529]}, "servedBy": ["o-9q9-vta"], "identifiers": [{"identifier": "f-vta-s-1203", "tags": {"stop_lat": "37.265305290000001", "zone_id": "1", "stop_lon": "-122.021895887", "stop_id": "1203", "stop_desc": "", "stop_name": "SARATOGA & HERRIMAN"}}], "type": "Feature", "properties": {}}, {"onestopId": "s-9q95zp6zyu-saratogasunnyvale~marion", "name": "SARATOGA-SUNNYVALE & MARION", "tags": {}, "geometry": {"type": "Point", "coordinates": [-122.032064337, 37.26285922]}, "servedBy": ["o-9q9-vta"], "identifiers": [{"identifier": "f-vta-s-2311", "tags": {"stop_lat": "37.262859220000003", "zone_id": "1", "stop_lon": "-122.03206433699999", "stop_id": "2311", "stop_desc": "", "stop_name": "SARATOGA-SUNNYVALE & MARION"}}], "type": "Feature", "properties": {}}, {"onestopId": "s-9q95zngutz-saratoga~saratogasunnyvale", "name": "SARATOGA & SARATOGA-SUNNYVALE", "tags": {}, "geometry": {"type": "Point", "coordinates": [-122.030733341, 37.259573655]}, "servedBy": ["o-9q9-vta"], "identifiers": [{"identifier": "f-vta-s-1049", "tags": {"stop_lat": "37.259573654999997", "zone_id": "1", "stop_lon": "-122.030733341", "stop_id": "1049", "stop_desc": "", "stop_name": "SARATOGA & SARATOGA-SUNNYVALE"}}], "type": "Feature", "properties": {}}, {"onestopId": "s-9q95znggc0-saratoga~saratogalosgatos", "name": "SARATOGA & SARATOGA-LOS GATOS", "tags": {}, "geometry": {"type": "Point", "coordinates": [-122.030939181, 37.259406422]}, "servedBy": ["o-9q9-vta"], "identifiers": [{"identifier": "f-vta-s-1200", "tags": {"stop_lat": "37.259406421999998", "zone_id": "1", "stop_lon": "-122.03093918099999", "stop_id": "1200", "stop_desc": "", "stop_name": "SARATOGA & SARATOGA-LOS GATOS"}}], "type": "Feature", "properties": {}}, {"onestopId": "s-9q95zzzrhs-quito~ravenswood", "name": "QUITO & RAVENSWOOD", "tags": {}, "geometry": {"type": "Point", "coordinates": [-121.99301487, 37.26547518]}, "servedBy": ["o-9q9-vta"], "identifiers": [{"identifier": "f-vta-s-5688", "tags": {"stop_lat": "37.265475180000003", "zone_id": "1", "stop_lon": "-121.99301487", "stop_id": "5688", "stop_desc": "", "stop_name": "QUITO & RAVENSWOOD"}}], "type": "Feature", "properties": {}}, {"onestopId": "s-9q95zprywg-saratoga~juniper", "name": "SARATOGA & JUNIPER", "tags": {}, "geometry": {"type": "Point", "coordinates": [-122.025198057, 37.262638153]}, "servedBy": ["o-9q9-vta"], "identifiers": [{"identifier": "f-vta-s-1202", "tags": {"stop_lat": "37.262638152999997", "zone_id": "1", "stop_lon": "-122.025198057", "stop_id": "1202", "stop_desc": "", "stop_name": "SARATOGA & JUNIPER"}}], "type": "Feature", "properties": {}}, {"onestopId": "s-9q95zzzq6n-quito~ravenswood", "name": "QUITO & RAVENSWOOD", "tags": {}, "geometry": {"type": "Point", "coordinates": [-121.99313145, 37.26535868]}, "servedBy": ["o-9q9-vta"], "identifiers": [{"identifier": "f-vta-s-5687", "tags": {"stop_lat": "37.265358679999999", "zone_id": "1", "stop_lon": "-121.99313145000001", "stop_id": "5687", "stop_desc": "", "stop_name": "QUITO & RAVENSWOOD"}}], "type": "Feature", "properties": {}}, {"onestopId": "s-9q95zprmje-saratoga~seagraves", "name": "SARATOGA & SEAGRAVES", "tags": {}, "geometry": {"type": "Point", "coordinates": [-122.025938935, 37.262383154]}, "servedBy": ["o-9q9-vta"], "identifiers": [{"identifier": "f-vta-s-1048", "tags": {"stop_lat": "37.262383153999998", "zone_id": "1", "stop_lon": "-122.025938935", "stop_id": "1048", "stop_desc": "", "stop_name": "SARATOGA & SEAGRAVES"}}], "type": "Feature", "properties": {}}, {"onestopId": "s-9q95zpj2ex-saratoga~lapaloma", "name": "SARATOGA & LA PALOMA", "tags": {}, "geometry": {"type": "Point", "coordinates": [-122.028762995, 37.260260194]}, "servedBy": ["o-9q9-vta"], "identifiers": [{"identifier": "f-vta-s-1201", "tags": {"stop_lat": "37.260260193999997", "zone_id": "1", "stop_lon": "-122.02876299499999", "stop_id": "1201", "stop_desc": "", "stop_name": "SARATOGA & LA PALOMA"}}], "type": "Feature", "properties": {}}, {"onestopId": "s-9q95zrfh3p-saratoga~herriman", "name": "SARATOGA & HERRIMAN", "tags": {}, "geometry": {"type": "Point", "coordinates": [-122.022352694, 37.265024117]}, "servedBy": ["o-9q9-vta"], "identifiers": [{"identifier": "f-vta-s-1047", "tags": {"stop_lat": "37.265024117000003", "zone_id": "1", "stop_lon": "-122.02235269400001", "stop_id": "1047", "stop_desc": "", "stop_name": "SARATOGA & HERRIMAN"}}], "type": "Feature", "properties": {}}, {"onestopId": "s-9q95zpghtn-saratogasunnyvale~geraldzapelli", "name": "SARATOGA-SUNNYVALE & GERALD ZAPELLI", "tags": {}, "geometry": {"type": "Point", "coordinates": [-122.031793711, 37.265057707]}, "servedBy": ["o-9q9-vta"], "identifiers": [{"identifier": "f-vta-s-2237", "tags": {"stop_lat": "37.265057706999997", "zone_id": "1", "stop_lon": "-122.03179371100001", "stop_id": "2237", "stop_desc": "", "stop_name": "SARATOGA-SUNNYVALE & GERALD ZAPELLI"}}], "type": "Feature", "properties": {}}, {"onestopId": "s-9q95zpfuqc-saratogasunnyvale~reid", "name": "SARATOGA-SUNNYVALE & REID", "tags": {}, "geometry": {"type": "Point", "coordinates": [-122.032064945, 37.26499194]}, "servedBy": ["o-9q9-vta"], "identifiers": [{"identifier": "f-vta-s-2310", "tags": {"stop_lat": "37.264991940000002", "zone_id": "1", "stop_lon": "-122.032064945", "stop_id": "2310", "stop_desc": "", "stop_name": "SARATOGA-SUNNYVALE & REID"}}], "type": "Feature", "properties": {}}]}