{"prefix": "9q9nn", "type": "FeatureCollection", "properties": {}, "features": [{"onestopId": "s-9q9nn6c6zb-wtennyson~baldwin", "name": "W Tennyson Rd:Baldwin St", "tags": {}, "geometry": {"type": "Point", "coordinates": [-122.067041, 37.632771]}, "servedBy": ["o-9q9-actransit"], "identifiers": [{"identifier": "f-actransit-s-0804990", "tags": {"stop_lat": "37.632771", "stop_code": "51002", "stop_lon": "-122.067041", "parent_station": "", "stop_id": "0804990", "stop_name": "W Tennyson Rd:Baldwin St", "location_type": ""}}], "type": "Feature", "properties": {}}, {"onestopId": "s-9q9nn0pmh4-stratford~pacheco", "name": "Stratford Rd:Pacheco Way", "tags": {}, "geometry": {"type": "Point", "coordinates": [-122.069944, 37.618061]}, "servedBy": ["o-9q9-actransit"], "identifiers": [{"identifier": "f-actransit-s-0804710", "tags": {"stop_lat": "37.618061", "stop_code": "50320", "stop_lon": "-122.069944", "parent_station": "", "stop_id": "0804710", "stop_name": "Stratford Rd:Pacheco Way", "location_type": ""}}], "type": "Feature", "properties": {}}, {"onestopId": "s-9q9nnedd80-mission~tennyson", "name": "Mission Blvd:Tennyson Rd", "tags": {}, "geometry": {"type": "Point", "coordinates": [-122.054663, 37.636846]}, "servedBy": ["o-9q9-actransit"], "identifiers": [{"identifier": "f-actransit-s-0803640", "tags": {"stop_lat": "37.636846", "stop_code": "58001", "stop_lon": "-122.054663", "parent_station": "", "stop_id": "0803640", "stop_name": "Mission Blvd:Tennyson Rd", "location_type": ""}}], "type": "Feature", "properties": {}}, {"onestopId": "s-9q9nnmkhpe-mission~sorenson", "name": "Mission Blvd:Sorenson Rd", "tags": {}, "geometry": {"type": "Point", "coordinates": [-122.06327, 37.646732]}, "servedBy": ["o-9q9-actransit"], "identifiers": [{"identifier": "f-actransit-s-0803590", "tags": {"stop_lat": "37.646732", "stop_code": "56559", "stop_lon": "-122.063270", "parent_station": "", "stop_id": "0803590", "stop_name": "Mission Blvd:Sorenson Rd", "location_type": ""}}], "type": "Feature", "properties": {}}, {"onestopId": "s-9q9nnm88mg-whitman~cottagepark", "name": "Whitman St:Cottage Park Dr", "tags": {}, "geometry": {"type": "Point", "coordinates": [-122.068158, 37.647463]}, "servedBy": ["o-9q9-actransit"], "identifiers": [{"identifier": "f-actransit-s-0805350", "tags": {"stop_lat": "37.647463", "stop_code": "52150", "stop_lon": "-122.068158", "parent_station": "", "stop_id": "0805350", "stop_name": "Whitman St:Cottage Park Dr", "location_type": ""}}], "type": "Feature", "properties": {}}, {"onestopId": "s-9q9nn4s9dw-wtennyson~dickens", "name": "W Tennyson Rd:Dickens Av", "tags": {}, "geometry": {"type": "Point", "coordinates": [-122.073781, 37.631214]}, "servedBy": ["o-9q9-actransit"], "identifiers": [{"identifier": "f-actransit-s-0805030", "tags": {"stop_lat": "37.631214", "stop_code": "58458", "stop_lon": "-122.073781", "parent_station": "", "stop_id": "0805030", "stop_name": "W Tennyson Rd:Dickens Av", "location_type": ""}}], "type": "Feature", "properties": {}}, {"onestopId": "s-9q9nne1h0w-southhaywardbartstation", "name": "South Hayward BART Station", "tags": {}, "geometry": {"type": "Point", "coordinates": [-122.056705, 37.634389]}, "servedBy": ["o-9q9-actransit"], "identifiers": [{"identifier": "f-actransit-s-0804570", "tags": {"stop_lat": "37.634389", "stop_code": "56677", "stop_lon": "-122.056705", "parent_station": "place_SHBA", "stop_id": "0804570", "stop_name": "South Hayward BART Station", "location_type": ""}}], "type": "Feature", "properties": {}}, {"onestopId": "s-9q9nn1gq0q-tampa~sumatra", "name": "Tampa Av:Sumatra St", "tags": {}, "geometry": {"type": "Point", "coordinates": [-122.075595, 37.627863]}, "servedBy": ["o-9q9-actransit"], "identifiers": [{"identifier": "f-actransit-s-0804760", "tags": {"stop_lat": "37.627863", "stop_code": "51030", "stop_lon": "-122.075595", "parent_station": "", "stop_id": "0804760", "stop_name": "Tampa Av:Sumatra St", "location_type": ""}}], "type": "Feature", "properties": {}}, {"onestopId": "s-9q9nn01erf-industrial~hopkins", "name": "Industrial Pkwy:Hopkins St", "tags": {}, "geometry": {"type": "Point", "coordinates": [-122.07768, 37.61776]}, "servedBy": ["o-9q9-actransit"], "identifiers": [{"identifier": "f-actransit-s-0802870", "tags": {"stop_lat": "37.617760", "stop_code": "52892", "stop_lon": "-122.077680", "parent_station": "", "stop_id": "0802870", "stop_name": "Industrial Pkwy:Hopkins St", "location_type": ""}}], "type": "Feature", "properties": {}}, {"onestopId": "s-9q9nn52je5-gomer~patrick", "name": "Gomer St:Patrick Av", "tags": {}, "geometry": {"type": "Point", "coordinates": [-122.079949, 37.636002]}, "servedBy": ["o-9q9-actransit"], "identifiers": [{"identifier": "f-actransit-s-0801910", "tags": {"stop_lat": "37.636002", "stop_code": "57440", "stop_lon": "-122.079949", "parent_station": "", "stop_id": "0801910", "stop_name": "Gomer St:Patrick Av", "location_type": ""}}], "type": "Feature", "properties": {}}, {"onestopId": "s-9q9nnmk2df-mission~sorenson", "name": "Mission Blvd:Sorenson Rd", "tags": {}, "geometry": {"type": "Point", "coordinates": [-122.063131, 37.646124]}, "servedBy": ["o-9q9-actransit"], "identifiers": [{"identifier": "f-actransit-s-0803580", "tags": {"stop_lat": "37.646124", "stop_code": "54994", "stop_lon": "-122.063131", "parent_station": "", "stop_id": "0803580", "stop_name": "Mission Blvd:Sorenson Rd", "location_type": ""}}], "type": "Feature", "properties": {}}, {"onestopId": "s-9q9nn7q0tm-tennyson~oharran", "name": "Tennyson Rd:Oharran Dr", "tags": {}, "geometry": {"type": "Point", "coordinates": [-122.060622, 37.635154]}, "servedBy": ["o-9q9-actransit"], "identifiers": [{"identifier": "f-actransit-s-0804800", "tags": {"stop_lat": "37.635154", "stop_code": "53991", "stop_lon": "-122.060622", "parent_station": "", "stop_id": "0804800", "stop_name": "Tennyson Rd:Oharran Dr", "location_type": ""}}], "type": "Feature", "properties": {}}, {"onestopId": "s-9q9nnn1kwb-soto~lund", "name": "Soto Rd:Lund Av", "tags": {}, "geometry": {"type": "Point", "coordinates": [-122.078067, 37.65092]}, "servedBy": ["o-9q9-actransit"], "identifiers": [{"identifier": "f-actransit-s-0805920", "tags": {"stop_lat": "37.650920", "stop_code": "50551", "stop_lon": "-122.078067", "parent_station": "", "stop_id": "0805920", "stop_name": "Soto Rd:Lund Av", "location_type": ""}}], "type": "Feature", "properties": {}}, {"onestopId": "s-9q9nn6c9y0-wtennyson~baldwin", "name": "W Tennyson Rd:Baldwin St", "tags": {}, "geometry": {"type": "Point", "coordinates": [-122.06677, 37.632596]}, "servedBy": ["o-9q9-actransit"], "identifiers": [{"identifier": "f-actransit-s-0805000", "tags": {"stop_lat": "37.632596", "stop_code": "51090", "stop_lon": "-122.066770", "parent_station": "", "stop_id": "0805000", "stop_name": "W Tennyson Rd:Baldwin St", "location_type": ""}}], "type": "Feature", "properties": {}}, {"onestopId": "s-9q9nnk594m-whitman~sparling", "name": "Whitman St:Sparling Dr", "tags": {}, "geometry": {"type": "Point", "coordinates": [-122.064187, 37.639359]}, "servedBy": ["o-9q9-actransit"], "identifiers": [{"identifier": "f-actransit-s-0805510", "tags": {"stop_lat": "37.639359", "stop_code": "51006", "stop_lon": "-122.064187", "parent_station": "", "stop_id": "0805510", "stop_name": "Whitman St:Sparling Dr", "location_type": ""}}], "type": "Feature", "properties": {}}, {"onestopId": "s-9q9nn4xth5-wtennyson~ruus", "name": "W Tennyson Rd:Ruus Rd", "tags": {}, "geometry": {"type": "Point", "coordinates": [-122.069598, 37.631795]}, "servedBy": ["o-9q9-actransit"], "identifiers": [{"identifier": "f-actransit-s-0805130", "tags": {"stop_lat": "37.631795", "stop_code": "56595", "stop_lon": "-122.069598", "parent_station": "", "stop_id": "0805130", "stop_name": "W Tennyson Rd:Ruus Rd", "location_type": ""}}], "type": "Feature", "properties": {}}, {"onestopId": "s-9q9nnpumkt-mission~carlosbee", "name": "Mission Blvd:Carlos Bee Blvd", "tags": {}, "geometry": {"type": "Point", "coordinates": [-122.074048, 37.660689]}, "servedBy": ["o-9q9-actransit"], "identifiers": [{"identifier": "f-actransit-s-9902830", "tags": {"stop_lat": "37.660689", "stop_code": "51305", "stop_lon": "-122.074048", "parent_station": "", "stop_id": "9902830", "stop_name": "Mission Blvd:Carlos Bee Blvd", "location_type": ""}}], "type": "Feature", "properties": {}}, {"onestopId": "s-9q9nn7mn3m-whitman~burke", "name": "Whitman St:Burke Dr", "tags": {}, "geometry": {"type": "Point", "coordinates": [-122.062165, 37.63614]}, "servedBy": ["o-9q9-actransit"], "identifiers": [{"identifier": "f-actransit-s-0805910", "tags": {"stop_lat": "37.636140", "stop_code": "56547", "stop_lon": "-122.062165", "parent_station": "", "stop_id": "0805910", "stop_name": "Whitman St:Burke Dr", "location_type": ""}}], "type": "Feature", "properties": {}}, {"onestopId": "s-9q9nnmg005-mission~holysepulchrecemetery", "name": "Mission Blvd:Holy Sepulchre Cemetery", "tags": {}, "geometry": {"type": "Point", "coordinates": [-122.064964, 37.648792]}, "servedBy": ["o-9q9-actransit"], "identifiers": [{"identifier": "f-actransit-s-9902060", "tags": {"stop_lat": "37.648792", "stop_code": "50957", "stop_lon": "-122.064964", "parent_station": "", "stop_id": "9902060", "stop_name": "Mission Blvd:Holy Sepulchre Cemetery", "location_type": ""}}], "type": "Feature", "properties": {}}, {"onestopId": "s-9q9nn89pt9-huntwood~industrial", "name": "Huntwood Av:Industrial Pkwy", "tags": {}, "geometry": {"type": "Point", "coordinates": [-122.056486, 37.621232]}, "servedBy": ["o-9q9-actransit"], "identifiers": [{"identifier": "f-actransit-s-0802630", "tags": {"stop_lat": "37.621232", "stop_code": "51440", "stop_lon": "-122.056486", "parent_station": "", "stop_id": "0802630", "stop_name": "Huntwood Av:Industrial Pkwy", "location_type": ""}}], "type": "Feature", "properties": {}}, {"onestopId": "s-9q9nnpu82g-mission~orchard", "name": "Mission Blvd:Orchard Av", "tags": {}, "geometry": {"type": "Point", "coordinates": [-122.073858, 37.659823]}, "servedBy": ["o-9q9-actransit"], "identifiers": [{"identifier": "f-actransit-s-9902780", "tags": {"stop_lat": "37.659823", "stop_code": "51294", "stop_lon": "-122.073858", "parent_station": "", "stop_id": "9902780", "stop_name": "Mission Blvd:Orchard Av", "location_type": ""}}], "type": "Feature", "properties": {}}, {"onestopId": "s-9q9nn796v0-harris~huntwood", "name": "Harris Rd:Huntwood Av", "tags": {}, "geometry": {"type": "Point", "coordinates": [-122.067155, 37.636889]}, "servedBy": ["o-9q9-actransit"], "identifiers": [{"identifier": "f-actransit-s-0802000", "tags": {"stop_lat": "37.636889", "stop_code": "55736", "stop_lon": "-122.067155", "parent_station": "", "stop_id": "0802000", "stop_name": "Harris Rd:Huntwood Av", "location_type": ""}}], "type": "Feature", "properties": {}}, {"onestopId": "s-9q9nnp5cv4-whitman~berry", "name": "Whitman St:Berry Av", "tags": {}, "geometry": {"type": "Point", "coordinates": [-122.074708, 37.655956]}, "servedBy": ["o-9q9-actransit"], "identifiers": [{"identifier": "f-actransit-s-0805380", "tags": {"stop_lat": "37.655956", "stop_code": "54745", "stop_lon": "-122.074708", "parent_station": "", "stop_id": "0805380", "stop_name": "Whitman St:Berry Av", "location_type": ""}}], "type": "Feature", "properties": {}}, {"onestopId": "s-9q9nndrgny-mission~alquire", "name": "Mission Blvd:Alquire Pkwy", "tags": {}, "geometry": {"type": "Point", "coordinates": [-122.047171, 37.630097]}, "servedBy": ["o-9q9-actransit"], "identifiers": [{"identifier": "f-actransit-s-0803290", "tags": {"stop_lat": "37.630097", "stop_code": "53352", "stop_lon": "-122.047171", "parent_station": "", "stop_id": "0803290", "stop_name": "Mission Blvd:Alquire Pkwy", "location_type": ""}}], "type": "Feature", "properties": {}}, {"onestopId": "s-9q9nnweq9k-eastloop~csueastbayrecreationandwellness", "name": "East Loop Rd:CSU East Bay Recreation and Wellness", "tags": {}, "geometry": {"type": "Point", "coordinates": [-122.053585, 37.654034]}, "servedBy": ["o-9q9-actransit"], "identifiers": [{"identifier": "f-actransit-s-0801990", "tags": {"stop_lat": "37.654034", "stop_code": "55750", "stop_lon": "-122.053585", "parent_station": "", "stop_id": "0801990", "stop_name": "East Loop Rd:CSU East Bay Recreation and Wellness", "location_type": ""}}], "type": "Feature", "properties": {}}, {"onestopId": "s-9q9nnc7y50-mission~arrowhead", "name": "Mission Blvd:Arrowhead Way", "tags": {}, "geometry": {"type": "Point", "coordinates": [-122.04184, 37.625089]}, "servedBy": ["o-9q9-actransit"], "identifiers": [{"identifier": "f-actransit-s-0803300", "tags": {"stop_lat": "37.625089", "stop_code": "55690", "stop_lon": "-122.041840", "parent_station": "", "stop_id": "0803300", "stop_name": "Mission Blvd:Arrowhead Way", "location_type": ""}}], "type": "Feature", "properties": {}}, {"onestopId": "s-9q9nnce6rb-mission~arrowhead", "name": "Mission Blvd:Arrowhead Way", "tags": {}, "geometry": {"type": "Point", "coordinates": [-122.042322, 37.625818]}, "servedBy": ["o-9q9-actransit"], "identifiers": [{"identifier": "f-actransit-s-0803310", "tags": {"stop_lat": "37.625818", "stop_code": "56353", "stop_lon": "-122.042322", "parent_station": "", "stop_id": "0803310", "stop_name": "Mission Blvd:Arrowhead Way", "location_type": ""}}], "type": "Feature", "properties": {}}, {"onestopId": "s-9q9nnduyjr-mission~vallevista", "name": "Mission Blvd:Valle Vista Av", "tags": {}, "geometry": {"type": "Point", "coordinates": [-122.051357, 37.633364]}, "servedBy": ["o-9q9-actransit"], "identifiers": [{"identifier": "f-actransit-s-0803670", "tags": {"stop_lat": "37.633364", "stop_code": "56743", "stop_lon": "-122.051357", "parent_station": "", "stop_id": "0803670", "stop_name": "Mission Blvd:Valle Vista Av", "location_type": ""}}], "type": "Feature", "properties": {}}, {"onestopId": "s-9q9nn33zu7-folsom~ruus", "name": "Folsom Av:Ruus Rd", "tags": {}, "geometry": {"type": "Point", "coordinates": [-122.066501, 37.625401]}, "servedBy": ["o-9q9-actransit"], "identifiers": [{"identifier": "f-actransit-s-9902220", "tags": {"stop_lat": "37.625401", "stop_code": "51036", "stop_lon": "-122.066501", "parent_station": "", "stop_id": "9902220", "stop_name": "Folsom Av:Ruus Rd", "location_type": ""}}], "type": "Feature", "properties": {}}, {"onestopId": "s-9q9nn4s6bm-wtennyson~dickens", "name": "W Tennyson Rd:Dickens Av", "tags": {}, "geometry": {"type": "Point", "coordinates": [-122.074222, 37.631421]}, "servedBy": ["o-9q9-actransit"], "identifiers": [{"identifier": "f-actransit-s-0805040", "tags": {"stop_lat": "37.631421", "stop_code": "59119", "stop_lon": "-122.074222", "parent_station": "", "stop_id": "0805040", "stop_name": "W Tennyson Rd:Dickens Av", "location_type": ""}}], "type": "Feature", "properties": {}}, {"onestopId": "s-9q9nnzn9jb-hayward~parksideeastjctn", "name": "Hayward Blvd:Parkside Dr (East Jctn)", "tags": {}, "geometry": {"type": "Point", "coordinates": [-122.03794, 37.655814]}, "servedBy": ["o-9q9-actransit"], "identifiers": [{"identifier": "f-actransit-s-0802210", "tags": {"stop_lat": "37.655814", "stop_code": "56390", "stop_lon": "-122.037940", "parent_station": "", "stop_id": "0802210", "stop_name": "Hayward Blvd:Parkside Dr (East Jctn)", "location_type": ""}}], "type": "Feature", "properties": {}}, {"onestopId": "s-9q9nne1j8f-southhaywardbartstation", "name": "South Hayward BART Station", "tags": {}, "geometry": {"type": "Point", "coordinates": [-122.056697, 37.634624]}, "servedBy": ["o-9q9-actransit"], "identifiers": [{"identifier": "f-actransit-s-0804590", "tags": {"stop_lat": "37.634624", "stop_code": "57400", "stop_lon": "-122.056697", "parent_station": "place_SHBA", "stop_id": "0804590", "stop_name": "South Hayward BART Station", "location_type": ""}}], "type": "Feature", "properties": {}}, {"onestopId": "s-9q9nnyc83q-spencer~fielding", "name": "Spencer Ln:Fielding Dr", "tags": {}, "geometry": {"type": "Point", "coordinates": [-122.044996, 37.654343]}, "servedBy": ["o-9q9-actransit"], "identifiers": [{"identifier": "f-actransit-s-0804680", "tags": {"stop_lat": "37.654343", "stop_code": "52676", "stop_lon": "-122.044996", "parent_station": "", "stop_id": "0804680", "stop_name": "Spencer Ln:Fielding Dr", "location_type": ""}}], "type": "Feature", "properties": {}}, {"onestopId": "s-9q9nnycw80-spencer~hayward", "name": "Spencer Ln:Hayward Blvd", "tags": {}, "geometry": {"type": "Point", "coordinates": [-122.045055, 37.655385]}, "servedBy": ["o-9q9-actransit"], "identifiers": [{"identifier": "f-actransit-s-0804690", "tags": {"stop_lat": "37.655385", "stop_code": "53669", "stop_lon": "-122.045055", "parent_station": "", "stop_id": "0804690", "stop_name": "Spencer Ln:Hayward Blvd", "location_type": ""}}], "type": "Feature", "properties": {}}, {"onestopId": "s-9q9nn0rjzr-stratford~cantebury", "name": "Stratford Rd:Cantebury Ln", "tags": {}, "geometry": {"type": "Point", "coordinates": [-122.070152, 37.619588]}, "servedBy": ["o-9q9-actransit"], "identifiers": [{"identifier": "f-actransit-s-0804700", "tags": {"stop_lat": "37.619588", "stop_code": "54215", "stop_lon": "-122.070152", "parent_station": "", "stop_id": "0804700", "stop_name": "Stratford Rd:Cantebury Ln", "location_type": ""}}], "type": "Feature", "properties": {}}, {"onestopId": "s-9q9nn75v6b-leidig~tennyson", "name": "Leidig Ct:Tennyson Rd", "tags": {}, "geometry": {"type": "Point", "coordinates": [-122.063817, 37.63457]}, "servedBy": ["o-9q9-actransit"], "identifiers": [{"identifier": "f-actransit-s-0805810", "tags": {"stop_lat": "37.634570", "stop_code": "55039", "stop_lon": "-122.063817", "parent_station": "", "stop_id": "0805810", "stop_name": "Leidig Ct:Tennyson Rd", "location_type": ""}}], "type": "Feature", "properties": {}}, {"onestopId": "s-9q9nne1kb2-southhaywardbartstation", "name": "South Hayward BART Station", "tags": {}, "geometry": {"type": "Point", "coordinates": [-122.056376, 37.634487]}, "servedBy": ["o-9q9-actransit"], "identifiers": [{"identifier": "f-actransit-s-0804620", "tags": {"stop_lat": "37.634487", "stop_code": "59577", "stop_lon": "-122.056376", "parent_station": "place_SHBA", "stop_id": "0804620", "stop_name": "South Hayward BART Station", "location_type": ""}}], "type": "Feature", "properties": {}}, {"onestopId": "s-9q9nn1mghp-folsom~thackeray", "name": "Folsom Av:Thackeray Av", "tags": {}, "geometry": {"type": "Point", "coordinates": [-122.072005, 37.62461]}, "servedBy": ["o-9q9-actransit"], "identifiers": [{"identifier": "f-actransit-s-0801800", "tags": {"stop_lat": "37.624610", "stop_code": "52412", "stop_lon": "-122.072005", "parent_station": "", "stop_id": "0801800", "stop_name": "Folsom Av:Thackeray Av", "location_type": ""}}], "type": "Feature", "properties": {}}, {"onestopId": "s-9q9nn36b3j-ruus~thiel", "name": "Ruus Rd:Thiel Rd", "tags": {}, "geometry": {"type": "Point", "coordinates": [-122.065268, 37.624128]}, "servedBy": ["o-9q9-actransit"], "identifiers": [{"identifier": "f-actransit-s-0804000", "tags": {"stop_lat": "37.624128", "stop_code": "53820", "stop_lon": "-122.065268", "parent_station": "", "stop_id": "0804000", "stop_name": "Ruus Rd:Thiel Rd", "location_type": ""}}], "type": "Feature", "properties": {}}, {"onestopId": "s-9q9nnebxyh-mission~hancock", "name": "Mission Blvd:Hancock St", "tags": {}, "geometry": {"type": "Point", "coordinates": [-122.057155, 37.63914]}, "servedBy": ["o-9q9-actransit"], "identifiers": [{"identifier": "f-actransit-s-9902800", "tags": {"stop_lat": "37.639140", "stop_code": "51297", "stop_lon": "-122.057155", "parent_station": "", "stop_id": "9902800", "stop_name": "Mission Blvd:Hancock St", "location_type": ""}}], "type": "Feature", "properties": {}}, {"onestopId": "s-9q9nn5y4x8-manon~shepherd", "name": "Manon Av:Shepherd Av", "tags": {}, "geometry": {"type": "Point", "coordinates": [-122.071512, 37.638221]}, "servedBy": ["o-9q9-actransit"], "identifiers": [{"identifier": "f-actransit-s-0803140", "tags": {"stop_lat": "37.638221", "stop_code": "57783", "stop_lon": "-122.071512", "parent_station": "", "stop_id": "0803140", "stop_name": "Manon Av:Shepherd Av", "location_type": ""}}], "type": "Feature", "properties": {}}, {"onestopId": "s-9q9nnhk3xj-manon~schafer", "name": "Manon Av:Schafer Rd", "tags": {}, "geometry": {"type": "Point", "coordinates": [-122.073938, 37.640823]}, "servedBy": ["o-9q9-actransit"], "identifiers": [{"identifier": "f-actransit-s-0803130", "tags": {"stop_lat": "37.640823", "stop_code": "55907", "stop_lon": "-122.073938", "parent_station": "", "stop_id": "0803130", "stop_name": "Manon Av:Schafer Rd", "location_type": ""}}], "type": "Feature", "properties": {}}, {"onestopId": "s-9q9nnmej3h-mission~26395", "name": "Mission Blvd:#26395", "tags": {}, "geometry": {"type": "Point", "coordinates": [-122.06492, 37.648326]}, "servedBy": ["o-9q9-actransit"], "identifiers": [{"identifier": "f-actransit-s-0803280", "tags": {"stop_lat": "37.648326", "stop_code": "58750", "stop_lon": "-122.064920", "parent_station": "", "stop_id": "0803280", "stop_name": "Mission Blvd:#26395", "location_type": ""}}], "type": "Feature", "properties": {}}, {"onestopId": "s-9q9nnx6yp7-oldhilary~csueastbaystudentservices", "name": "Old Hilary Rd:CSU East Bay Student Services", "tags": {}, "geometry": {"type": "Point", "coordinates": [-122.054013, 37.65806]}, "servedBy": ["o-9q9-actransit"], "identifiers": [{"identifier": "f-actransit-s-9901840", "tags": {"stop_lat": "37.658060", "stop_code": "50902", "stop_lon": "-122.054013", "parent_station": "", "stop_id": "9901840", "stop_name": "Old Hilary Rd:CSU East Bay Student Services", "location_type": ""}}], "type": "Feature", "properties": {}}, {"onestopId": "s-9q9nnnt9mv-whitman~cody", "name": "Whitman St:Cody Rd", "tags": {}, "geometry": {"type": "Point", "coordinates": [-122.072275, 37.653138]}, "servedBy": ["o-9q9-actransit"], "identifiers": [{"identifier": "f-actransit-s-0805410", "tags": {"stop_lat": "37.653138", "stop_code": "51887", "stop_lon": "-122.072275", "parent_station": "", "stop_id": "0805410", "stop_name": "Whitman St:Cody Rd", "location_type": ""}}], "type": "Feature", "properties": {}}, {"onestopId": "s-9q9nn0r1y0-stratford~welford", "name": "Stratford Rd:Welford Ln", "tags": {}, "geometry": {"type": "Point", "coordinates": [-122.070205, 37.618863]}, "servedBy": ["o-9q9-actransit"], "identifiers": [{"identifier": "f-actransit-s-0804720", "tags": {"stop_lat": "37.618863", "stop_code": "50223", "stop_lon": "-122.070205", "parent_station": "", "stop_id": "0804720", "stop_name": "Stratford Rd:Welford Ln", "location_type": ""}}], "type": "Feature", "properties": {}}, {"onestopId": "s-9q9nn7m9xv-tennyson~whitman", "name": "Tennyson Rd:Whitman St", "tags": {}, "geometry": {"type": "Point", "coordinates": [-122.0612, 37.635328]}, "servedBy": ["o-9q9-actransit"], "identifiers": [{"identifier": "f-actransit-s-0804810", "tags": {"stop_lat": "37.635328", "stop_code": "54988", "stop_lon": "-122.061200", "parent_station": "", "stop_id": "0804810", "stop_name": "Tennyson Rd:Whitman St", "location_type": ""}}], "type": "Feature", "properties": {}}, {"onestopId": "s-9q9nne0vgp-southhaywardbartstation", "name": "South Hayward BART Station", "tags": {}, "geometry": {"type": "Point", "coordinates": [-122.056939, 37.634696]}, "servedBy": ["o-9q9-actransit"], "identifiers": [{"identifier": "f-actransit-s-0804550", "tags": {"stop_lat": "37.634696", "stop_code": "55116", "stop_lon": "-122.056939", "parent_station": "place_SHBA", "stop_id": "0804550", "stop_name": "South Hayward BART Station", "location_type": ""}}], "type": "Feature", "properties": {}}, {"onestopId": "s-9q9nn758ey-wtennyson~lustig", "name": "W Tennyson Rd:Lustig Ct", "tags": {}, "geometry": {"type": "Point", "coordinates": [-122.064121, 37.633789]}, "servedBy": ["o-9q9-actransit"], "identifiers": [{"identifier": "f-actransit-s-0805080", "tags": {"stop_lat": "37.633789", "stop_code": "55672", "stop_lon": "-122.064121", "parent_station": "", "stop_id": "0805080", "stop_name": "W Tennyson Rd:Lustig Ct", "location_type": ""}}], "type": "Feature", "properties": {}}, {"onestopId": "s-9q9nnm8dfu-whitman~26381", "name": "Whitman St:#26381", "tags": {}, "geometry": {"type": "Point", "coordinates": [-122.068281, 37.647896]}, "servedBy": ["o-9q9-actransit"], "identifiers": [{"identifier": "f-actransit-s-0805360", "tags": {"stop_lat": "37.647896", "stop_code": "54467", "stop_lon": "-122.068281", "parent_station": "", "stop_id": "0805360", "stop_name": "Whitman St:#26381", "location_type": ""}}], "type": "Feature", "properties": {}}, {"onestopId": "s-9q9nn4d1dy-wtennyson~pompano", "name": "W Tennyson Rd:Pompano Av", "tags": {}, "geometry": {"type": "Point", "coordinates": [-122.077212, 37.631212]}, "servedBy": ["o-9q9-actransit"], "identifiers": [{"identifier": "f-actransit-s-0805100", "tags": {"stop_lat": "37.631212", "stop_code": "56651", "stop_lon": "-122.077212", "parent_station": "", "stop_id": "0805100", "stop_name": "W Tennyson Rd:Pompano Av", "location_type": ""}}], "type": "Feature", "properties": {}}, {"onestopId": "s-9q9nnnt8s7-whitman~cody", "name": "Whitman St:Cody Rd", "tags": {}, "geometry": {"type": "Point", "coordinates": [-122.072335, 37.652996]}, "servedBy": ["o-9q9-actransit"], "identifiers": [{"identifier": "f-actransit-s-0805420", "tags": {"stop_lat": "37.652996", "stop_code": "53250", "stop_lon": "-122.072335", "parent_station": "", "stop_id": "0805420", "stop_name": "Whitman St:Cody Rd", "location_type": ""}}], "type": "Feature", "properties": {}}, {"onestopId": "s-9q9nnebw7e-mission~hancock", "name": "Mission Blvd:Hancock St", "tags": {}, "geometry": {"type": "Point", "coordinates": [-122.057262, 37.63888]}, "servedBy": ["o-9q9-actransit"], "identifiers": [{"identifier": "f-actransit-s-0803490", "tags": {"stop_lat": "37.638880", "stop_code": "58760", "stop_lon": "-122.057262", "parent_station": "", "stop_id": "0803490", "stop_name": "Mission Blvd:Hancock St", "location_type": ""}}], "type": "Feature", "properties": {}}, {"onestopId": "s-9q9nn6fxn2-wtennyson~huntwood", "name": "W Tennyson Rd:Huntwood Av", "tags": {}, "geometry": {"type": "Point", "coordinates": [-122.065387, 37.633499]}, "servedBy": ["o-9q9-actransit"], "identifiers": [{"identifier": "f-actransit-s-0805070", "tags": {"stop_lat": "37.633499", "stop_code": "57676", "stop_lon": "-122.065387", "parent_station": "", "stop_id": "0805070", "stop_name": "W Tennyson Rd:Huntwood Av", "location_type": ""}}], "type": "Feature", "properties": {}}, {"onestopId": "s-9q9nn8b27c-industrial~huntwood", "name": "Industrial Pkwy:Huntwood Av", "tags": {}, "geometry": {"type": "Point", "coordinates": [-122.0576, 37.621361]}, "servedBy": ["o-9q9-actransit"], "identifiers": [{"identifier": "f-actransit-s-0802880", "tags": {"stop_lat": "37.621361", "stop_code": "52895", "stop_lon": "-122.057600", "parent_station": "", "stop_id": "0802880", "stop_name": "Industrial Pkwy:Huntwood Av", "location_type": ""}}], "type": "Feature", "properties": {}}, {"onestopId": "s-9q9nnkdn0u-whitman~hydetennysonsrhighschool", "name": "Whitman St:Hyde Dr (Tennyson Sr High School)", "tags": {}, "geometry": {"type": "Point", "coordinates": [-122.06631, 37.642959]}, "servedBy": ["o-9q9-actransit"], "identifiers": [{"identifier": "f-actransit-s-0805450", "tags": {"stop_lat": "37.642959", "stop_code": "52799", "stop_lon": "-122.066310", "parent_station": "", "stop_id": "0805450", "stop_name": "Whitman St:Hyde Dr (Tennyson Sr High School)", "location_type": ""}}], "type": "Feature", "properties": {}}, {"onestopId": "s-9q9nnkdjwf-whitman~hydetennysonsrhighschool", "name": "Whitman St:Hyde Dr (Tennyson Sr High School)", "tags": {}, "geometry": {"type": "Point", "coordinates": [-122.06605, 37.642862]}, "servedBy": ["o-9q9-actransit"], "identifiers": [{"identifier": "f-actransit-s-0805460", "tags": {"stop_lat": "37.642862", "stop_code": "53001", "stop_lon": "-122.066050", "parent_station": "", "stop_id": "0805460", "stop_name": "Whitman St:Hyde Dr (Tennyson Sr High School)", "location_type": ""}}], "type": "Feature", "properties": {}}, {"onestopId": "s-9q9nn0xegy-ruus~stratfordoppgeorgianmanorwgate", "name": "Ruus Ln:Stratford Rd (Opp. Georgian Manor W. Gate)", "tags": {}, "geometry": {"type": "Point", "coordinates": [-122.069614, 37.620614]}, "servedBy": ["o-9q9-actransit"], "identifiers": [{"identifier": "f-actransit-s-0803970", "tags": {"stop_lat": "37.620614", "stop_code": "53680", "stop_lon": "-122.069614", "parent_station": "", "stop_id": "0803970", "stop_name": "Ruus Ln:Stratford Rd (Opp. Georgian Manor W. Gate)", "location_type": ""}}], "type": "Feature", "properties": {}}, {"onestopId": "s-9q9nnbypwf-mission~fairway", "name": "Mission Blvd:Fairway St", "tags": {}, "geometry": {"type": "Point", "coordinates": [-122.038581, 37.62261]}, "servedBy": ["o-9q9-actransit"], "identifiers": [{"identifier": "f-actransit-s-0803410", "tags": {"stop_lat": "37.622610", "stop_code": "53359", "stop_lon": "-122.038581", "parent_station": "", "stop_id": "0803410", "stop_name": "Mission Blvd:Fairway St", "location_type": ""}}], "type": "Feature", "properties": {}}, {"onestopId": "s-9q9nn52hz7-gomer~patrick", "name": "Gomer St:Patrick Av", "tags": {}, "geometry": {"type": "Point", "coordinates": [-122.079761, 37.635877]}, "servedBy": ["o-9q9-actransit"], "identifiers": [{"identifier": "f-actransit-s-0801920", "tags": {"stop_lat": "37.635877", "stop_code": "50310", "stop_lon": "-122.079761", "parent_station": "", "stop_id": "0801920", "stop_name": "Gomer St:Patrick Av", "location_type": ""}}], "type": "Feature", "properties": {}}, {"onestopId": "s-9q9nnkwf1s-mission~calhoun", "name": "Mission Blvd:Calhoun St", "tags": {}, "geometry": {"type": "Point", "coordinates": [-122.059749, 37.642274]}, "servedBy": ["o-9q9-actransit"], "identifiers": [{"identifier": "f-actransit-s-0803380", "tags": {"stop_lat": "37.642274", "stop_code": "59330", "stop_lon": "-122.059749", "parent_station": "", "stop_id": "0803380", "stop_name": "Mission Blvd:Calhoun St", "location_type": ""}}], "type": "Feature", "properties": {}}, {"onestopId": "s-9q9nn1g7ur-tampa~sumatra", "name": "Tampa Av:Sumatra St", "tags": {}, "geometry": {"type": "Point", "coordinates": [-122.075426, 37.627484]}, "servedBy": ["o-9q9-actransit"], "identifiers": [{"identifier": "f-actransit-s-0804770", "tags": {"stop_lat": "37.627484", "stop_code": "54651", "stop_lon": "-122.075426", "parent_station": "", "stop_id": "0804770", "stop_name": "Tampa Av:Sumatra St", "location_type": ""}}], "type": "Feature", "properties": {}}, {"onestopId": "s-9q9nn7gwm3-whitman~persimmon", "name": "Whitman St:Persimmon Dr", "tags": {}, "geometry": {"type": "Point", "coordinates": [-122.064059, 37.638866]}, "servedBy": ["o-9q9-actransit"], "identifiers": [{"identifier": "f-actransit-s-0805500", "tags": {"stop_lat": "37.638866", "stop_code": "54659", "stop_lon": "-122.064059", "parent_station": "", "stop_id": "0805500", "stop_name": "Whitman St:Persimmon Dr", "location_type": ""}}], "type": "Feature", "properties": {}}, {"onestopId": "s-9q9nn2htvt-industrial~ruus", "name": "Industrial Pkwy:Ruus Rd", "tags": {}, "geometry": {"type": "Point", "coordinates": [-122.062674, 37.618205]}, "servedBy": ["o-9q9-actransit"], "identifiers": [{"identifier": "f-actransit-s-0802910", "tags": {"stop_lat": "37.618205", "stop_code": "52945", "stop_lon": "-122.062674", "parent_station": "", "stop_id": "0802910", "stop_name": "Industrial Pkwy:Ruus Rd", "location_type": ""}}], "type": "Feature", "properties": {}}, {"onestopId": "s-9q9nn4bruv-patrick~roosevelt", "name": "Patrick Av:Roosevelt Av", "tags": {}, "geometry": {"type": "Point", "coordinates": [-122.079523, 37.633656]}, "servedBy": ["o-9q9-actransit"], "identifiers": [{"identifier": "f-actransit-s-0803820", "tags": {"stop_lat": "37.633656", "stop_code": "50120", "stop_lon": "-122.079523", "parent_station": "", "stop_id": "0803820", "stop_name": "Patrick Av:Roosevelt Av", "location_type": ""}}], "type": "Feature", "properties": {}}, {"onestopId": "s-9q9nncfh4u-mission~garin", "name": "Mission Blvd:Garin Av", "tags": {}, "geometry": {"type": "Point", "coordinates": [-122.044244, 37.62751]}, "servedBy": ["o-9q9-actransit"], "identifiers": [{"identifier": "f-actransit-s-0803440", "tags": {"stop_lat": "37.627510", "stop_code": "56959", "stop_lon": "-122.044244", "parent_station": "", "stop_id": "0803440", "stop_name": "Mission Blvd:Garin Av", "location_type": ""}}], "type": "Feature", "properties": {}}, {"onestopId": "s-9q9nn7scnj-whitman~bealecesarechavezmidschool", "name": "Whitman St:Beale Dr (Cesar.E. Chavez Mid. School)", "tags": {}, "geometry": {"type": "Point", "coordinates": [-122.062307, 37.636614]}, "servedBy": ["o-9q9-actransit"], "identifiers": [{"identifier": "f-actransit-s-0805370", "tags": {"stop_lat": "37.636614", "stop_code": "56596", "stop_lon": "-122.062307", "parent_station": "", "stop_id": "0805370", "stop_name": "Whitman St:Beale Dr (Cesar.E. Chavez Mid. School)", "location_type": ""}}], "type": "Feature", "properties": {}}, {"onestopId": "s-9q9nn17cek-folsom~tampa", "name": "Folsom Av:Tampa Av", "tags": {}, "geometry": {"type": "Point", "coordinates": [-122.074786, 37.624334]}, "servedBy": ["o-9q9-actransit"], "identifiers": [{"identifier": "f-actransit-s-0801770", "tags": {"stop_lat": "37.624334", "stop_code": "55812", "stop_lon": "-122.074786", "parent_station": "", "stop_id": "0801770", "stop_name": "Folsom Av:Tampa Av", "location_type": ""}}], "type": "Feature", "properties": {}}, {"onestopId": "s-9q9nnyhzb0-dobbel~trimble", "name": "Dobbel Av:Trimble Ct", "tags": {}, "geometry": {"type": "Point", "coordinates": [-122.040595, 37.65148]}, "servedBy": ["o-9q9-actransit"], "identifiers": [{"identifier": "f-actransit-s-0801630", "tags": {"stop_lat": "37.651480", "stop_code": "52450", "stop_lon": "-122.040595", "parent_station": "", "stop_id": "0801630", "stop_name": "Dobbel Av:Trimble Ct", "location_type": ""}}], "type": "Feature", "properties": {}}, {"onestopId": "s-9q9nn1rmp3-folsom~harvey", "name": "Folsom Av:Harvey Av", "tags": {}, "geometry": {"type": "Point", "coordinates": [-122.069802, 37.624921]}, "servedBy": ["o-9q9-actransit"], "identifiers": [{"identifier": "f-actransit-s-0801750", "tags": {"stop_lat": "37.624921", "stop_code": "52385", "stop_lon": "-122.069802", "parent_station": "", "stop_id": "0801750", "stop_name": "Folsom Av:Harvey Av", "location_type": ""}}], "type": "Feature", "properties": {}}, {"onestopId": "s-9q9nnk6sqr-whitman~mason", "name": "Whitman St:Mason Dr", "tags": {}, "geometry": {"type": "Point", "coordinates": [-122.065383, 37.641303]}, "servedBy": ["o-9q9-actransit"], "identifiers": [{"identifier": "f-actransit-s-0805490", "tags": {"stop_lat": "37.641303", "stop_code": "55031", "stop_lon": "-122.065383", "parent_station": "", "stop_id": "0805490", "stop_name": "Whitman St:Mason Dr", "location_type": ""}}], "type": "Feature", "properties": {}}, {"onestopId": "s-9q9nnn1k99-soto~lund", "name": "Soto Rd:Lund Av", "tags": {}, "geometry": {"type": "Point", "coordinates": [-122.078287, 37.650925]}, "servedBy": ["o-9q9-actransit"], "identifiers": [{"identifier": "f-actransit-s-0804500", "tags": {"stop_lat": "37.650925", "stop_code": "59776", "stop_lon": "-122.078287", "parent_station": "", "stop_id": "0804500", "stop_name": "Soto Rd:Lund Av", "location_type": ""}}], "type": "Feature", "properties": {}}, {"onestopId": "s-9q9nnx0998-westloop~csueastbaylibrary", "name": "West Loop Rd:CSU East Bay Library", "tags": {}, "geometry": {"type": "Point", "coordinates": [-122.057348, 37.655901]}, "servedBy": ["o-9q9-actransit"], "identifiers": [{"identifier": "f-actransit-s-0805280", "tags": {"stop_lat": "37.655901", "stop_code": "58777", "stop_lon": "-122.057348", "parent_station": "", "stop_id": "0805280", "stop_name": "West Loop Rd:CSU East Bay Library", "location_type": ""}}], "type": "Feature", "properties": {}}, {"onestopId": "s-9q9nnpmgzt-mission~central", "name": "Mission Blvd:Central Blvd", "tags": {}, "geometry": {"type": "Point", "coordinates": [-122.07185, 37.657684]}, "servedBy": ["o-9q9-actransit"], "identifiers": [{"identifier": "f-actransit-s-9902820", "tags": {"stop_lat": "37.657684", "stop_code": "51303", "stop_lon": "-122.071850", "parent_station": "", "stop_id": "9902820", "stop_name": "Mission Blvd:Central Blvd", "location_type": ""}}], "type": "Feature", "properties": {}}, {"onestopId": "s-9q9nnk7162-whitman~chambosse", "name": "Whitman St:Chambosse Dr", "tags": {}, "geometry": {"type": "Point", "coordinates": [-122.064865, 37.640753]}, "servedBy": ["o-9q9-actransit"], "identifiers": [{"identifier": "f-actransit-s-0805400", "tags": {"stop_lat": "37.640753", "stop_code": "52650", "stop_lon": "-122.064865", "parent_station": "", "stop_id": "0805400", "stop_name": "Whitman St:Chambosse Dr", "location_type": ""}}], "type": "Feature", "properties": {}}, {"onestopId": "s-9q9nnhkdd6-manon~schafer", "name": "Manon Av:Schafer Rd", "tags": {}, "geometry": {"type": "Point", "coordinates": [-122.073796, 37.640974]}, "servedBy": ["o-9q9-actransit"], "identifiers": [{"identifier": "f-actransit-s-0803120", "tags": {"stop_lat": "37.640974", "stop_code": "55960", "stop_lon": "-122.073796", "parent_station": "", "stop_id": "0803120", "stop_name": "Manon Av:Schafer Rd", "location_type": ""}}], "type": "Feature", "properties": {}}, {"onestopId": "s-9q9nnnzkrz-mission~torrano", "name": "Mission Blvd:Torrano Av", "tags": {}, "geometry": {"type": "Point", "coordinates": [-122.069779, 37.655038]}, "servedBy": ["o-9q9-actransit"], "identifiers": [{"identifier": "f-actransit-s-9902810", "tags": {"stop_lat": "37.655038", "stop_code": "51298", "stop_lon": "-122.069779", "parent_station": "", "stop_id": "9902810", "stop_name": "Mission Blvd:Torrano Av", "location_type": ""}}], "type": "Feature", "properties": {}}, {"onestopId": "s-9q9nnnnww5-whitman~jane", "name": "Whitman St:Jane Av", "tags": {}, "geometry": {"type": "Point", "coordinates": [-122.07089, 37.651279]}, "servedBy": ["o-9q9-actransit"], "identifiers": [{"identifier": "f-actransit-s-0805480", "tags": {"stop_lat": "37.651279", "stop_code": "54489", "stop_lon": "-122.070890", "parent_station": "", "stop_id": "0805480", "stop_name": "Whitman St:Jane Av", "location_type": ""}}], "type": "Feature", "properties": {}}, {"onestopId": "s-9q9nn2dzjw-ruus~1310nearruus", "name": "Ruus Ln:#1310 (Near Ruus Rd)", "tags": {}, "geometry": {"type": "Point", "coordinates": [-122.065069, 37.621171]}, "servedBy": ["o-9q9-actransit"], "identifiers": [{"identifier": "f-actransit-s-0803940", "tags": {"stop_lat": "37.621171", "stop_code": "53645", "stop_lon": "-122.065069", "parent_station": "", "stop_id": "0803940", "stop_name": "Ruus Ln:#1310 (Near Ruus Rd)", "location_type": ""}}], "type": "Feature", "properties": {}}, {"onestopId": "s-9q9nnh63uy-schafer~tyrrell", "name": "Schafer Rd:Tyrrell Av", "tags": {}, "geometry": {"type": "Point", "coordinates": [-122.076775, 37.64087]}, "servedBy": ["o-9q9-actransit"], "identifiers": [{"identifier": "f-actransit-s-0804320", "tags": {"stop_lat": "37.640870", "stop_code": "59982", "stop_lon": "-122.076775", "parent_station": "", "stop_id": "0804320", "stop_name": "Schafer Rd:Tyrrell Av", "location_type": ""}}], "type": "Feature", "properties": {}}, {"onestopId": "s-9q9nned4fr-mission~tennyson", "name": "Mission Blvd:Tennyson Rd", "tags": {}, "geometry": {"type": "Point", "coordinates": [-122.055262, 37.636926]}, "servedBy": ["o-9q9-actransit"], "identifiers": [{"identifier": "f-actransit-s-0803630", "tags": {"stop_lat": "37.636926", "stop_code": "53045", "stop_lon": "-122.055262", "parent_station": "", "stop_id": "0803630", "stop_name": "Mission Blvd:Tennyson Rd", "location_type": ""}}], "type": "Feature", "properties": {}}, {"onestopId": "s-9q9nn73xfj-huntwood~harris", "name": "Huntwood Av:Harris Rd", "tags": {}, "geometry": {"type": "Point", "coordinates": [-122.06694, 37.636399]}, "servedBy": ["o-9q9-actransit"], "identifiers": [{"identifier": "f-actransit-s-0802620", "tags": {"stop_lat": "37.636399", "stop_code": "52510", "stop_lon": "-122.066940", "parent_station": "", "stop_id": "0802620", "stop_name": "Huntwood Av:Harris Rd", "location_type": ""}}], "type": "Feature", "properties": {}}, {"onestopId": "s-9q9nn508e4-patrick~roosevelt", "name": "Patrick Av:Roosevelt Av", "tags": {}, "geometry": {"type": "Point", "coordinates": [-122.079259, 37.633768]}, "servedBy": ["o-9q9-actransit"], "identifiers": [{"identifier": "f-actransit-s-0803810", "tags": {"stop_lat": "37.633768", "stop_code": "59569", "stop_lon": "-122.079259", "parent_station": "", "stop_id": "0803810", "stop_name": "Patrick Av:Roosevelt Av", "location_type": ""}}], "type": "Feature", "properties": {}}, {"onestopId": "s-9q9nn1mdrd-folsom~thackeray", "name": "Folsom Av:Thackeray Av", "tags": {}, "geometry": {"type": "Point", "coordinates": [-122.072193, 37.624453]}, "servedBy": ["o-9q9-actransit"], "identifiers": [{"identifier": "f-actransit-s-0801790", "tags": {"stop_lat": "37.624453", "stop_code": "56236", "stop_lon": "-122.072193", "parent_station": "", "stop_id": "0801790", "stop_name": "Folsom Av:Thackeray Av", "location_type": ""}}], "type": "Feature", "properties": {}}, {"onestopId": "s-9q9nnxsm6q-hayward~parksidewestjctn", "name": "Hayward Blvd:Parkside Dr (West Jctn)", "tags": {}, "geometry": {"type": "Point", "coordinates": [-122.052172, 37.659322]}, "servedBy": ["o-9q9-actransit"], "identifiers": [{"identifier": "f-actransit-s-0802220", "tags": {"stop_lat": "37.659322", "stop_code": "56920", "stop_lon": "-122.052172", "parent_station": "", "stop_id": "0802220", "stop_name": "Hayward Blvd:Parkside Dr (West Jctn)", "location_type": ""}}], "type": "Feature", "properties": {}}, {"onestopId": "s-9q9nne0vjt-southhaywardbartstation", "name": "South Hayward BART Station", "tags": {}, "geometry": {"type": "Point", "coordinates": [-122.056834, 37.634556]}, "servedBy": ["o-9q9-actransit"], "identifiers": [{"identifier": "f-actransit-s-0804560", "tags": {"stop_lat": "37.634556", "stop_code": "55404", "stop_lon": "-122.056834", "parent_station": "place_SHBA", "stop_id": "0804560", "stop_name": "South Hayward BART Station", "location_type": ""}}], "type": "Feature", "properties": {}}, {"onestopId": "s-9q9nn1rss1-folsom~harvey", "name": "Folsom Av:Harvey Av", "tags": {}, "geometry": {"type": "Point", "coordinates": [-122.069601, 37.624832]}, "servedBy": ["o-9q9-actransit"], "identifiers": [{"identifier": "f-actransit-s-0801760", "tags": {"stop_lat": "37.624832", "stop_code": "58510", "stop_lon": "-122.069601", "parent_station": "", "stop_id": "0801760", "stop_name": "Folsom Av:Harvey Av", "location_type": ""}}], "type": "Feature", "properties": {}}, {"onestopId": "s-9q9nnq1ej3-mission~harder", "name": "Mission Blvd:Harder Rd", "tags": {}, "geometry": {"type": "Point", "coordinates": [-122.066798, 37.650667]}, "servedBy": ["o-9q9-actransit"], "identifiers": [{"identifier": "f-actransit-s-9902130", "tags": {"stop_lat": "37.650667", "stop_code": "50979", "stop_lon": "-122.066798", "parent_station": "", "stop_id": "9902130", "stop_name": "Mission Blvd:Harder Rd", "location_type": ""}}], "type": "Feature", "properties": {}}, {"onestopId": "s-9q9nnpmcyh-mission~berry", "name": "Mission Blvd:Berry Av", "tags": {}, "geometry": {"type": "Point", "coordinates": [-122.071923, 37.657336]}, "servedBy": ["o-9q9-actransit"], "identifiers": [{"identifier": "f-actransit-s-0803330", "tags": {"stop_lat": "37.657336", "stop_code": "59220", "stop_lon": "-122.071923", "parent_station": "", "stop_id": "0803330", "stop_name": "Mission Blvd:Berry Av", "location_type": ""}}], "type": "Feature", "properties": {}}, {"onestopId": "s-9q9nnq336p-mission~harder", "name": "Mission Blvd:Harder Rd", "tags": {}, "geometry": {"type": "Point", "coordinates": [-122.067281, 37.651772]}, "servedBy": ["o-9q9-actransit"], "identifiers": [{"identifier": "f-actransit-s-0803500", "tags": {"stop_lat": "37.651772", "stop_code": "59009", "stop_lon": "-122.067281", "parent_station": "", "stop_id": "0803500", "stop_name": "Mission Blvd:Harder Rd", "location_type": ""}}], "type": "Feature", "properties": {}}, {"onestopId": "s-9q9nn01cxw-industrial~hopkins", "name": "Industrial Pkwy:Hopkins St", "tags": {}, "geometry": {"type": "Point", "coordinates": [-122.077353, 37.617478]}, "servedBy": ["o-9q9-actransit"], "identifiers": [{"identifier": "f-actransit-s-0802860", "tags": {"stop_lat": "37.617478", "stop_code": "51088", "stop_lon": "-122.077353", "parent_station": "", "stop_id": "0802860", "stop_name": "Industrial Pkwy:Hopkins St", "location_type": ""}}], "type": "Feature", "properties": {}}, {"onestopId": "s-9q9nn843r7-huntwood~crocker", "name": "Huntwood Av:Crocker Av", "tags": {}, "geometry": {"type": "Point", "coordinates": [-122.054694, 37.617422]}, "servedBy": ["o-9q9-actransit"], "identifiers": [{"identifier": "f-actransit-s-0802590", "tags": {"stop_lat": "37.617422", "stop_code": "51910", "stop_lon": "-122.054694", "parent_station": "", "stop_id": "0802590", "stop_name": "Huntwood Av:Crocker Av", "location_type": ""}}], "type": "Feature", "properties": {}}, {"onestopId": "s-9q9nnxp28d-hayward~civic", "name": "Hayward Blvd:Civic Av", "tags": {}, "geometry": {"type": "Point", "coordinates": [-122.048117, 37.655737]}, "servedBy": ["o-9q9-actransit"], "identifiers": [{"identifier": "f-actransit-s-0802190", "tags": {"stop_lat": "37.655737", "stop_code": "53391", "stop_lon": "-122.048117", "parent_station": "", "stop_id": "0802190", "stop_name": "Hayward Blvd:Civic Av", "location_type": ""}}], "type": "Feature", "properties": {}}, {"onestopId": "s-9q9nnn2mrn-soto~edengreenwaynearberry", "name": "Soto Rd:Eden Greenway (Near Berry Av)", "tags": {}, "geometry": {"type": "Point", "coordinates": [-122.079425, 37.652458]}, "servedBy": ["o-9q9-actransit"], "identifiers": [{"identifier": "f-actransit-s-0804460", "tags": {"stop_lat": "37.652458", "stop_code": "59920", "stop_lon": "-122.079425", "parent_station": "", "stop_id": "0804460", "stop_name": "Soto Rd:Eden Greenway (Near Berry Av)", "location_type": ""}}], "type": "Feature", "properties": {}}, {"onestopId": "s-9q9nn89w7u-huntwood~sandoval", "name": "Huntwood Av:Sandoval Way", "tags": {}, "geometry": {"type": "Point", "coordinates": [-122.055877, 37.621031]}, "servedBy": ["o-9q9-actransit"], "identifiers": [{"identifier": "f-actransit-s-0802720", "tags": {"stop_lat": "37.621031", "stop_code": "53392", "stop_lon": "-122.055877", "parent_station": "", "stop_id": "0802720", "stop_name": "Huntwood Av:Sandoval Way", "location_type": ""}}], "type": "Feature", "properties": {}}, {"onestopId": "s-9q9nn369dy-ruus~thiel", "name": "Ruus Rd:Thiel Rd", "tags": {}, "geometry": {"type": "Point", "coordinates": [-122.065532, 37.624347]}, "servedBy": ["o-9q9-actransit"], "identifiers": [{"identifier": "f-actransit-s-0804010", "tags": {"stop_lat": "37.624347", "stop_code": "51070", "stop_lon": "-122.065532", "parent_station": "", "stop_id": "0804010", "stop_name": "Ruus Rd:Thiel Rd", "location_type": ""}}], "type": "Feature", "properties": {}}, {"onestopId": "s-9q9nnkw7sb-mission~jefferson", "name": "Mission Blvd:Jefferson St", "tags": {}, "geometry": {"type": "Point", "coordinates": [-122.060297, 37.642512]}, "servedBy": ["o-9q9-actransit"], "identifiers": [{"identifier": "f-actransit-s-0803540", "tags": {"stop_lat": "37.642512", "stop_code": "51799", "stop_lon": "-122.060297", "parent_station": "", "stop_id": "0803540", "stop_name": "Mission Blvd:Jefferson St", "location_type": ""}}], "type": "Feature", "properties": {}}, {"onestopId": "s-9q9nn48scd-patrick~wtennyson", "name": "Patrick Av:W Tennyson Rd", "tags": {}, "geometry": {"type": "Point", "coordinates": [-122.079322, 37.631748]}, "servedBy": ["o-9q9-actransit"], "identifiers": [{"identifier": "f-actransit-s-0803840", "tags": {"stop_lat": "37.631748", "stop_code": "53532", "stop_lon": "-122.079322", "parent_station": "", "stop_id": "0803840", "stop_name": "Patrick Av:W Tennyson Rd", "location_type": ""}}], "type": "Feature", "properties": {}}, {"onestopId": "s-9q9nnnz6nz-mission~torrano", "name": "Mission Blvd:Torrano Av", "tags": {}, "geometry": {"type": "Point", "coordinates": [-122.06983, 37.654651]}, "servedBy": ["o-9q9-actransit"], "identifiers": [{"identifier": "f-actransit-s-0803650", "tags": {"stop_lat": "37.654651", "stop_code": "59870", "stop_lon": "-122.069830", "parent_station": "", "stop_id": "0803650", "stop_name": "Mission Blvd:Torrano Av", "location_type": ""}}], "type": "Feature", "properties": {}}, {"onestopId": "s-9q9nn47p1x-tampa~wtennyson", "name": "Tampa Av:W Tennyson Rd", "tags": {}, "geometry": {"type": "Point", "coordinates": [-122.075887, 37.630788]}, "servedBy": ["o-9q9-actransit"], "identifiers": [{"identifier": "f-actransit-s-0804780", "tags": {"stop_lat": "37.630788", "stop_code": "57866", "stop_lon": "-122.075887", "parent_station": "", "stop_id": "0804780", "stop_name": "Tampa Av:W Tennyson Rd", "location_type": ""}}], "type": "Feature", "properties": {}}, {"onestopId": "s-9q9nnxbj5m-campus~hayward", "name": "Campus Dr:Hayward Blvd", "tags": {}, "geometry": {"type": "Point", "coordinates": [-122.057964, 37.660646]}, "servedBy": ["o-9q9-actransit"], "identifiers": [{"identifier": "f-actransit-s-0805950", "tags": {"stop_lat": "37.660646", "stop_code": "50350", "stop_lon": "-122.057964", "parent_station": "", "stop_id": "0805950", "stop_name": "Campus Dr:Hayward Blvd", "location_type": ""}}], "type": "Feature", "properties": {}}, {"onestopId": "s-9q9nnm1snh-whitman~fruitwood", "name": "Whitman St:Fruitwood Way", "tags": {}, "geometry": {"type": "Point", "coordinates": [-122.066767, 37.645366]}, "servedBy": ["o-9q9-actransit"], "identifiers": [{"identifier": "f-actransit-s-0805440", "tags": {"stop_lat": "37.645366", "stop_code": "55026", "stop_lon": "-122.066767", "parent_station": "", "stop_id": "0805440", "stop_name": "Whitman St:Fruitwood Way", "location_type": ""}}], "type": "Feature", "properties": {}}, {"onestopId": "s-9q9nn72mgy-harris~manon", "name": "Harris Rd:Manon Av", "tags": {}, "geometry": {"type": "Point", "coordinates": [-122.068583, 37.636064]}, "servedBy": ["o-9q9-actransit"], "identifiers": [{"identifier": "f-actransit-s-0802010", "tags": {"stop_lat": "37.636064", "stop_code": "53369", "stop_lon": "-122.068583", "parent_station": "", "stop_id": "0802010", "stop_name": "Harris Rd:Manon Av", "location_type": ""}}], "type": "Feature", "properties": {}}, {"onestopId": "s-9q9nnxq3rk-hayward~tribune", "name": "Hayward Blvd:Tribune Av", "tags": {}, "geometry": {"type": "Point", "coordinates": [-122.049201, 37.657249]}, "servedBy": ["o-9q9-actransit"], "identifiers": [{"identifier": "f-actransit-s-0802240", "tags": {"stop_lat": "37.657249", "stop_code": "56930", "stop_lon": "-122.049201", "parent_station": "", "stop_id": "0802240", "stop_name": "Hayward Blvd:Tribune Av", "location_type": ""}}], "type": "Feature", "properties": {}}, {"onestopId": "s-9q9nn5rywd-manon~harris", "name": "Manon Av:Harris Rd", "tags": {}, "geometry": {"type": "Point", "coordinates": [-122.069151, 37.636169]}, "servedBy": ["o-9q9-actransit"], "identifiers": [{"identifier": "f-actransit-s-0803110", "tags": {"stop_lat": "37.636169", "stop_code": "55930", "stop_lon": "-122.069151", "parent_station": "", "stop_id": "0803110", "stop_name": "Manon Av:Harris Rd", "location_type": ""}}], "type": "Feature", "properties": {}}, {"onestopId": "s-9q9nnnz8fw-mission~torrano", "name": "Mission Blvd:Torrano Av", "tags": {}, "geometry": {"type": "Point", "coordinates": [-122.069663, 37.654431]}, "servedBy": ["o-9q9-actransit"], "identifiers": [{"identifier": "f-actransit-s-9902790", "tags": {"stop_lat": "37.654431", "stop_code": "51296", "stop_lon": "-122.069663", "parent_station": "", "stop_id": "9902790", "stop_name": "Mission Blvd:Torrano Av", "location_type": ""}}], "type": "Feature", "properties": {}}, {"onestopId": "s-9q9nnm19dz-whitman~fruitwood", "name": "Whitman St:Fruitwood Way", "tags": {}, "geometry": {"type": "Point", "coordinates": [-122.066906, 37.644953]}, "servedBy": ["o-9q9-actransit"], "identifiers": [{"identifier": "f-actransit-s-0805430", "tags": {"stop_lat": "37.644953", "stop_code": "53650", "stop_lon": "-122.066906", "parent_station": "", "stop_id": "0805430", "stop_name": "Whitman St:Fruitwood Way", "location_type": ""}}], "type": "Feature", "properties": {}}, {"onestopId": "s-9q9nn7jq9m-tennyson~beatron", "name": "Tennyson Rd:Beatron Way", "tags": {}, "geometry": {"type": "Point", "coordinates": [-122.061819, 37.634812]}, "servedBy": ["o-9q9-actransit"], "identifiers": [{"identifier": "f-actransit-s-0805850", "tags": {"stop_lat": "37.634812", "stop_code": "54401", "stop_lon": "-122.061819", "parent_station": "", "stop_id": "0805850", "stop_name": "Tennyson Rd:Beatron Way", "location_type": ""}}], "type": "Feature", "properties": {}}, {"onestopId": "s-9q9nne0yqh-southhaywardbartstation", "name": "South Hayward BART Station", "tags": {}, "geometry": {"type": "Point", "coordinates": [-122.056809, 37.634762]}, "servedBy": ["o-9q9-actransit"], "identifiers": [{"identifier": "f-actransit-s-0804580", "tags": {"stop_lat": "37.634762", "stop_code": "52345", "stop_lon": "-122.056809", "parent_station": "place_SHBA", "stop_id": "0804580", "stop_name": "South Hayward BART Station", "location_type": ""}}], "type": "Feature", "properties": {}}, {"onestopId": "s-9q9nnehc1w-mission~vallevista", "name": "Mission Blvd:Valle Vista Av", "tags": {}, "geometry": {"type": "Point", "coordinates": [-122.05151, 37.633872]}, "servedBy": ["o-9q9-actransit"], "identifiers": [{"identifier": "f-actransit-s-0803680", "tags": {"stop_lat": "37.633872", "stop_code": "59943", "stop_lon": "-122.051510", "parent_station": "", "stop_id": "0803680", "stop_name": "Mission Blvd:Valle Vista Av", "location_type": ""}}], "type": "Feature", "properties": {}}, {"onestopId": "s-9q9nnnnttw-whitman~jane", "name": "Whitman St:Jane Av", "tags": {}, "geometry": {"type": "Point", "coordinates": [-122.070912, 37.651125]}, "servedBy": ["o-9q9-actransit"], "identifiers": [{"identifier": "f-actransit-s-0805470", "tags": {"stop_lat": "37.651125", "stop_code": "55029", "stop_lon": "-122.070912", "parent_station": "", "stop_id": "0805470", "stop_name": "Whitman St:Jane Av", "location_type": ""}}], "type": "Feature", "properties": {}}, {"onestopId": "s-9q9nn0pc07-industrial~stratford", "name": "Industrial Pkwy:Stratford Rd", "tags": {}, "geometry": {"type": "Point", "coordinates": [-122.069422, 37.617376]}, "servedBy": ["o-9q9-actransit"], "identifiers": [{"identifier": "f-actransit-s-0802920", "tags": {"stop_lat": "37.617376", "stop_code": "51988", "stop_lon": "-122.069422", "parent_station": "", "stop_id": "0802920", "stop_name": "Industrial Pkwy:Stratford Rd", "location_type": ""}}], "type": "Feature", "properties": {}}, {"onestopId": "s-9q9nn2huu6-industrial~industrialsw", "name": "Industrial Pkwy:Industrial Pkwy Sw", "tags": {}, "geometry": {"type": "Point", "coordinates": [-122.062377, 37.618017]}, "servedBy": ["o-9q9-actransit"], "identifiers": [{"identifier": "f-actransit-s-0802890", "tags": {"stop_lat": "37.618017", "stop_code": "52878", "stop_lon": "-122.062377", "parent_station": "", "stop_id": "0802890", "stop_name": "Industrial Pkwy:Industrial Pkwy Sw", "location_type": ""}}], "type": "Feature", "properties": {}}, {"onestopId": "s-9q9nnf0q1h-mission~industrial", "name": "Mission Blvd:Industrial Pkwy", "tags": {}, "geometry": {"type": "Point", "coordinates": [-122.046727, 37.629229]}, "servedBy": ["o-9q9-actransit"], "identifiers": [{"identifier": "f-actransit-s-0805860", "tags": {"stop_lat": "37.629229", "stop_code": "57151", "stop_lon": "-122.046727", "parent_station": "", "stop_id": "0805860", "stop_name": "Mission Blvd:Industrial Pkwy", "location_type": ""}}], "type": "Feature", "properties": {}}, {"onestopId": "s-9q9nne1jgz-southhaywardbartstation", "name": "South Hayward BART Station", "tags": {}, "geometry": {"type": "Point", "coordinates": [-122.056563, 37.634695]}, "servedBy": ["o-9q9-actransit"], "identifiers": [{"identifier": "f-actransit-s-0804610", "tags": {"stop_lat": "37.634695", "stop_code": "58881", "stop_lon": "-122.056563", "parent_station": "place_SHBA", "stop_id": "0804610", "stop_name": "South Hayward BART Station", "location_type": ""}}], "type": "Feature", "properties": {}}, {"onestopId": "s-9q9nn49e7f-wtennyson~pompano", "name": "W Tennyson Rd:Pompano Av", "tags": {}, "geometry": {"type": "Point", "coordinates": [-122.07785, 37.63149]}, "servedBy": ["o-9q9-actransit"], "identifiers": [{"identifier": "f-actransit-s-0805090", "tags": {"stop_lat": "37.631490", "stop_code": "56645", "stop_lon": "-122.077850", "parent_station": "", "stop_id": "0805090", "stop_name": "W Tennyson Rd:Pompano Av", "location_type": ""}}], "type": "Feature", "properties": {}}, {"onestopId": "s-9q9nnycxu2-hayward~spencer", "name": "Hayward Blvd:Spencer Ln", "tags": {}, "geometry": {"type": "Point", "coordinates": [-122.044873, 37.655602]}, "servedBy": ["o-9q9-actransit"], "identifiers": [{"identifier": "f-actransit-s-0802230", "tags": {"stop_lat": "37.655602", "stop_code": "52534", "stop_lon": "-122.044873", "parent_station": "", "stop_id": "0802230", "stop_name": "Hayward Blvd:Spencer Ln", "location_type": ""}}], "type": "Feature", "properties": {}}, {"onestopId": "s-9q9nn2g21f-ruus~ruus", "name": "Ruus Ln:Ruus Rd", "tags": {}, "geometry": {"type": "Point", "coordinates": [-122.064543, 37.62132]}, "servedBy": ["o-9q9-actransit"], "identifiers": [{"identifier": "f-actransit-s-0803950", "tags": {"stop_lat": "37.621320", "stop_code": "58789", "stop_lon": "-122.064543", "parent_station": "", "stop_id": "0803950", "stop_name": "Ruus Ln:Ruus Rd", "location_type": ""}}], "type": "Feature", "properties": {}}, {"onestopId": "s-9q9nn68mhq-wtennyson~ruus", "name": "W Tennyson Rd:Ruus Rd", "tags": {}, "geometry": {"type": "Point", "coordinates": [-122.068559, 37.631815]}, "servedBy": ["o-9q9-actransit"], "identifiers": [{"identifier": "f-actransit-s-0805140", "tags": {"stop_lat": "37.631815", "stop_code": "57002", "stop_lon": "-122.068559", "parent_station": "", "stop_id": "0805140", "stop_name": "W Tennyson Rd:Ruus Rd", "location_type": ""}}], "type": "Feature", "properties": {}}, {"onestopId": "s-9q9nn0xkxv-ruus~stratfordgeorgianmanorwestgate", "name": "Ruus Ln:Stratford Rd (Georgian Manor West Gate)", "tags": {}, "geometry": {"type": "Point", "coordinates": [-122.069782, 37.620734]}, "servedBy": ["o-9q9-actransit"], "identifiers": [{"identifier": "f-actransit-s-0803960", "tags": {"stop_lat": "37.620734", "stop_code": "55927", "stop_lon": "-122.069782", "parent_station": "", "stop_id": "0803960", "stop_name": "Ruus Ln:Stratford Rd (Georgian Manor West Gate)", "location_type": ""}}], "type": "Feature", "properties": {}}, {"onestopId": "s-9q9nnbye0y-mission~fairway", "name": "Mission Blvd:Fairway St", "tags": {}, "geometry": {"type": "Point", "coordinates": [-122.038156, 37.621856]}, "servedBy": ["o-9q9-actransit"], "identifiers": [{"identifier": "f-actransit-s-0803420", "tags": {"stop_lat": "37.621856", "stop_code": "52776", "stop_lon": "-122.038156", "parent_station": "", "stop_id": "0803420", "stop_name": "Mission Blvd:Fairway St", "location_type": ""}}], "type": "Feature", "properties": {}}, {"onestopId": "s-9q9nn17dqt-folsom~tampa", "name": "Folsom Av:Tampa Av", "tags": {}, "geometry": {"type": "Point", "coordinates": [-122.074991, 37.624471]}, "servedBy": ["o-9q9-actransit"], "identifiers": [{"identifier": "f-actransit-s-0801780", "tags": {"stop_lat": "37.624471", "stop_code": "56235", "stop_lon": "-122.074991", "parent_station": "", "stop_id": "0801780", "stop_name": "Folsom Av:Tampa Av", "location_type": ""}}], "type": "Feature", "properties": {}}, {"onestopId": "s-9q9nn5vgrr-manon~shepherd", "name": "Manon Av:Shepherd Av", "tags": {}, "geometry": {"type": "Point", "coordinates": [-122.071863, 37.638384]}, "servedBy": ["o-9q9-actransit"], "identifiers": [{"identifier": "f-actransit-s-0803150", "tags": {"stop_lat": "37.638384", "stop_code": "55983", "stop_lon": "-122.071863", "parent_station": "", "stop_id": "0803150", "stop_name": "Manon Av:Shepherd Av", "location_type": ""}}], "type": "Feature", "properties": {}}, {"onestopId": "s-9q9nnh64tt-schafer~sunvale", "name": "Schafer Rd:Sunvale Ct", "tags": {}, "geometry": {"type": "Point", "coordinates": [-122.077089, 37.640992]}, "servedBy": ["o-9q9-actransit"], "identifiers": [{"identifier": "f-actransit-s-0804310", "tags": {"stop_lat": "37.640992", "stop_code": "53595", "stop_lon": "-122.077089", "parent_station": "", "stop_id": "0804310", "stop_name": "Schafer Rd:Sunvale Ct", "location_type": ""}}], "type": "Feature", "properties": {}}, {"onestopId": "s-9q9nnwzw5d-hayward~civic", "name": "Hayward Blvd:Civic Av", "tags": {}, "geometry": {"type": "Point", "coordinates": [-122.04765, 37.65531]}, "servedBy": ["o-9q9-actransit"], "identifiers": [{"identifier": "f-actransit-s-0802180", "tags": {"stop_lat": "37.655310", "stop_code": "50610", "stop_lon": "-122.047650", "parent_station": "", "stop_id": "0802180", "stop_name": "Hayward Blvd:Civic Av", "location_type": ""}}], "type": "Feature", "properties": {}}, {"onestopId": "s-9q9nn7hkbb-tennyson~leidig", "name": "Tennyson Rd:Leidig Ct", "tags": {}, "geometry": {"type": "Point", "coordinates": [-122.063223, 37.634484]}, "servedBy": ["o-9q9-actransit"], "identifiers": [{"identifier": "f-actransit-s-0804790", "tags": {"stop_lat": "37.634484", "stop_code": "59986", "stop_lon": "-122.063223", "parent_station": "", "stop_id": "0804790", "stop_name": "Tennyson Rd:Leidig Ct", "location_type": ""}}], "type": "Feature", "properties": {}}, {"onestopId": "s-9q9nn36q52-ruus~folsom", "name": "Ruus Rd:Folsom Av", "tags": {}, "geometry": {"type": "Point", "coordinates": [-122.065852, 37.625089]}, "servedBy": ["o-9q9-actransit"], "identifiers": [{"identifier": "f-actransit-s-0803980", "tags": {"stop_lat": "37.625089", "stop_code": "55937", "stop_lon": "-122.065852", "parent_station": "", "stop_id": "0803980", "stop_name": "Ruus Rd:Folsom Av", "location_type": ""}}], "type": "Feature", "properties": {}}, {"onestopId": "s-9q9nnp5gnn-whitman~berry", "name": "Whitman St:Berry Av", "tags": {}, "geometry": {"type": "Point", "coordinates": [-122.074666, 37.656187]}, "servedBy": ["o-9q9-actransit"], "identifiers": [{"identifier": "f-actransit-s-0805390", "tags": {"stop_lat": "37.656187", "stop_code": "57454", "stop_lon": "-122.074666", "parent_station": "", "stop_id": "0805390", "stop_name": "Whitman St:Berry Av", "location_type": ""}}], "type": "Feature", "properties": {}}]}