{"prefix": "9q9hr", "type": "FeatureCollection", "properties": {}, "features": [{"onestopId": "s-9q9hrmpbf3-wolfe~homestead", "name": "WOLFE & HOMESTEAD", "tags": {}, "geometry": {"type": "Point", "coordinates": [-122.014398377, 37.337174136]}, "servedBy": ["o-9q9-vta"], "identifiers": [{"identifier": "f-vta-s-879", "tags": {"stop_lat": "37.337174136000002", "zone_id": "1", "stop_lon": "-122.01439837700001", "stop_id": "879", "stop_desc": "", "stop_name": "WOLFE & HOMESTEAD"}}], "type": "Feature", "properties": {}}, {"onestopId": "s-9q9hrb56je-bollinger~wunderlich", "name": "BOLLINGER & WUNDERLICH", "tags": {}, "geometry": {"type": "Point", "coordinates": [-121.998471028, 37.309934651]}, "servedBy": ["o-9q9-vta"], "identifiers": [{"identifier": "f-vta-s-837", "tags": {"stop_lat": "37.309934650999999", "zone_id": "1", "stop_lon": "-121.998471028", "stop_id": "837", "stop_desc": "", "stop_name": "BOLLINGER & WUNDERLICH"}}], "type": "Feature", "properties": {}}, {"onestopId": "s-9q9hr5fgxq-deanza~mariani", "name": "DE ANZA & MARIANI", "tags": {}, "geometry": {"type": "Point", "coordinates": [-122.032042534, 37.330804872]}, "servedBy": ["o-9q9-vta"], "identifiers": [{"identifier": "f-vta-s-2316", "tags": {"stop_lat": "37.330804872000002", "zone_id": "1", "stop_lon": "-122.032042534", "stop_id": "2316", "stop_desc": "", "stop_name": "DE ANZA & MARIANI"}}], "type": "Feature", "properties": {}}, {"onestopId": "s-9q9hrzergh-elcamino~halford", "name": "EL CAMINO & HALFORD", "tags": {}, "geometry": {"type": "Point", "coordinates": [-121.998573782, 37.352122462]}, "servedBy": ["o-9q9-vta"], "identifiers": [{"identifier": "f-vta-s-373", "tags": {"stop_lat": "37.352122461999997", "zone_id": "1", "stop_lon": "-121.99857378199999", "stop_id": "373", "stop_desc": "", "stop_name": "EL CAMINO & HALFORD"}}], "type": "Feature", "properties": {}}, {"onestopId": "s-9q9hr43ksu-stevenscreek~bandley", "name": "STEVENS CREEK & BANDLEY", "tags": {}, "geometry": {"type": "Point", "coordinates": [-122.034210553, 37.322728148]}, "servedBy": ["o-9q9-vta"], "identifiers": [{"identifier": "f-vta-s-566", "tags": {"stop_lat": "37.322728148000003", "zone_id": "1", "stop_lon": "-122.03421055299999", "stop_id": "566", "stop_desc": "", "stop_name": "STEVENS CREEK & BANDLEY"}}], "type": "Feature", "properties": {}}, {"onestopId": "s-9q9hr4dgz1-deanza~stevenscreek", "name": "DE ANZA & STEVENS CREEK", "tags": {}, "geometry": {"type": "Point", "coordinates": [-122.032054421, 37.323954814]}, "servedBy": ["o-9q9-vta"], "identifiers": [{"identifier": "f-vta-s-2314", "tags": {"stop_lat": "37.323954813999997", "zone_id": "1", "stop_lon": "-122.032054421", "stop_id": "2314", "stop_desc": "", "stop_name": "DE ANZA & STEVENS CREEK"}}], "type": "Feature", "properties": {}}, {"onestopId": "s-9q9hr806d1-miller~bollinger", "name": "MILLER & BOLLINGER", "tags": {}, "geometry": {"type": "Point", "coordinates": [-122.013730383, 37.310007159]}, "servedBy": ["o-9q9-vta"], "identifiers": [{"identifier": "f-vta-s-886", "tags": {"stop_lat": "37.310007159000001", "zone_id": "1", "stop_lon": "-122.013730383", "stop_id": "886", "stop_desc": "", "stop_name": "MILLER & BOLLINGER"}}], "type": "Feature", "properties": {}}, {"onestopId": "s-9q9hrsy3dr-tantau~homestead", "name": "TANTAU & HOMESTEAD", "tags": {}, "geometry": {"type": "Point", "coordinates": [-122.005471773, 37.335958238]}, "servedBy": ["o-9q9-vta"], "identifiers": [{"identifier": "f-vta-s-4093", "tags": {"stop_lat": "37.335958238000003", "zone_id": "1", "stop_lon": "-122.005471773", "stop_id": "4093", "stop_desc": "", "stop_name": "TANTAU & HOMESTEAD"}}], "type": "Feature", "properties": {}}, {"onestopId": "s-9q9hr1fvjt-deanza~sunrise", "name": "DE ANZA & SUNRISE", "tags": {}, "geometry": {"type": "Point", "coordinates": [-122.032112741, 37.320069109]}, "servedBy": ["o-9q9-vta"], "identifiers": [{"identifier": "f-vta-s-2313", "tags": {"stop_lat": "37.320069109000002", "zone_id": "1", "stop_lon": "-122.03211274100001", "stop_id": "2313", "stop_desc": "", "stop_name": "DE ANZA & SUNRISE"}}], "type": "Feature", "properties": {}}, {"onestopId": "s-9q9hrnfcup-sunnyvalesaratoga~conemara", "name": "SUNNYVALE-SARATOGA & CONEMARA", "tags": {}, "geometry": {"type": "Point", "coordinates": [-122.032178657, 37.346992432]}, "servedBy": ["o-9q9-vta"], "identifiers": [{"identifier": "f-vta-s-2320", "tags": {"stop_lat": "37.346992432", "zone_id": "1", "stop_lon": "-122.032178657", "stop_id": "2320", "stop_desc": "", "stop_name": "SUNNYVALE-SARATOGA & CONEMARA"}}], "type": "Feature", "properties": {}}, {"onestopId": "s-9q9hrb077m-bollinger~johnson", "name": "BOLLINGER & JOHNSON", "tags": {}, "geometry": {"type": "Point", "coordinates": [-122.002680514, 37.310156804]}, "servedBy": ["o-9q9-vta"], "identifiers": [{"identifier": "f-vta-s-706", "tags": {"stop_lat": "37.310156804000002", "zone_id": "1", "stop_lon": "-122.00268051400001", "stop_id": "706", "stop_desc": "", "stop_name": "BOLLINGER & JOHNSON"}}], "type": "Feature", "properties": {}}, {"onestopId": "s-9q9hr0dfx5-deanza~bollinger", "name": "DE ANZA & BOLLINGER", "tags": {}, "geometry": {"type": "Point", "coordinates": [-122.03205545, 37.312762616]}, "servedBy": ["o-9q9-vta"], "identifiers": [{"identifier": "f-vta-s-844", "tags": {"stop_lat": "37.312762616000001", "zone_id": "1", "stop_lon": "-122.03205545", "stop_id": "844", "stop_desc": "", "stop_name": "DE ANZA & BOLLINGER"}}], "type": "Feature", "properties": {}}, {"onestopId": "s-9q9hrrxg45-wolfe~fremont", "name": "WOLFE & FREMONT", "tags": {}, "geometry": {"type": "Point", "coordinates": [-122.014408218, 37.35130299]}, "servedBy": ["o-9q9-vta"], "identifiers": [{"identifier": "f-vta-s-875", "tags": {"stop_lat": "37.351302990000001", "zone_id": "1", "stop_lon": "-122.014408218", "stop_id": "875", "stop_desc": "", "stop_name": "WOLFE & FREMONT"}}], "type": "Feature", "properties": {}}, {"onestopId": "s-9q9hrv0eec-homestead~swallow", "name": "HOMESTEAD & SWALLOW", "tags": {}, "geometry": {"type": "Point", "coordinates": [-122.002317807, 37.337645928]}, "servedBy": ["o-9q9-vta"], "identifiers": [{"identifier": "f-vta-s-3970", "tags": {"stop_lat": "37.337645928000001", "zone_id": "1", "stop_lon": "-122.002317807", "stop_id": "3970", "stop_desc": "", "stop_name": "HOMESTEAD & SWALLOW"}}], "type": "Feature", "properties": {}}, {"onestopId": "s-9q9hrjdfkx-sunnyvalesaratoga~laconner", "name": "SUNNYVALE-SARATOGA & LA CONNER", "tags": {}, "geometry": {"type": "Point", "coordinates": [-122.03215318, 37.34020831]}, "servedBy": ["o-9q9-vta"], "identifiers": [{"identifier": "f-vta-s-2318", "tags": {"stop_lat": "37.340208310000001", "zone_id": "1", "stop_lon": "-122.03215317999999", "stop_id": "2318", "stop_desc": "", "stop_name": "SUNNYVALE-SARATOGA & LA CONNER"}}], "type": "Feature", "properties": {}}, {"onestopId": "s-9q9hr802m1-miller~bollinger", "name": "MILLER & BOLLINGER", "tags": {}, "geometry": {"type": "Point", "coordinates": [-122.013592674, 37.309619442]}, "servedBy": ["o-9q9-vta"], "identifiers": [{"identifier": "f-vta-s-1007", "tags": {"stop_lat": "37.309619441999999", "zone_id": "1", "stop_lon": "-122.01359267399999", "stop_id": "1007", "stop_desc": "", "stop_name": "MILLER & BOLLINGER"}}], "type": "Feature", "properties": {}}, {"onestopId": "s-9q9hrbj6y3-lawrence~moorpark", "name": "LAWRENCE & MOORPARK", "tags": {}, "geometry": {"type": "Point", "coordinates": [-121.995685982, 37.310049177]}, "servedBy": ["o-9q9-vta"], "identifiers": [{"identifier": "f-vta-s-4433", "tags": {"stop_lat": "37.310049177000003", "zone_id": "1", "stop_lon": "-121.995685982", "stop_id": "4433", "stop_desc": "", "stop_name": "LAWRENCE & MOORPARK"}}], "type": "Feature", "properties": {}}, {"onestopId": "s-9q9hr67wxt-stevenscreek~portal", "name": "STEVENS CREEK & PORTAL", "tags": {}, "geometry": {"type": "Point", "coordinates": [-122.020008209, 37.323076662]}, "servedBy": ["o-9q9-vta"], "identifiers": [{"identifier": "f-vta-s-657", "tags": {"stop_lat": "37.323076661999998", "zone_id": "1", "stop_lon": "-122.020008209", "stop_id": "657", "stop_desc": "", "stop_name": "STEVENS CREEK & PORTAL"}}], "type": "Feature", "properties": {}}, {"onestopId": "s-9q9hrb5bdf-bollinger~wunderlich", "name": "BOLLINGER & WUNDERLICH", "tags": {}, "geometry": {"type": "Point", "coordinates": [-121.997896516, 37.309668289]}, "servedBy": ["o-9q9-vta"], "identifiers": [{"identifier": "f-vta-s-707", "tags": {"stop_lat": "37.309668289000001", "zone_id": "1", "stop_lon": "-121.997896516", "stop_id": "707", "stop_desc": "", "stop_name": "BOLLINGER & WUNDERLICH"}}], "type": "Feature", "properties": {}}, {"onestopId": "s-9q9hrzz8ry-elcamino~floravista", "name": "EL CAMINO & FLORA VISTA", "tags": {}, "geometry": {"type": "Point", "coordinates": [-121.992533117, 37.352220234]}, "servedBy": ["o-9q9-vta"], "identifiers": [{"identifier": "f-vta-s-374", "tags": {"stop_lat": "37.352220234000001", "zone_id": "1", "stop_lon": "-121.99253311699999", "stop_id": "374", "stop_desc": "", "stop_name": "EL CAMINO & FLORA VISTA"}}], "type": "Feature", "properties": {}}, {"onestopId": "s-9q9hrxxp84-elcamino~henderson", "name": "EL CAMINO & HENDERSON", "tags": {}, "geometry": {"type": "Point", "coordinates": [-122.004541341, 37.352068438]}, "servedBy": ["o-9q9-vta"], "identifiers": [{"identifier": "f-vta-s-372", "tags": {"stop_lat": "37.352068438000003", "zone_id": "1", "stop_lon": "-122.00454134100001", "stop_id": "372", "stop_desc": "", "stop_name": "EL CAMINO & HENDERSON"}}], "type": "Feature", "properties": {}}, {"onestopId": "s-9q9hr90stz-miller~phil", "name": "MILLER & PHIL", "tags": {}, "geometry": {"type": "Point", "coordinates": [-122.013224632, 37.31587518]}, "servedBy": ["o-9q9-vta"], "identifiers": [{"identifier": "f-vta-s-1009", "tags": {"stop_lat": "37.315875179999999", "zone_id": "1", "stop_lon": "-122.013224632", "stop_id": "1009", "stop_desc": "", "stop_name": "MILLER & PHIL"}}], "type": "Feature", "properties": {}}, {"onestopId": "s-9q9hr07yj0-bollinger~deanza", "name": "BOLLINGER & DE ANZA", "tags": {}, "geometry": {"type": "Point", "coordinates": [-122.030765324, 37.311975245]}, "servedBy": ["o-9q9-vta"], "identifiers": [{"identifier": "f-vta-s-701", "tags": {"stop_lat": "37.311975244999999", "zone_id": "1", "stop_lon": "-122.030765324", "stop_id": "701", "stop_desc": "", "stop_name": "BOLLINGER & DE ANZA"}}], "type": "Feature", "properties": {}}, {"onestopId": "s-9q9hrd6qgf-stevenscreek~finch", "name": "STEVENS CREEK & FINCH", "tags": {}, "geometry": {"type": "Point", "coordinates": [-122.010906356, 37.323102498]}, "servedBy": ["o-9q9-vta"], "identifiers": [{"identifier": "f-vta-s-655", "tags": {"stop_lat": "37.323102497999997", "zone_id": "1", "stop_lon": "-122.01090635600001", "stop_id": "655", "stop_desc": "", "stop_name": "STEVENS CREEK & FINCH"}}], "type": "Feature", "properties": {}}, {"onestopId": "s-9q9hr218g2-bollinger~blaney", "name": "BOLLINGER & BLANEY", "tags": {}, "geometry": {"type": "Point", "coordinates": [-122.022938011, 37.309699075]}, "servedBy": ["o-9q9-vta"], "identifiers": [{"identifier": "f-vta-s-702", "tags": {"stop_lat": "37.309699074999997", "zone_id": "1", "stop_lon": "-122.02293801099999", "stop_id": "702", "stop_desc": "", "stop_name": "BOLLINGER & BLANEY"}}], "type": "Feature", "properties": {}}, {"onestopId": "s-9q9hr6rq9x-stevenscreek~wolfe", "name": "STEVENS CREEK & WOLFE", "tags": {}, "geometry": {"type": "Point", "coordinates": [-122.015123162, 37.32308347]}, "servedBy": ["o-9q9-vta"], "identifiers": [{"identifier": "f-vta-s-656", "tags": {"stop_lat": "37.32308347", "zone_id": "1", "stop_lon": "-122.01512316199999", "stop_id": "656", "stop_desc": "", "stop_name": "STEVENS CREEK & WOLFE"}}], "type": "Feature", "properties": {}}, {"onestopId": "s-9q9hrd7m33-stevenscreek~finch", "name": "STEVENS CREEK & FINCH", "tags": {}, "geometry": {"type": "Point", "coordinates": [-122.009638841, 37.322841714]}, "servedBy": ["o-9q9-vta"], "identifiers": [{"identifier": "f-vta-s-572", "tags": {"stop_lat": "37.322841713999999", "zone_id": "1", "stop_lon": "-122.009638841", "stop_id": "572", "stop_desc": "", "stop_name": "STEVENS CREEK & FINCH"}}], "type": "Feature", "properties": {}}, {"onestopId": "s-9q9hrjfxs3-sunnyvalesaratoga~alberta", "name": "SUNNYVALE-SARATOGA & ALBERTA", "tags": {}, "geometry": {"type": "Point", "coordinates": [-122.032508142, 37.342453071]}, "servedBy": ["o-9q9-vta"], "identifiers": [{"identifier": "f-vta-s-2397", "tags": {"stop_lat": "37.342453071000001", "zone_id": "1", "stop_lon": "-122.032508142", "stop_id": "2397", "stop_desc": "", "stop_name": "SUNNYVALE-SARATOGA & ALBERTA"}}], "type": "Feature", "properties": {}}, {"onestopId": "s-9q9hrx042j-wolfe~elizabeth", "name": "WOLFE & ELIZABETH", "tags": {}, "geometry": {"type": "Point", "coordinates": [-122.014154789, 37.348438674]}, "servedBy": ["o-9q9-vta"], "identifiers": [{"identifier": "f-vta-s-1018", "tags": {"stop_lat": "37.348438674000001", "zone_id": "1", "stop_lon": "-122.014154789", "stop_id": "1018", "stop_desc": "", "stop_name": "WOLFE & ELIZABETH"}}], "type": "Feature", "properties": {}}, {"onestopId": "s-9q9hrzb12e-elcamino~sycamore", "name": "EL CAMINO & SYCAMORE", "tags": {}, "geometry": {"type": "Point", "coordinates": [-122.00315195, 37.3523742]}, "servedBy": ["o-9q9-vta"], "identifiers": [{"identifier": "f-vta-s-478", "tags": {"stop_lat": "37.3523742", "zone_id": "1", "stop_lon": "-122.00315195", "stop_id": "478", "stop_desc": "", "stop_name": "EL CAMINO & SYCAMORE"}}], "type": "Feature", "properties": {}}, {"onestopId": "s-9q9hrzsds5-lawrence~elcamino", "name": "LAWRENCE & EL CAMINO", "tags": {}, "geometry": {"type": "Point", "coordinates": [-121.996817886, 37.351217368]}, "servedBy": ["o-9q9-vta"], "identifiers": [{"identifier": "f-vta-s-4602", "tags": {"stop_lat": "37.351217368", "zone_id": "1", "stop_lon": "-121.996817886", "stop_id": "4602", "stop_desc": "", "stop_name": "LAWRENCE & EL CAMINO"}}], "type": "Feature", "properties": {}}, {"onestopId": "s-9q9hrkxbfh-wolfe~pruneridge", "name": "WOLFE & PRUNERIDGE", "tags": {}, "geometry": {"type": "Point", "coordinates": [-122.014414727, 37.334441121]}, "servedBy": ["o-9q9-vta"], "identifiers": [{"identifier": "f-vta-s-880", "tags": {"stop_lat": "37.334441120999998", "zone_id": "1", "stop_lon": "-122.014414727", "stop_id": "880", "stop_desc": "", "stop_name": "WOLFE & PRUNERIDGE"}}], "type": "Feature", "properties": {}}, {"onestopId": "s-9q9hrj48h8-deanza~homestead", "name": "DE ANZA & HOMESTEAD", "tags": {}, "geometry": {"type": "Point", "coordinates": [-122.032496649, 37.337040416]}, "servedBy": ["o-9q9-vta"], "identifiers": [{"identifier": "f-vta-s-2399", "tags": {"stop_lat": "37.337040416000001", "zone_id": "1", "stop_lon": "-122.032496649", "stop_id": "2399", "stop_desc": "", "stop_name": "DE ANZA & HOMESTEAD"}}], "type": "Feature", "properties": {}}, {"onestopId": "s-9q9hruvmc3-lawrence~homestead", "name": "LAWRENCE & HOMESTEAD", "tags": {}, "geometry": {"type": "Point", "coordinates": [-121.99590847, 37.336657664]}, "servedBy": ["o-9q9-vta"], "identifiers": [{"identifier": "f-vta-s-4603", "tags": {"stop_lat": "37.336657664000001", "zone_id": "1", "stop_lon": "-121.99590847", "stop_id": "4603", "stop_desc": "", "stop_name": "LAWRENCE & HOMESTEAD"}}], "type": "Feature", "properties": {}}, {"onestopId": "s-9q9hrtb502-wolfe~inverness", "name": "WOLFE & INVERNESS", "tags": {}, "geometry": {"type": "Point", "coordinates": [-122.014143472, 37.341672561]}, "servedBy": ["o-9q9-vta"], "identifiers": [{"identifier": "f-vta-s-1016", "tags": {"stop_lat": "37.341672561000003", "zone_id": "1", "stop_lon": "-122.014143472", "stop_id": "1016", "stop_desc": "", "stop_name": "WOLFE & INVERNESS"}}], "type": "Feature", "properties": {}}, {"onestopId": "s-9q9hrxbd9w-elcamino~wolfe", "name": "EL CAMINO & WOLFE", "tags": {}, "geometry": {"type": "Point", "coordinates": [-122.013398926, 37.352607605]}, "servedBy": ["o-9q9-vta"], "identifiers": [{"identifier": "f-vta-s-370", "tags": {"stop_lat": "37.352607605000003", "zone_id": "1", "stop_lon": "-122.01339892599999", "stop_id": "370", "stop_desc": "", "stop_name": "EL CAMINO & WOLFE"}}], "type": "Feature", "properties": {}}, {"onestopId": "s-9q9hr2jd9z-bollinger~alderbrook", "name": "BOLLINGER & ALDERBROOK", "tags": {}, "geometry": {"type": "Point", "coordinates": [-122.017517254, 37.310037857]}, "servedBy": ["o-9q9-vta"], "identifiers": [{"identifier": "f-vta-s-703", "tags": {"stop_lat": "37.310037856999998", "zone_id": "1", "stop_lon": "-122.017517254", "stop_id": "703", "stop_desc": "", "stop_name": "BOLLINGER & ALDERBROOK"}}], "type": "Feature", "properties": {}}, {"onestopId": "s-9q9hrv552y-homestead~lawrence", "name": "HOMESTEAD & LAWRENCE", "tags": {}, "geometry": {"type": "Point", "coordinates": [-121.999013122, 37.337630341]}, "servedBy": ["o-9q9-vta"], "identifiers": [{"identifier": "f-vta-s-3971", "tags": {"stop_lat": "37.337630341000001", "zone_id": "1", "stop_lon": "-121.99901312199999", "stop_id": "3971", "stop_desc": "", "stop_name": "HOMESTEAD & LAWRENCE"}}], "type": "Feature", "properties": {}}, {"onestopId": "s-9q9hr04xn7-deanza~bollinger", "name": "DE ANZA & BOLLINGER", "tags": {}, "geometry": {"type": "Point", "coordinates": [-122.032422376, 37.310789766]}, "servedBy": ["o-9q9-vta"], "identifiers": [{"identifier": "f-vta-s-2300", "tags": {"stop_lat": "37.310789765999999", "zone_id": "1", "stop_lon": "-122.032422376", "stop_id": "2300", "stop_desc": "", "stop_name": "DE ANZA & BOLLINGER"}}], "type": "Feature", "properties": {}}, {"onestopId": "s-9q9hr549m5-deanza~lazaneo", "name": "DE ANZA & LAZANEO", "tags": {}, "geometry": {"type": "Point", "coordinates": [-122.03248122, 37.326283915]}, "servedBy": ["o-9q9-vta"], "identifiers": [{"identifier": "f-vta-s-2401", "tags": {"stop_lat": "37.326283914999998", "zone_id": "1", "stop_lon": "-122.03248121999999", "stop_id": "2401", "stop_desc": "", "stop_name": "DE ANZA & LAZANEO"}}], "type": "Feature", "properties": {}}, {"onestopId": "s-9q9hr8hr4m-bollinger~tantau", "name": "BOLLINGER & TANTAU", "tags": {}, "geometry": {"type": "Point", "coordinates": [-122.008220523, 37.310799137]}, "servedBy": ["o-9q9-vta"], "identifiers": [{"identifier": "f-vta-s-839", "tags": {"stop_lat": "37.310799136999997", "zone_id": "1", "stop_lon": "-122.00822052300001", "stop_id": "839", "stop_desc": "", "stop_name": "BOLLINGER & TANTAU"}}], "type": "Feature", "properties": {}}, {"onestopId": "s-9q9hretvz7-tantau~pruneridge", "name": "TANTAU & PRUNERIDGE", "tags": {}, "geometry": {"type": "Point", "coordinates": [-122.005946665, 37.329802197]}, "servedBy": ["o-9q9-vta"], "identifiers": [{"identifier": "f-vta-s-4095", "tags": {"stop_lat": "37.329802196999999", "zone_id": "1", "stop_lon": "-122.005946665", "stop_id": "4095", "stop_desc": "", "stop_name": "TANTAU & PRUNERIDGE"}}], "type": "Feature", "properties": {}}, {"onestopId": "s-9q9hr4qsu9-stevenscreek~torre", "name": "STEVENS CREEK & TORRE", "tags": {}, "geometry": {"type": "Point", "coordinates": [-122.027012891, 37.322755753]}, "servedBy": ["o-9q9-vta"], "identifiers": [{"identifier": "f-vta-s-568", "tags": {"stop_lat": "37.322755753000003", "zone_id": "1", "stop_lon": "-122.027012891", "stop_id": "568", "stop_desc": "", "stop_name": "STEVENS CREEK & TORRE"}}], "type": "Feature", "properties": {}}, {"onestopId": "s-9q9hr98e2q-miller~greenwood", "name": "MILLER & GREENWOOD", "tags": {}, "geometry": {"type": "Point", "coordinates": [-122.013459185, 37.318401944]}, "servedBy": ["o-9q9-vta"], "identifiers": [{"identifier": "f-vta-s-883", "tags": {"stop_lat": "37.318401944000001", "zone_id": "1", "stop_lon": "-122.013459185", "stop_id": "883", "stop_desc": "", "stop_name": "MILLER & GREENWOOD"}}], "type": "Feature", "properties": {}}, {"onestopId": "s-9q9hrdmppv-stevenscreek~tantau", "name": "STEVENS CREEK & TANTAU", "tags": {}, "geometry": {"type": "Point", "coordinates": [-122.00695475, 37.323160798]}, "servedBy": ["o-9q9-vta"], "identifiers": [{"identifier": "f-vta-s-654", "tags": {"stop_lat": "37.323160798000004", "zone_id": "1", "stop_lon": "-122.00695475000001", "stop_id": "654", "stop_desc": "", "stop_name": "STEVENS CREEK & TANTAU"}}], "type": "Feature", "properties": {}}, {"onestopId": "s-9q9hrd2m47-stevenscreek~miller", "name": "STEVENS CREEK & MILLER", "tags": {}, "geometry": {"type": "Point", "coordinates": [-122.013716515, 37.322808875]}, "servedBy": ["o-9q9-vta"], "identifiers": [{"identifier": "f-vta-s-571", "tags": {"stop_lat": "37.322808875", "zone_id": "1", "stop_lon": "-122.013716515", "stop_id": "571", "stop_desc": "", "stop_name": "STEVENS CREEK & MILLER"}}], "type": "Feature", "properties": {}}, {"onestopId": "s-9q9hr4bf73-alves~parkcircle", "name": "ALVES & PARK CIRCLE", "tags": {}, "geometry": {"type": "Point", "coordinates": [-122.034959859, 37.325072181]}, "servedBy": ["o-9q9-vta"], "identifiers": [{"identifier": "f-vta-s-696", "tags": {"stop_lat": "37.325072181000003", "zone_id": "1", "stop_lon": "-122.034959859", "stop_id": "696", "stop_desc": "", "stop_name": "ALVES & PARK CIRCLE"}}], "type": "Feature", "properties": {}}, {"onestopId": "s-9q9hr4myw0-stevenscreek~vista", "name": "STEVENS CREEK & VISTA", "tags": {}, "geometry": {"type": "Point", "coordinates": [-122.027975601, 37.323048713]}, "servedBy": ["o-9q9-vta"], "identifiers": [{"identifier": "f-vta-s-659", "tags": {"stop_lat": "37.323048712999999", "zone_id": "1", "stop_lon": "-122.02797560099999", "stop_id": "659", "stop_desc": "", "stop_name": "STEVENS CREEK & VISTA"}}], "type": "Feature", "properties": {}}, {"onestopId": "s-9q9hrdmvdk-stevenscreek~tantau", "name": "STEVENS CREEK & TANTAU", "tags": {}, "geometry": {"type": "Point", "coordinates": [-122.006167006, 37.322898844]}, "servedBy": ["o-9q9-vta"], "identifiers": [{"identifier": "f-vta-s-573", "tags": {"stop_lat": "37.322898844000001", "zone_id": "1", "stop_lon": "-122.006167006", "stop_id": "573", "stop_desc": "", "stop_name": "STEVENS CREEK & TANTAU"}}], "type": "Feature", "properties": {}}, {"onestopId": "s-9q9hr8hnn5-bollinger~tullipan", "name": "BOLLINGER & TULLIPAN", "tags": {}, "geometry": {"type": "Point", "coordinates": [-122.008408436, 37.310620889]}, "servedBy": ["o-9q9-vta"], "identifiers": [{"identifier": "f-vta-s-705", "tags": {"stop_lat": "37.310620888999999", "zone_id": "1", "stop_lon": "-122.008408436", "stop_id": "705", "stop_desc": "", "stop_name": "BOLLINGER & TULLIPAN"}}], "type": "Feature", "properties": {}}, {"onestopId": "s-9q9hr46nkq-stevenscreek~deanza", "name": "STEVENS CREEK & DE ANZA", "tags": {}, "geometry": {"type": "Point", "coordinates": [-122.033203795, 37.323039052]}, "servedBy": ["o-9q9-vta"], "identifiers": [{"identifier": "f-vta-s-660", "tags": {"stop_lat": "37.323039051999999", "zone_id": "1", "stop_lon": "-122.03320379500001", "stop_id": "660", "stop_desc": "", "stop_name": "STEVENS CREEK & DE ANZA"}}], "type": "Feature", "properties": {}}, {"onestopId": "s-9q9hrjdwks-sunnyvalesaratoga~laconner", "name": "SUNNYVALE-SARATOGA & LA CONNER", "tags": {}, "geometry": {"type": "Point", "coordinates": [-122.03249779, 37.34087837]}, "servedBy": ["o-9q9-vta"], "identifiers": [{"identifier": "f-vta-s-2398", "tags": {"stop_lat": "37.340878369999999", "zone_id": "1", "stop_lon": "-122.03249778999999", "stop_id": "2398", "stop_desc": "", "stop_name": "SUNNYVALE-SARATOGA & LA CONNER"}}], "type": "Feature", "properties": {}}, {"onestopId": "s-9q9hr2puv5-bollinger~miller", "name": "BOLLINGER & MILLER", "tags": {}, "geometry": {"type": "Point", "coordinates": [-122.014286259, 37.310407096]}, "servedBy": ["o-9q9-vta"], "identifiers": [{"identifier": "f-vta-s-840", "tags": {"stop_lat": "37.310407095999999", "zone_id": "1", "stop_lon": "-122.014286259", "stop_id": "840", "stop_desc": "", "stop_name": "BOLLINGER & MILLER"}}], "type": "Feature", "properties": {}}, {"onestopId": "s-9q9hr88mpb-miller~disney", "name": "MILLER & DISNEY", "tags": {}, "geometry": {"type": "Point", "coordinates": [-122.013481589, 37.313179581]}, "servedBy": ["o-9q9-vta"], "identifiers": [{"identifier": "f-vta-s-885", "tags": {"stop_lat": "37.313179581", "zone_id": "1", "stop_lon": "-122.01348158899999", "stop_id": "885", "stop_desc": "", "stop_name": "MILLER & DISNEY"}}], "type": "Feature", "properties": {}}, {"onestopId": "s-9q9hr54yjf-deanza~lazaneo", "name": "DE ANZA & LAZANEO", "tags": {}, "geometry": {"type": "Point", "coordinates": [-122.032107767, 37.327092659]}, "servedBy": ["o-9q9-vta"], "identifiers": [{"identifier": "f-vta-s-2315", "tags": {"stop_lat": "37.327092659000002", "zone_id": "1", "stop_lon": "-122.032107767", "stop_id": "2315", "stop_desc": "", "stop_name": "DE ANZA & LAZANEO"}}], "type": "Feature", "properties": {}}, {"onestopId": "s-9q9hrdcs94-vallco~perimeter", "name": "VALLCO PARKWAY & PERIMETER", "tags": {}, "geometry": {"type": "Point", "coordinates": [-122.012053, 37.325461]}, "servedBy": ["o-9q9-vta"], "identifiers": [{"identifier": "f-vta-s-4636", "tags": {"stop_lat": "37.325460999999997", "zone_id": "1", "stop_lon": "-122.01205299999999", "stop_id": "4636", "stop_desc": "", "stop_name": "VALLCO PARKWAY & PERIMETER"}}], "type": "Feature", "properties": {}}, {"onestopId": "s-9q9hr7ptmk-wolfe~vallcomall", "name": "WOLFE @ VALLCO MALL", "tags": {}, "geometry": {"type": "Point", "coordinates": [-122.014619901, 37.326974251]}, "servedBy": ["o-9q9-vta"], "identifiers": [{"identifier": "f-vta-s-881", "tags": {"stop_lat": "37.326974251000003", "zone_id": "1", "stop_lon": "-122.014619901", "stop_id": "881", "stop_desc": "", "stop_name": "WOLFE @ VALLCO MALL"}}], "type": "Feature", "properties": {}}, {"onestopId": "s-9q9hr90t3h-miller~phil", "name": "MILLER & PHIL", "tags": {}, "geometry": {"type": "Point", "coordinates": [-122.013423585, 37.315987163]}, "servedBy": ["o-9q9-vta"], "identifiers": [{"identifier": "f-vta-s-884", "tags": {"stop_lat": "37.315987163000003", "zone_id": "1", "stop_lon": "-122.013423585", "stop_id": "884", "stop_desc": "", "stop_name": "MILLER & PHIL"}}], "type": "Feature", "properties": {}}, {"onestopId": "s-9q9hr16cjv-deanza~pacifica", "name": "DE ANZA & PACIFICA", "tags": {}, "geometry": {"type": "Point", "coordinates": [-122.032100358, 37.316638819]}, "servedBy": ["o-9q9-vta"], "identifiers": [{"identifier": "f-vta-s-2312", "tags": {"stop_lat": "37.316638818999998", "zone_id": "1", "stop_lon": "-122.03210035799999", "stop_id": "2312", "stop_desc": "", "stop_name": "DE ANZA & PACIFICA"}}], "type": "Feature", "properties": {}}, {"onestopId": "s-9q9hr98w0r-miller~greenwood", "name": "MILLER & GREENWOOD", "tags": {}, "geometry": {"type": "Point", "coordinates": [-122.013462588, 37.31888059]}, "servedBy": ["o-9q9-vta"], "identifiers": [{"identifier": "f-vta-s-1010", "tags": {"stop_lat": "37.318880589999999", "zone_id": "1", "stop_lon": "-122.013462588", "stop_id": "1010", "stop_desc": "", "stop_name": "MILLER & GREENWOOD"}}], "type": "Feature", "properties": {}}, {"onestopId": "s-9q9hrf2x18-stevenscreek~interstate280", "name": "STEVENS CREEK & INTERSTATE-280", "tags": {}, "geometry": {"type": "Point", "coordinates": [-122.002412131, 37.323136431]}, "servedBy": ["o-9q9-vta"], "identifiers": [{"identifier": "f-vta-s-653", "tags": {"stop_lat": "37.323136431000002", "zone_id": "1", "stop_lon": "-122.002412131", "stop_id": "653", "stop_desc": "", "stop_name": "STEVENS CREEK & INTERSTATE-280"}}], "type": "Feature", "properties": {}}, {"onestopId": "s-9q9hr6km0u-stevenscreek~portal", "name": "STEVENS CREEK & PORTAL", "tags": {}, "geometry": {"type": "Point", "coordinates": [-122.019269242, 37.322812411]}, "servedBy": ["o-9q9-vta"], "identifiers": [{"identifier": "f-vta-s-570", "tags": {"stop_lat": "37.322812411000001", "zone_id": "1", "stop_lon": "-122.01926924199999", "stop_id": "570", "stop_desc": "", "stop_name": "STEVENS CREEK & PORTAL"}}], "type": "Feature", "properties": {}}, {"onestopId": "s-9q9hrzyf45-elcamino~floravista", "name": "EL CAMINO & FLORA VISTA", "tags": {}, "geometry": {"type": "Point", "coordinates": [-121.99381823, 37.35250243]}, "servedBy": ["o-9q9-vta"], "identifiers": [{"identifier": "f-vta-s-476", "tags": {"stop_lat": "37.352502430000001", "zone_id": "1", "stop_lon": "-121.99381823", "stop_id": "476", "stop_desc": "", "stop_name": "EL CAMINO & FLORA VISTA"}}], "type": "Feature", "properties": {}}, {"onestopId": "s-9q9hrfrrm9-stevenscreek~cabot", "name": "STEVENS CREEK & CABOT", "tags": {}, "geometry": {"type": "Point", "coordinates": [-121.992976854, 37.323182083]}, "servedBy": ["o-9q9-vta"], "identifiers": [{"identifier": "f-vta-s-651", "tags": {"stop_lat": "37.323182082999999", "zone_id": "1", "stop_lon": "-121.99297685400001", "stop_id": "651", "stop_desc": "", "stop_name": "STEVENS CREEK & CABOT"}}], "type": "Feature", "properties": {}}, {"onestopId": "s-9q9hrvpsp3-homestead~princeton", "name": "HOMESTEAD & PRINCETON", "tags": {}, "geometry": {"type": "Point", "coordinates": [-121.99255695, 37.33772878]}, "servedBy": ["o-9q9-vta"], "identifiers": [{"identifier": "f-vta-s-3972", "tags": {"stop_lat": "37.337728779999999", "zone_id": "1", "stop_lon": "-121.99255694999999", "stop_id": "3972", "stop_desc": "", "stop_name": "HOMESTEAD & PRINCETON"}}], "type": "Feature", "properties": {}}, {"onestopId": "s-9q9hrt0n96-wolfe~homestead", "name": "WOLFE & HOMESTEAD", "tags": {}, "geometry": {"type": "Point", "coordinates": [-122.014102982, 37.338164644]}, "servedBy": ["o-9q9-vta"], "identifiers": [{"identifier": "f-vta-s-1015", "tags": {"stop_lat": "37.338164644000003", "zone_id": "1", "stop_lon": "-122.014102982", "stop_id": "1015", "stop_desc": "", "stop_name": "WOLFE & HOMESTEAD"}}], "type": "Feature", "properties": {}}, {"onestopId": "s-9q9hrv0su1-homestead~swallow", "name": "HOMESTEAD & SWALLOW", "tags": {}, "geometry": {"type": "Point", "coordinates": [-122.002310589, 37.337860846]}, "servedBy": ["o-9q9-vta"], "identifiers": [{"identifier": "f-vta-s-4092", "tags": {"stop_lat": "37.337860845999998", "zone_id": "1", "stop_lon": "-122.002310589", "stop_id": "4092", "stop_desc": "", "stop_name": "HOMESTEAD & SWALLOW"}}], "type": "Feature", "properties": {}}, {"onestopId": "s-9q9hre0n3v-wolfe~vallcomall", "name": "WOLFE @ VALLCO MALL", "tags": {}, "geometry": {"type": "Point", "coordinates": [-122.014076491, 37.327150401]}, "servedBy": ["o-9q9-vta"], "identifiers": [{"identifier": "f-vta-s-1013", "tags": {"stop_lat": "37.327150400999997", "zone_id": "1", "stop_lon": "-122.014076491", "stop_id": "1013", "stop_desc": "", "stop_name": "WOLFE @ VALLCO MALL"}}], "type": "Feature", "properties": {}}, {"onestopId": "s-9q9hr81ucc-bollinger~miller", "name": "BOLLINGER & MILLER", "tags": {}, "geometry": {"type": "Point", "coordinates": [-122.011676283, 37.310394328]}, "servedBy": ["o-9q9-vta"], "identifiers": [{"identifier": "f-vta-s-704", "tags": {"stop_lat": "37.310394328000001", "zone_id": "1", "stop_lon": "-122.011676283", "stop_id": "704", "stop_desc": "", "stop_name": "BOLLINGER & MILLER"}}], "type": "Feature", "properties": {}}, {"onestopId": "s-9q9hrsnph2-tantau~pruneridge", "name": "TANTAU & PRUNERIDGE", "tags": {}, "geometry": {"type": "Point", "coordinates": [-122.005735465, 37.332747166]}, "servedBy": ["o-9q9-vta"], "identifiers": [{"identifier": "f-vta-s-3967", "tags": {"stop_lat": "37.332747165999997", "zone_id": "1", "stop_lon": "-122.005735465", "stop_id": "3967", "stop_desc": "", "stop_name": "TANTAU & PRUNERIDGE"}}], "type": "Feature", "properties": {}}, {"onestopId": "s-9q9hrf2jkp-stevenscreek~stern", "name": "STEVENS CREEK & STERN", "tags": {}, "geometry": {"type": "Point", "coordinates": [-122.002991955, 37.322872342]}, "servedBy": ["o-9q9-vta"], "identifiers": [{"identifier": "f-vta-s-574", "tags": {"stop_lat": "37.322872341999997", "zone_id": "1", "stop_lon": "-122.002991955", "stop_id": "574", "stop_desc": "", "stop_name": "STEVENS CREEK & STERN"}}], "type": "Feature", "properties": {}}, {"onestopId": "s-9q9hr6rbs4-miller~richwood", "name": "MILLER & RICHWOOD", "tags": {}, "geometry": {"type": "Point", "coordinates": [-122.01432218, 37.322029573]}, "servedBy": ["o-9q9-vta"], "identifiers": [{"identifier": "f-vta-s-882", "tags": {"stop_lat": "37.322029573000002", "zone_id": "1", "stop_lon": "-122.01432217999999", "stop_id": "882", "stop_desc": "", "stop_name": "MILLER & RICHWOOD"}}], "type": "Feature", "properties": {}}, {"onestopId": "s-9q9hrj4yn0-sunnyvalesaratoga~homestead", "name": "SUNNYVALE-SARATOGA & HOMESTEAD", "tags": {}, "geometry": {"type": "Point", "coordinates": [-122.03209308, 37.338066175]}, "servedBy": ["o-9q9-vta"], "identifiers": [{"identifier": "f-vta-s-2317", "tags": {"stop_lat": "37.338066175000002", "zone_id": "1", "stop_lon": "-122.03209308", "stop_id": "2317", "stop_desc": "", "stop_name": "SUNNYVALE-SARATOGA & HOMESTEAD"}}], "type": "Feature", "properties": {}}, {"onestopId": "s-9q9hrxu94u-elcamino~poplar", "name": "EL CAMINO & POPLAR", "tags": {}, "geometry": {"type": "Point", "coordinates": [-122.0078581, 37.35233956]}, "servedBy": ["o-9q9-vta"], "identifiers": [{"identifier": "f-vta-s-479", "tags": {"stop_lat": "37.352339559999997", "zone_id": "1", "stop_lon": "-122.00785810000001", "stop_id": "479", "stop_desc": "", "stop_name": "EL CAMINO & POPLAR"}}], "type": "Feature", "properties": {}}, {"onestopId": "s-9q9hrrxcpc-wolfe~eleanor", "name": "WOLFE & ELEANOR", "tags": {}, "geometry": {"type": "Point", "coordinates": [-122.014168667, 37.35094672]}, "servedBy": ["o-9q9-vta"], "identifiers": [{"identifier": "f-vta-s-1019", "tags": {"stop_lat": "37.350946720000003", "zone_id": "1", "stop_lon": "-122.01416866700001", "stop_id": "1019", "stop_desc": "", "stop_name": "WOLFE & ELEANOR"}}], "type": "Feature", "properties": {}}, {"onestopId": "s-9q9hrsnp22-tantau~pruneridge", "name": "TANTAU & PRUNERIDGE", "tags": {}, "geometry": {"type": "Point", "coordinates": [-122.005906826, 37.332789477]}, "servedBy": ["o-9q9-vta"], "identifiers": [{"identifier": "f-vta-s-4094", "tags": {"stop_lat": "37.332789476999999", "zone_id": "1", "stop_lon": "-122.005906826", "stop_id": "4094", "stop_desc": "", "stop_name": "TANTAU & PRUNERIDGE"}}], "type": "Feature", "properties": {}}, {"onestopId": "s-9q9hr0fxvh-deanza~mcclellan", "name": "DE ANZA & MCCLELLAN", "tags": {}, "geometry": {"type": "Point", "coordinates": [-122.032475801, 37.3150464]}, "servedBy": ["o-9q9-vta"], "identifiers": [{"identifier": "f-vta-s-2299", "tags": {"stop_lat": "37.3150464", "zone_id": "1", "stop_lon": "-122.032475801", "stop_id": "2299", "stop_desc": "", "stop_name": "DE ANZA & MCCLELLAN"}}], "type": "Feature", "properties": {}}, {"onestopId": "s-9q9hr8puug-bollinger~johnson", "name": "BOLLINGER & JOHNSON", "tags": {}, "geometry": {"type": "Point", "coordinates": [-122.003310176, 37.310405549]}, "servedBy": ["o-9q9-vta"], "identifiers": [{"identifier": "f-vta-s-838", "tags": {"stop_lat": "37.310405549000002", "zone_id": "1", "stop_lon": "-122.003310176", "stop_id": "838", "stop_desc": "", "stop_name": "BOLLINGER & JOHNSON"}}], "type": "Feature", "properties": {}}, {"onestopId": "s-9q9hrd8498-wolfe~stevenscreek", "name": "WOLFE & STEVENS CREEK", "tags": {}, "geometry": {"type": "Point", "coordinates": [-122.01409408, 37.32373693]}, "servedBy": ["o-9q9-vta"], "identifiers": [{"identifier": "f-vta-s-1012", "tags": {"stop_lat": "37.323736930000003", "zone_id": "1", "stop_lon": "-122.01409408000001", "stop_id": "1012", "stop_desc": "", "stop_name": "WOLFE & STEVENS CREEK"}}], "type": "Feature", "properties": {}}, {"onestopId": "s-9q9hr20gqh-bollinger~blaney", "name": "BOLLINGER & BLANEY", "tags": {}, "geometry": {"type": "Point", "coordinates": [-122.023856145, 37.310153929]}, "servedBy": ["o-9q9-vta"], "identifiers": [{"identifier": "f-vta-s-842", "tags": {"stop_lat": "37.310153929000002", "zone_id": "1", "stop_lon": "-122.023856145", "stop_id": "842", "stop_desc": "", "stop_name": "BOLLINGER & BLANEY"}}], "type": "Feature", "properties": {}}, {"onestopId": "s-9q9hrujsns-lawrence~pruneridge", "name": "LAWRENCE & PRUNERIDGE", "tags": {}, "geometry": {"type": "Point", "coordinates": [-121.995332519, 37.332251584]}, "servedBy": ["o-9q9-vta"], "identifiers": [{"identifier": "f-vta-s-4594", "tags": {"stop_lat": "37.332251583999998", "zone_id": "1", "stop_lon": "-121.995332519", "stop_id": "4594", "stop_desc": "", "stop_name": "LAWRENCE & PRUNERIDGE"}}], "type": "Feature", "properties": {}}, {"onestopId": "s-9q9hr2j5xc-bollinger~alderbrook", "name": "BOLLINGER & ALDERBROOK", "tags": {}, "geometry": {"type": "Point", "coordinates": [-122.017945603, 37.310177475]}, "servedBy": ["o-9q9-vta"], "identifiers": [{"identifier": "f-vta-s-841", "tags": {"stop_lat": "37.310177475000003", "zone_id": "1", "stop_lon": "-122.017945603", "stop_id": "841", "stop_desc": "", "stop_name": "BOLLINGER & ALDERBROOK"}}], "type": "Feature", "properties": {}}, {"onestopId": "s-9q9hrpffv3-sunnyvalesaratoga~fremont", "name": "SUNNYVALE-SARATOGA & FREMONT", "tags": {}, "geometry": {"type": "Point", "coordinates": [-122.032121512, 37.352621145]}, "servedBy": ["o-9q9-vta"], "identifiers": [{"identifier": "f-vta-s-2321", "tags": {"stop_lat": "37.352621145000001", "zone_id": "1", "stop_lon": "-122.032121512", "stop_id": "2321", "stop_desc": "", "stop_name": "SUNNYVALE-SARATOGA & FREMONT"}}], "type": "Feature", "properties": {}}, {"onestopId": "s-9q9hrqxcsj-wolfe~marion", "name": "WOLFE & MARION", "tags": {}, "geometry": {"type": "Point", "coordinates": [-122.014328632, 37.345561774]}, "servedBy": ["o-9q9-vta"], "identifiers": [{"identifier": "f-vta-s-877", "tags": {"stop_lat": "37.345561773999997", "zone_id": "1", "stop_lon": "-122.014328632", "stop_id": "877", "stop_desc": "", "stop_name": "WOLFE & MARION"}}], "type": "Feature", "properties": {}}, {"onestopId": "s-9q9hr66j01-stevenscreek~blaney", "name": "STEVENS CREEK & BLANEY", "tags": {}, "geometry": {"type": "Point", "coordinates": [-122.022398055, 37.322798613]}, "servedBy": ["o-9q9-vta"], "identifiers": [{"identifier": "f-vta-s-569", "tags": {"stop_lat": "37.322798613000003", "zone_id": "1", "stop_lon": "-122.022398055", "stop_id": "569", "stop_desc": "", "stop_name": "STEVENS CREEK & BLANEY"}}], "type": "Feature", "properties": {}}, {"onestopId": "s-9q9hrpddsh-sunnyvalesaratoga~fremont", "name": "SUNNYVALE-SARATOGA & FREMONT", "tags": {}, "geometry": {"type": "Point", "coordinates": [-122.032526471, 37.351219923]}, "servedBy": ["o-9q9-vta"], "identifiers": [{"identifier": "f-vta-s-2395", "tags": {"stop_lat": "37.351219923000002", "zone_id": "1", "stop_lon": "-122.032526471", "stop_id": "2395", "stop_desc": "", "stop_name": "SUNNYVALE-SARATOGA & FREMONT"}}], "type": "Feature", "properties": {}}, {"onestopId": "s-9q9hrn4vs3-sunnyvalesaratoga~harwick", "name": "SUNNYVALE-SARATOGA & HARWICK", "tags": {}, "geometry": {"type": "Point", "coordinates": [-122.032165956, 37.343480731]}, "servedBy": ["o-9q9-vta"], "identifiers": [{"identifier": "f-vta-s-2319", "tags": {"stop_lat": "37.343480731", "zone_id": "1", "stop_lon": "-122.032165956", "stop_id": "2319", "stop_desc": "", "stop_name": "SUNNYVALE-SARATOGA & HARWICK"}}], "type": "Feature", "properties": {}}, {"onestopId": "s-9q9hrrpc57-wolfe~elizabeth", "name": "WOLFE & ELIZABETH", "tags": {}, "geometry": {"type": "Point", "coordinates": [-122.014354997, 37.348210281]}, "servedBy": ["o-9q9-vta"], "identifiers": [{"identifier": "f-vta-s-876", "tags": {"stop_lat": "37.348210281", "zone_id": "1", "stop_lon": "-122.014354997", "stop_id": "876", "stop_desc": "", "stop_name": "WOLFE & ELIZABETH"}}], "type": "Feature", "properties": {}}, {"onestopId": "s-9q9hr0pr22-bollinger~faralone", "name": "BOLLINGER & FARALONE", "tags": {}, "geometry": {"type": "Point", "coordinates": [-122.02615898, 37.310816921]}, "servedBy": ["o-9q9-vta"], "identifiers": [{"identifier": "f-vta-s-843", "tags": {"stop_lat": "37.310816920999997", "zone_id": "1", "stop_lon": "-122.02615898000001", "stop_id": "843", "stop_desc": "", "stop_name": "BOLLINGER & FARALONE"}}], "type": "Feature", "properties": {}}, {"onestopId": "s-9q9hrfrtf8-stevenscreek~lomalinda", "name": "STEVENS CREEK & LOMA LINDA", "tags": {}, "geometry": {"type": "Point", "coordinates": [-121.992759014, 37.322919047]}, "servedBy": ["o-9q9-vta"], "identifiers": [{"identifier": "f-vta-s-576", "tags": {"stop_lat": "37.322919046999999", "zone_id": "1", "stop_lon": "-121.992759014", "stop_id": "576", "stop_desc": "", "stop_name": "STEVENS CREEK & LOMA LINDA"}}], "type": "Feature", "properties": {}}, {"onestopId": "s-9q9hr47kst-stevenscreek~deanza", "name": "STEVENS CREEK & DE ANZA", "tags": {}, "geometry": {"type": "Point", "coordinates": [-122.031473005, 37.322734168]}, "servedBy": ["o-9q9-vta"], "identifiers": [{"identifier": "f-vta-s-567", "tags": {"stop_lat": "37.322734167999997", "zone_id": "1", "stop_lon": "-122.031473005", "stop_id": "567", "stop_desc": "", "stop_name": "STEVENS CREEK & DE ANZA"}}], "type": "Feature", "properties": {}}, {"onestopId": "s-9q9hr11e6v-mcclellan~felton", "name": "MCCLELLAN & FELTON", "tags": {}, "geometry": {"type": "Point", "coordinates": [-122.033946694, 37.315653046]}, "servedBy": ["o-9q9-vta"], "identifiers": [{"identifier": "f-vta-s-845", "tags": {"stop_lat": "37.315653046000001", "zone_id": "1", "stop_lon": "-122.03394669399999", "stop_id": "845", "stop_desc": "", "stop_name": "MCCLELLAN & FELTON"}}], "type": "Feature", "properties": {}}, {"onestopId": "s-9q9hrdfn52-vallco~perimeter", "name": "VALLCO PARKWAY & PERIMETER", "tags": {}, "geometry": {"type": "Point", "coordinates": [-122.011266, 37.325707]}, "servedBy": ["o-9q9-vta"], "identifiers": [{"identifier": "f-vta-s-1599", "tags": {"stop_lat": "37.325707000000001", "zone_id": "1", "stop_lon": "-122.01126600000001", "stop_id": "1599", "stop_desc": "", "stop_name": "VALLCO PARKWAY & PERIMETER"}}], "type": "Feature", "properties": {}}, {"onestopId": "s-9q9hrvpjjv-homestead~bing", "name": "HOMESTEAD & BING", "tags": {}, "geometry": {"type": "Point", "coordinates": [-121.993306098, 37.337923819]}, "servedBy": ["o-9q9-vta"], "identifiers": [{"identifier": "f-vta-s-4089", "tags": {"stop_lat": "37.337923818999997", "zone_id": "1", "stop_lon": "-121.99330609800001", "stop_id": "4089", "stop_desc": "", "stop_name": "HOMESTEAD & BING"}}], "type": "Feature", "properties": {}}, {"onestopId": "s-9q9hr88xhy-miller~disney", "name": "MILLER & DISNEY", "tags": {}, "geometry": {"type": "Point", "coordinates": [-122.013265631, 37.313553989]}, "servedBy": ["o-9q9-vta"], "identifiers": [{"identifier": "f-vta-s-1008", "tags": {"stop_lat": "37.313553988999999", "zone_id": "1", "stop_lon": "-122.013265631", "stop_id": "1008", "stop_desc": "", "stop_name": "MILLER & DISNEY"}}], "type": "Feature", "properties": {}}, {"onestopId": "s-9q9hrfkjt9-stevenscreek~interstate280", "name": "STEVENS CREEK & INTERSTATE-280", "tags": {}, "geometry": {"type": "Point", "coordinates": [-121.997435776, 37.322880491]}, "servedBy": ["o-9q9-vta"], "identifiers": [{"identifier": "f-vta-s-575", "tags": {"stop_lat": "37.322880490999999", "zone_id": "1", "stop_lon": "-121.997435776", "stop_id": "575", "stop_desc": "", "stop_name": "STEVENS CREEK & INTERSTATE-280"}}], "type": "Feature", "properties": {}}, {"onestopId": "s-9q9hrgv2s9-lawrence~pruneridge", "name": "LAWRENCE & PRUNERIDGE", "tags": {}, "geometry": {"type": "Point", "coordinates": [-121.995762987, 37.330266025]}, "servedBy": ["o-9q9-vta"], "identifiers": [{"identifier": "f-vta-s-4604", "tags": {"stop_lat": "37.330266025", "zone_id": "1", "stop_lon": "-121.99576298700001", "stop_id": "4604", "stop_desc": "", "stop_name": "LAWRENCE & PRUNERIDGE"}}], "type": "Feature", "properties": {}}, {"onestopId": "s-9q9hr5dt5f-deanza~mariani", "name": "DE ANZA & MARIANI", "tags": {}, "geometry": {"type": "Point", "coordinates": [-122.0325295, 37.329669841]}, "servedBy": ["o-9q9-vta"], "identifiers": [{"identifier": "f-vta-s-2400", "tags": {"stop_lat": "37.329669840999998", "zone_id": "1", "stop_lon": "-122.0325295", "stop_id": "2400", "stop_desc": "", "stop_name": "DE ANZA & MARIANI"}}], "type": "Feature", "properties": {}}, {"onestopId": "s-9q9hr63nsd-stevenscreek~blaney", "name": "STEVENS CREEK & BLANEY", "tags": {}, "geometry": {"type": "Point", "coordinates": [-122.023577836, 37.323061343]}, "servedBy": ["o-9q9-vta"], "identifiers": [{"identifier": "f-vta-s-658", "tags": {"stop_lat": "37.323061342999999", "zone_id": "1", "stop_lon": "-122.023577836", "stop_id": "658", "stop_desc": "", "stop_name": "STEVENS CREEK & BLANEY"}}], "type": "Feature", "properties": {}}, {"onestopId": "s-9q9hrxszsc-elcamino~poplar", "name": "EL CAMINO & POPLAR", "tags": {}, "geometry": {"type": "Point", "coordinates": [-122.007422513, 37.352064985]}, "servedBy": ["o-9q9-vta"], "identifiers": [{"identifier": "f-vta-s-371", "tags": {"stop_lat": "37.352064984999998", "zone_id": "1", "stop_lon": "-122.00742251299999", "stop_id": "371", "stop_desc": "", "stop_name": "EL CAMINO & POPLAR"}}], "type": "Feature", "properties": {}}, {"onestopId": "s-9q9hrsy7ym-tantau~forge", "name": "TANTAU & FORGE", "tags": {}, "geometry": {"type": "Point", "coordinates": [-122.005298269, 37.336338365]}, "servedBy": ["o-9q9-vta"], "identifiers": [{"identifier": "f-vta-s-3968", "tags": {"stop_lat": "37.336338365000003", "zone_id": "1", "stop_lon": "-122.00529826899999", "stop_id": "3968", "stop_desc": "", "stop_name": "TANTAU & FORGE"}}], "type": "Feature", "properties": {}}, {"onestopId": "s-9q9hrd0pcg-miller~richwood", "name": "MILLER & RICHWOOD", "tags": {}, "geometry": {"type": "Point", "coordinates": [-122.014080543, 37.321908007]}, "servedBy": ["o-9q9-vta"], "identifiers": [{"identifier": "f-vta-s-1011", "tags": {"stop_lat": "37.321908006999998", "zone_id": "1", "stop_lon": "-122.01408054300001", "stop_id": "1011", "stop_desc": "", "stop_name": "MILLER & RICHWOOD"}}], "type": "Feature", "properties": {}}, {"onestopId": "s-9q9hrvhvh7-homestead~lawrence", "name": "HOMESTEAD & LAWRENCE", "tags": {}, "geometry": {"type": "Point", "coordinates": [-121.996467, 37.337915]}, "servedBy": ["o-9q9-vta"], "identifiers": [{"identifier": "f-vta-s-4090", "tags": {"stop_lat": "37.337915000000002", "zone_id": "1", "stop_lon": "-121.996467", "stop_id": "4090", "stop_desc": "", "stop_name": "HOMESTEAD & LAWRENCE"}}], "type": "Feature", "properties": {}}, {"onestopId": "s-9q9hrv4hus-homestead~calabazascrk", "name": "HOMESTEAD & CALABAZAS CRK", "tags": {}, "geometry": {"type": "Point", "coordinates": [-122.000227254, 37.337876776]}, "servedBy": ["o-9q9-vta"], "identifiers": [{"identifier": "f-vta-s-4091", "tags": {"stop_lat": "37.337876776000002", "zone_id": "1", "stop_lon": "-122.000227254", "stop_id": "4091", "stop_desc": "", "stop_name": "HOMESTEAD & CALABAZAS CRK"}}], "type": "Feature", "properties": {}}, {"onestopId": "s-9q9hrnfdgu-sunnyvalesaratoga~cheyenne", "name": "SUNNYVALE-SARATOGA & CHEYENNE", "tags": {}, "geometry": {"type": "Point", "coordinates": [-122.032529212, 37.347147029]}, "servedBy": ["o-9q9-vta"], "identifiers": [{"identifier": "f-vta-s-2396", "tags": {"stop_lat": "37.347147028999998", "zone_id": "1", "stop_lon": "-122.032529212", "stop_id": "2396", "stop_desc": "", "stop_name": "SUNNYVALE-SARATOGA & CHEYENNE"}}], "type": "Feature", "properties": {}}, {"onestopId": "s-9q9hrmxzg6-wolfe~inverness", "name": "WOLFE & INVERNESS", "tags": {}, "geometry": {"type": "Point", "coordinates": [-122.014356251, 37.341126376]}, "servedBy": ["o-9q9-vta"], "identifiers": [{"identifier": "f-vta-s-878", "tags": {"stop_lat": "37.341126375999998", "zone_id": "1", "stop_lon": "-122.014356251", "stop_id": "878", "stop_desc": "", "stop_name": "WOLFE & INVERNESS"}}], "type": "Feature", "properties": {}}, {"onestopId": "s-9q9hrxb45e-wolfe~elcaminons", "name": "WOLFE & EL CAMINO (NS)", "tags": {}, "geometry": {"type": "Point", "coordinates": [-122.013999915, 37.352503283]}, "servedBy": ["o-9q9-vta"], "identifiers": [{"identifier": "f-vta-s-1020", "tags": {"stop_lat": "37.352503282999997", "zone_id": "1", "stop_lon": "-122.013999915", "stop_id": "1020", "stop_desc": "", "stop_name": "WOLFE & EL CAMINO (NS)"}}], "type": "Feature", "properties": {}}, {"onestopId": "s-9q9hrbn0p5-moorpark~lawrence", "name": "MOORPARK & LAWRENCE", "tags": {}, "geometry": {"type": "Point", "coordinates": [-121.994627572, 37.309588264]}, "servedBy": ["o-9q9-vta"], "identifiers": [{"identifier": "f-vta-s-836", "tags": {"stop_lat": "37.309588263999999", "zone_id": "1", "stop_lon": "-121.994627572", "stop_id": "836", "stop_desc": "", "stop_name": "MOORPARK & LAWRENCE"}}], "type": "Feature", "properties": {}}, {"onestopId": "s-9q9hrzg9uy-elcamino~lawrence", "name": "EL CAMINO & LAWRENCE", "tags": {}, "geometry": {"type": "Point", "coordinates": [-121.9981625, 37.35247555]}, "servedBy": ["o-9q9-vta"], "identifiers": [{"identifier": "f-vta-s-477", "tags": {"stop_lat": "37.352475550000001", "zone_id": "1", "stop_lon": "-121.99816250000001", "stop_id": "477", "stop_desc": "", "stop_name": "EL CAMINO & LAWRENCE"}}], "type": "Feature", "properties": {}}, {"onestopId": "s-9q9hr11fb3-mcclellan~felton", "name": "MCCLELLAN & FELTON", "tags": {}, "geometry": {"type": "Point", "coordinates": [-122.033716286, 37.315546035]}, "servedBy": ["o-9q9-vta"], "identifiers": [{"identifier": "f-vta-s-700", "tags": {"stop_lat": "37.315546034999997", "zone_id": "1", "stop_lon": "-122.033716286", "stop_id": "700", "stop_desc": "", "stop_name": "MCCLELLAN & FELTON"}}], "type": "Feature", "properties": {}}, {"onestopId": "s-9q9hrvmd7e-lawrence~homestead", "name": "LAWRENCE & HOMESTEAD", "tags": {}, "geometry": {"type": "Point", "coordinates": [-121.995459986, 37.33881658]}, "servedBy": ["o-9q9-vta"], "identifiers": [{"identifier": "f-vta-s-4595", "tags": {"stop_lat": "37.33881658", "zone_id": "1", "stop_lon": "-121.995459986", "stop_id": "4595", "stop_desc": "", "stop_name": "LAWRENCE & HOMESTEAD"}}], "type": "Feature", "properties": {}}, {"onestopId": "s-9q9hrs8h39-wolfe~pruneridge", "name": "WOLFE & PRUNERIDGE", "tags": {}, "geometry": {"type": "Point", "coordinates": [-122.014093958, 37.335024488]}, "servedBy": ["o-9q9-vta"], "identifiers": [{"identifier": "f-vta-s-1014", "tags": {"stop_lat": "37.335024488000002", "zone_id": "1", "stop_lon": "-122.014093958", "stop_id": "1014", "stop_desc": "", "stop_name": "WOLFE & PRUNERIDGE"}}], "type": "Feature", "properties": {}}, {"onestopId": "s-9q9hrw2p2s-wolfe~marion", "name": "WOLFE & MARION", "tags": {}, "geometry": {"type": "Point", "coordinates": [-122.014133423, 37.345171827]}, "servedBy": ["o-9q9-vta"], "identifiers": [{"identifier": "f-vta-s-1017", "tags": {"stop_lat": "37.345171827000001", "zone_id": "1", "stop_lon": "-122.014133423", "stop_id": "1017", "stop_desc": "", "stop_name": "WOLFE & MARION"}}], "type": "Feature", "properties": {}}, {"onestopId": "s-9q9hrpb8w6-fremont~sydney", "name": "FREMONT & SYDNEY", "tags": {}, "geometry": {"type": "Point", "coordinates": [-122.035172944, 37.35224257]}, "servedBy": ["o-9q9-vta"], "identifiers": [{"identifier": "f-vta-s-2322", "tags": {"stop_lat": "37.352242570000001", "zone_id": "1", "stop_lon": "-122.035172944", "stop_id": "2322", "stop_desc": "", "stop_name": "FREMONT & SYDNEY"}}], "type": "Feature", "properties": {}}]}