{"prefix": "9q9k4", "type": "FeatureCollection", "properties": {}, "features": [{"onestopId": "s-9q9k4f2dnt-oldhillsdale~pearlfs", "name": "OLD HILLSDALE & PEARL (FS)", "tags": {}, "geometry": {"type": "Point", "coordinates": [-121.870368956, 37.278357231]}, "servedBy": ["o-9q9-vta"], "identifiers": [{"identifier": "f-vta-s-1708", "tags": {"stop_lat": "37.278357231000001", "zone_id": "1", "stop_lon": "-121.87036895599999", "stop_id": "1708", "stop_desc": "", "stop_name": "OLD HILLSDALE & PEARL (FS)"}}], "type": "Feature", "properties": {}}, {"onestopId": "s-9q9k4zpbhd-tully~monterey", "name": "TULLY & MONTEREY", "tags": {}, "geometry": {"type": "Point", "coordinates": [-121.860493551, 37.304092007]}, "servedBy": ["o-9q9-vta"], "identifiers": [{"identifier": "f-vta-s-954", "tags": {"stop_lat": "37.304092007000001", "zone_id": "1", "stop_lon": "-121.860493551", "stop_id": "954", "stop_desc": "", "stop_name": "TULLY & MONTEREY"}}], "type": "Feature", "properties": {}}, {"onestopId": "s-9q9k431se4-hillsdale~overbrook", "name": "HILLSDALE & OVERBROOK", "tags": {}, "geometry": {"type": "Point", "coordinates": [-121.891111986, 37.27190464]}, "servedBy": ["o-9q9-vta"], "identifiers": [{"identifier": "f-vta-s-1700", "tags": {"stop_lat": "37.271904640000002", "zone_id": "1", "stop_lon": "-121.891111986", "stop_id": "1700", "stop_desc": "", "stop_name": "HILLSDALE & OVERBROOK"}}], "type": "Feature", "properties": {}}, {"onestopId": "s-9q9k4fm9d5-narvaez~shadowcreek", "name": "NARVAEZ & SHADOW CREEK", "tags": {}, "geometry": {"type": "Point", "coordinates": [-121.86369877999999, 37.278262911]}, "servedBy": ["o-9q9-vta"], "identifiers": [{"identifier": "f-vta-s-1720", "tags": {"stop_lat": "37.278262910999999", "zone_id": "1", "stop_lon": "-121.86369877999999", "stop_id": "1720", "stop_desc": "", "stop_name": "NARVAEZ & SHADOW CREEK"}}], "type": "Feature", "properties": {}}, {"onestopId": "s-9q9k4rujnh-alma~minnesota", "name": "ALMA & MINNESOTA", "tags": {}, "geometry": {"type": "Point", "coordinates": [-121.88754951, 37.309078338]}, "servedBy": ["o-9q9-vta"], "identifiers": [{"identifier": "f-vta-s-4172", "tags": {"stop_lat": "37.309078337999999", "zone_id": "1", "stop_lon": "-121.88754951", "stop_id": "4172", "stop_desc": "", "stop_name": "ALMA & MINNESOTA"}}], "type": "Feature", "properties": {}}, {"onestopId": "s-9q9k4nvqmf-minnesota~lincoln", "name": "MINNESOTA & LINCOLN", "tags": {}, "geometry": {"type": "Point", "coordinates": [-121.896839885, 37.303791697]}, "servedBy": ["o-9q9-vta"], "identifiers": [{"identifier": "f-vta-s-4122", "tags": {"stop_lat": "37.303791697000001", "zone_id": "1", "stop_lon": "-121.89683988500001", "stop_id": "4122", "stop_desc": "", "stop_name": "MINNESOTA & LINCOLN"}}], "type": "Feature", "properties": {}}, {"onestopId": "s-9q9k4zndb7-monterey~curtner", "name": "MONTEREY & CURTNER", "tags": {}, "geometry": {"type": "Point", "coordinates": [-121.8623933, 37.30457043]}, "servedBy": ["o-9q9-vta"], "identifiers": [{"identifier": "f-vta-s-3279", "tags": {"stop_lat": "37.304570429999998", "zone_id": "1", "stop_lon": "-121.86239329999999", "stop_id": "3279", "stop_desc": "", "stop_name": "MONTEREY & CURTNER"}}], "type": "Feature", "properties": {}}, {"onestopId": "s-9q9k4m434h-lincoln~malone", "name": "LINCOLN & MALONE", "tags": {}, "geometry": {"type": "Point", "coordinates": [-121.8901291, 37.29328618]}, "servedBy": ["o-9q9-vta"], "identifiers": [{"identifier": "f-vta-s-3089", "tags": {"stop_lat": "37.293286180000003", "zone_id": "1", "stop_lon": "-121.8901291", "stop_id": "3089", "stop_desc": "", "stop_name": "LINCOLN & MALONE"}}], "type": "Feature", "properties": {}}, {"onestopId": "s-9q9k4p7m7n-lincoln~meridith", "name": "LINCOLN & MERIDITH", "tags": {}, "geometry": {"type": "Point", "coordinates": [-121.899698178, 37.306388055]}, "servedBy": ["o-9q9-vta"], "identifiers": [{"identifier": "f-vta-s-3083", "tags": {"stop_lat": "37.306388054999999", "zone_id": "1", "stop_lon": "-121.89969817799999", "stop_id": "3083", "stop_desc": "", "stop_name": "LINCOLN & MERIDITH"}}], "type": "Feature", "properties": {}}, {"onestopId": "s-9q9k4f2g3k-oldhillsdale~dow", "name": "OLD HILLSDALE & DOW DR", "tags": {}, "geometry": {"type": "Point", "coordinates": [-121.870249004, 37.2785659]}, "servedBy": ["o-9q9-vta"], "identifiers": [{"identifier": "f-vta-s-1722", "tags": {"stop_lat": "37.278565899999997", "zone_id": "1", "stop_lon": "-121.870249004", "stop_id": "1722", "stop_desc": "", "stop_name": "OLD HILLSDALE & DOW DR"}}], "type": "Feature", "properties": {}}, {"onestopId": "s-9q9k4k7ysk-lincoln~curtner", "name": "LINCOLN & CURTNER", "tags": {}, "geometry": {"type": "Point", "coordinates": [-121.887970079, 37.290110184]}, "servedBy": ["o-9q9-vta"], "identifiers": [{"identifier": "f-vta-s-3091", "tags": {"stop_lat": "37.290110184", "zone_id": "1", "stop_lon": "-121.887970079", "stop_id": "3091", "stop_desc": "", "stop_name": "LINCOLN & CURTNER"}}], "type": "Feature", "properties": {}}, {"onestopId": "s-9q9k4j1n95-pine~cherry", "name": "PINE & CHERRY", "tags": {}, "geometry": {"type": "Point", "coordinates": [-121.902871747, 37.29422532]}, "servedBy": ["o-9q9-vta"], "identifiers": [{"identifier": "f-vta-s-4116", "tags": {"stop_lat": "37.294225320000002", "zone_id": "1", "stop_lon": "-121.90287174700001", "stop_id": "4116", "stop_desc": "", "stop_name": "PINE & CHERRY"}}], "type": "Feature", "properties": {}}, {"onestopId": "s-9q9k4kk74x-lincoln~curtner", "name": "LINCOLN & CURTNER", "tags": {}, "geometry": {"type": "Point", "coordinates": [-121.887362192, 37.289527319]}, "servedBy": ["o-9q9-vta"], "identifiers": [{"identifier": "f-vta-s-3004", "tags": {"stop_lat": "37.289527319000001", "zone_id": "1", "stop_lon": "-121.887362192", "stop_id": "3004", "stop_desc": "", "stop_name": "LINCOLN & CURTNER"}}], "type": "Feature", "properties": {}}, {"onestopId": "s-9q9k45spp5-curtner~cherry", "name": "CURTNER & CHERRY", "tags": {}, "geometry": {"type": "Point", "coordinates": [-121.898501777, 37.286070565]}, "servedBy": ["o-9q9-vta"], "identifiers": [{"identifier": "f-vta-s-965", "tags": {"stop_lat": "37.286070565000003", "zone_id": "1", "stop_lon": "-121.89850177700001", "stop_id": "965", "stop_desc": "", "stop_name": "CURTNER & CHERRY"}}], "type": "Feature", "properties": {}}, {"onestopId": "s-9q9k4k4nfg-curtner~richland", "name": "CURTNER & RICHLAND", "tags": {}, "geometry": {"type": "Point", "coordinates": [-121.890436485, 37.288775932]}, "servedBy": ["o-9q9-vta"], "identifiers": [{"identifier": "f-vta-s-930", "tags": {"stop_lat": "37.288775932", "zone_id": "1", "stop_lon": "-121.890436485", "stop_id": "930", "stop_desc": "", "stop_name": "CURTNER & RICHLAND"}}], "type": "Feature", "properties": {}}, {"onestopId": "s-9q9k4khx27-lincoln~pascoe", "name": "LINCOLN & PASCOE", "tags": {}, "geometry": {"type": "Point", "coordinates": [-121.887116305, 37.288862319]}, "servedBy": ["o-9q9-vta"], "identifiers": [{"identifier": "f-vta-s-3092", "tags": {"stop_lat": "37.288862319000003", "zone_id": "1", "stop_lon": "-121.88711630500001", "stop_id": "3092", "stop_desc": "", "stop_name": "LINCOLN & PASCOE"}}], "type": "Feature", "properties": {}}, {"onestopId": "s-9q9k4pf72n-lincoln~willow", "name": "LINCOLN & WILLOW", "tags": {}, "geometry": {"type": "Point", "coordinates": [-121.90119706, 37.308789026]}, "servedBy": ["o-9q9-vta"], "identifiers": [{"identifier": "f-vta-s-3015", "tags": {"stop_lat": "37.308789025999999", "zone_id": "1", "stop_lon": "-121.90119706", "stop_id": "3015", "stop_desc": "", "stop_name": "LINCOLN & WILLOW"}}], "type": "Feature", "properties": {}}, {"onestopId": "s-9q9k4kwu0t-curtner~celestine", "name": "CURTNER & CELESTINE", "tags": {}, "geometry": {"type": "Point", "coordinates": [-121.884010822, 37.291061375]}, "servedBy": ["o-9q9-vta"], "identifiers": [{"identifier": "f-vta-s-932", "tags": {"stop_lat": "37.291061374999998", "zone_id": "1", "stop_lon": "-121.88401082199999", "stop_id": "932", "stop_desc": "", "stop_name": "CURTNER & CELESTINE"}}], "type": "Feature", "properties": {}}, {"onestopId": "s-9q9k4rvneu-alma~belmont", "name": "ALMA & BELMONT", "tags": {}, "geometry": {"type": "Point", "coordinates": [-121.886279576, 37.309334324]}, "servedBy": ["o-9q9-vta"], "identifiers": [{"identifier": "f-vta-s-4171", "tags": {"stop_lat": "37.309334323999998", "zone_id": "1", "stop_lon": "-121.88627957600001", "stop_id": "4171", "stop_desc": "", "stop_name": "ALMA & BELMONT"}}], "type": "Feature", "properties": {}}, {"onestopId": "s-9q9k4m45xy-lincoln~malone", "name": "LINCOLN & MALONE", "tags": {}, "geometry": {"type": "Point", "coordinates": [-121.890228595, 37.293725559]}, "servedBy": ["o-9q9-vta"], "identifiers": [{"identifier": "f-vta-s-3007", "tags": {"stop_lat": "37.293725559000002", "zone_id": "1", "stop_lon": "-121.890228595", "stop_id": "3007", "stop_desc": "", "stop_name": "LINCOLN & MALONE"}}], "type": "Feature", "properties": {}}, {"onestopId": "s-9q9k4k74g0-curtner~lincoln", "name": "CURTNER & LINCOLN", "tags": {}, "geometry": {"type": "Point", "coordinates": [-121.889052422, 37.289446548]}, "servedBy": ["o-9q9-vta"], "identifiers": [{"identifier": "f-vta-s-962", "tags": {"stop_lat": "37.289446548000001", "zone_id": "1", "stop_lon": "-121.88905242200001", "stop_id": "962", "stop_desc": "", "stop_name": "CURTNER & LINCOLN"}}], "type": "Feature", "properties": {}}, {"onestopId": "s-9q9k4pdrvr-lincoln~willow", "name": "LINCOLN & WILLOW", "tags": {}, "geometry": {"type": "Point", "coordinates": [-121.900981589, 37.308194544]}, "servedBy": ["o-9q9-vta"], "identifiers": [{"identifier": "f-vta-s-3082", "tags": {"stop_lat": "37.308194544000003", "zone_id": "1", "stop_lon": "-121.900981589", "stop_id": "3082", "stop_desc": "", "stop_name": "LINCOLN & WILLOW"}}], "type": "Feature", "properties": {}}, {"onestopId": "s-9q9k4yzyzf-tully~monterey", "name": "TULLY & MONTEREY", "tags": {}, "geometry": {"type": "Point", "coordinates": [-121.860360762, 37.303875442]}, "servedBy": ["o-9q9-vta"], "identifiers": [{"identifier": "f-vta-s-940", "tags": {"stop_lat": "37.303875441999999", "zone_id": "1", "stop_lon": "-121.860360762", "stop_id": "940", "stop_desc": "", "stop_name": "TULLY & MONTEREY"}}], "type": "Feature", "properties": {}}, {"onestopId": "s-9q9k4nr7b8-lincoln~willowglen", "name": "LINCOLN & WILLOW GLEN", "tags": {}, "geometry": {"type": "Point", "coordinates": [-121.894315324, 37.300603259]}, "servedBy": ["o-9q9-vta"], "identifiers": [{"identifier": "f-vta-s-3086", "tags": {"stop_lat": "37.300603258999999", "zone_id": "1", "stop_lon": "-121.894315324", "stop_id": "3086", "stop_desc": "", "stop_name": "LINCOLN & WILLOW GLEN"}}], "type": "Feature", "properties": {}}, {"onestopId": "s-9q9k4pe0y3-lincoln~meridith", "name": "LINCOLN & MERIDITH", "tags": {}, "geometry": {"type": "Point", "coordinates": [-121.899902419, 37.306960435]}, "servedBy": ["o-9q9-vta"], "identifiers": [{"identifier": "f-vta-s-3014", "tags": {"stop_lat": "37.306960435000001", "zone_id": "1", "stop_lon": "-121.899902419", "stop_id": "3014", "stop_desc": "", "stop_name": "LINCOLN & MERIDITH"}}], "type": "Feature", "properties": {}}, {"onestopId": "s-9q9k4r91sh-minnesota~bird", "name": "MINNESOTA & BIRD", "tags": {}, "geometry": {"type": "Point", "coordinates": [-121.891759934, 37.307107712]}, "servedBy": ["o-9q9-vta"], "identifiers": [{"identifier": "f-vta-s-4174", "tags": {"stop_lat": "37.307107711999997", "zone_id": "1", "stop_lon": "-121.89175993400001", "stop_id": "4174", "stop_desc": "", "stop_name": "MINNESOTA & BIRD"}}], "type": "Feature", "properties": {}}, {"onestopId": "s-9q9k4d1svx-almaden~foxworthy", "name": "ALMADEN & FOXWORTHY", "tags": {}, "geometry": {"type": "Point", "coordinates": [-121.880024146, 37.27746797]}, "servedBy": ["o-9q9-vta"], "identifiers": [{"identifier": "f-vta-s-3094", "tags": {"stop_lat": "37.277467969999996", "zone_id": "1", "stop_lon": "-121.880024146", "stop_id": "3094", "stop_desc": "", "stop_name": "ALMADEN & FOXWORTHY"}}], "type": "Feature", "properties": {}}, {"onestopId": "s-9q9k4dnpbd-foxworthy~rubino", "name": "FOXWORTHY & RUBINO", "tags": {}, "geometry": {"type": "Point", "coordinates": [-121.874059685, 37.277956616]}, "servedBy": ["o-9q9-vta"], "identifiers": [{"identifier": "f-vta-s-1707", "tags": {"stop_lat": "37.277956615999997", "zone_id": "1", "stop_lon": "-121.87405968500001", "stop_id": "1707", "stop_desc": "", "stop_name": "FOXWORTHY & RUBINO"}}], "type": "Feature", "properties": {}}, {"onestopId": "s-9q9k4pf0ft-willow~lincoln", "name": "WILLOW & LINCOLN", "tags": {}, "geometry": {"type": "Point", "coordinates": [-121.901440634, 37.308357149]}, "servedBy": ["o-9q9-vta"], "identifiers": [{"identifier": "f-vta-s-804", "tags": {"stop_lat": "37.308357149000003", "zone_id": "1", "stop_lon": "-121.901440634", "stop_id": "804", "stop_desc": "", "stop_name": "WILLOW & LINCOLN"}}], "type": "Feature", "properties": {}}, {"onestopId": "s-9q9k4nuucs-minnesota~lincoln", "name": "MINNESOTA & LINCOLN", "tags": {}, "geometry": {"type": "Point", "coordinates": [-121.89770396, 37.303540933]}, "servedBy": ["o-9q9-vta"], "identifiers": [{"identifier": "f-vta-s-4177", "tags": {"stop_lat": "37.303540933000001", "zone_id": "1", "stop_lon": "-121.89770396", "stop_id": "4177", "stop_desc": "", "stop_name": "MINNESOTA & LINCOLN"}}], "type": "Feature", "properties": {}}, {"onestopId": "s-9q9k4zgt54-monterey~stauffer", "name": "MONTEREY & STAUFFER", "tags": {}, "geometry": {"type": "Point", "coordinates": [-121.866397887, 37.309066254]}, "servedBy": ["o-9q9-vta"], "identifiers": [{"identifier": "f-vta-s-5255", "tags": {"stop_lat": "37.309066254000001", "zone_id": "1", "stop_lon": "-121.86639788700001", "stop_id": "5255", "stop_desc": "", "stop_name": "MONTEREY & STAUFFER"}}], "type": "Feature", "properties": {}}, {"onestopId": "s-9q9k4ysb9z-curtner~theplant", "name": "CURTNER @ THE PLANT", "tags": {}, "geometry": {"type": "Point", "coordinates": [-121.86473041, 37.30145528]}, "servedBy": ["o-9q9-vta"], "identifiers": [{"identifier": "f-vta-s-955", "tags": {"stop_lat": "37.301455279999999", "zone_id": "1", "stop_lon": "-121.86473041000001", "stop_id": "955", "stop_desc": "", "stop_name": "CURTNER @ THE PLANT"}}], "type": "Feature", "properties": {}}, {"onestopId": "s-9q9k4dm2q5-foxworthy~rubino", "name": "FOXWORTHY & RUBINO", "tags": {}, "geometry": {"type": "Point", "coordinates": [-121.874853974, 37.278047147]}, "servedBy": ["o-9q9-vta"], "identifiers": [{"identifier": "f-vta-s-1723", "tags": {"stop_lat": "37.278047147000002", "zone_id": "1", "stop_lon": "-121.874853974", "stop_id": "1723", "stop_desc": "", "stop_name": "FOXWORTHY & RUBINO"}}], "type": "Feature", "properties": {}}, {"onestopId": "s-9q9k4neq5h-minnesota~glenpine", "name": "MINNESOTA & GLENPINE", "tags": {}, "geometry": {"type": "Point", "coordinates": [-121.89970351, 37.302386668]}, "servedBy": ["o-9q9-vta"], "identifiers": [{"identifier": "f-vta-s-4121", "tags": {"stop_lat": "37.302386667999997", "zone_id": "1", "stop_lon": "-121.89970350999999", "stop_id": "4121", "stop_desc": "", "stop_name": "MINNESOTA & GLENPINE"}}], "type": "Feature", "properties": {}}, {"onestopId": "s-9q9k4y4ykf-curtner~littleorchard", "name": "CURTNER & LITTLE ORCHARD", "tags": {}, "geometry": {"type": "Point", "coordinates": [-121.867348305, 37.299671865]}, "servedBy": ["o-9q9-vta"], "identifiers": [{"identifier": "f-vta-s-956", "tags": {"stop_lat": "37.299671865000001", "zone_id": "1", "stop_lon": "-121.86734830499999", "stop_id": "956", "stop_desc": "", "stop_name": "CURTNER & LITTLE ORCHARD"}}], "type": "Feature", "properties": {}}, {"onestopId": "s-9q9k496gg9-almaden~chard", "name": "ALMADEN & CHARD", "tags": {}, "geometry": {"type": "Point", "coordinates": [-121.878387323, 37.273144848]}, "servedBy": ["o-9q9-vta"], "identifiers": [{"identifier": "f-vta-s-3001", "tags": {"stop_lat": "37.273144848000001", "zone_id": "1", "stop_lon": "-121.878387323", "stop_id": "3001", "stop_desc": "", "stop_name": "ALMADEN & CHARD"}}], "type": "Feature", "properties": {}}, {"onestopId": "s-9q9k43mjkp-hillsdale~vistamont", "name": "HILLSDALE & VISTAMONT", "tags": {}, "geometry": {"type": "Point", "coordinates": [-121.886269123, 37.273433691]}, "servedBy": ["o-9q9-vta"], "identifiers": [{"identifier": "f-vta-s-5033", "tags": {"stop_lat": "37.273433691000001", "zone_id": "1", "stop_lon": "-121.88626912300001", "stop_id": "5033", "stop_desc": "", "stop_name": "HILLSDALE & VISTAMONT"}}], "type": "Feature", "properties": {}}, {"onestopId": "s-9q9k40znd4-hillsdale~jarvis", "name": "HILLSDALE & JARVIS", "tags": {}, "geometry": {"type": "Point", "coordinates": [-121.894590354, 37.27087203]}, "servedBy": ["o-9q9-vta"], "identifiers": [{"identifier": "f-vta-s-1699", "tags": {"stop_lat": "37.27087203", "zone_id": "1", "stop_lon": "-121.894590354", "stop_id": "1699", "stop_desc": "", "stop_name": "HILLSDALE & JARVIS"}}], "type": "Feature", "properties": {}}, {"onestopId": "s-9q9k47vquq-lincoln~mayette", "name": "LINCOLN & MAYETTE", "tags": {}, "geometry": {"type": "Point", "coordinates": [-121.885914192, 37.287418099]}, "servedBy": ["o-9q9-vta"], "identifiers": [{"identifier": "f-vta-s-3003", "tags": {"stop_lat": "37.287418099", "zone_id": "1", "stop_lon": "-121.885914192", "stop_id": "3003", "stop_desc": "", "stop_name": "LINCOLN & MAYETTE"}}], "type": "Feature", "properties": {}}, {"onestopId": "s-9q9k4kg0r3-lincoln~lincoln", "name": "LINCOLN & LINCOLN", "tags": {}, "geometry": {"type": "Point", "coordinates": [-121.888878066, 37.291767479]}, "servedBy": ["o-9q9-vta"], "identifiers": [{"identifier": "f-vta-s-3005", "tags": {"stop_lat": "37.291767479000001", "zone_id": "1", "stop_lon": "-121.888878066", "stop_id": "3005", "stop_desc": "", "stop_name": "LINCOLN & LINCOLN"}}], "type": "Feature", "properties": {}}, {"onestopId": "s-9q9k4hut6q-drycreek~cottle", "name": "DRY CREEK & COTTLE", "tags": {}, "geometry": {"type": "Point", "coordinates": [-121.898015, 37.292654]}, "servedBy": ["o-9q9-vta"], "identifiers": [{"identifier": "f-vta-s-5723", "tags": {"stop_lat": "37.292653999999999", "zone_id": "1", "stop_lon": "-121.898015", "stop_id": "5723", "stop_desc": "", "stop_name": "DRY CREEK & COTTLE"}}], "type": "Feature", "properties": {}}, {"onestopId": "s-9q9k4y43uu-curtner~stone", "name": "CURTNER & STONE", "tags": {}, "geometry": {"type": "Point", "coordinates": [-121.868042, 37.29891]}, "servedBy": ["o-9q9-vta"], "identifiers": [{"identifier": "f-vta-s-937", "tags": {"stop_lat": "37.298909999999999", "zone_id": "1", "stop_lon": "-121.868042", "stop_id": "937", "stop_desc": "", "stop_name": "CURTNER & STONE"}}], "type": "Feature", "properties": {}}, {"onestopId": "s-9q9k4nde17-minnesota~newport", "name": "MINNESOTA & NEWPORT", "tags": {}, "geometry": {"type": "Point", "coordinates": [-121.900799678, 37.301862327]}, "servedBy": ["o-9q9-vta"], "identifiers": [{"identifier": "f-vta-s-4120", "tags": {"stop_lat": "37.301862327000002", "zone_id": "1", "stop_lon": "-121.900799678", "stop_id": "4120", "stop_desc": "", "stop_name": "MINNESOTA & NEWPORT"}}], "type": "Feature", "properties": {}}, {"onestopId": "s-9q9k4pnste-minnesota~settle", "name": "MINNESOTA & SETTLE", "tags": {}, "geometry": {"type": "Point", "coordinates": [-121.895125915, 37.304870111]}, "servedBy": ["o-9q9-vta"], "identifiers": [{"identifier": "f-vta-s-4123", "tags": {"stop_lat": "37.304870111", "zone_id": "1", "stop_lon": "-121.89512591499999", "stop_id": "4123", "stop_desc": "", "stop_name": "MINNESOTA & SETTLE"}}], "type": "Feature", "properties": {}}, {"onestopId": "s-9q9k4yz9v0-monterey~curnterfs", "name": "MONTEREY & CURNTER (FS)", "tags": {}, "geometry": {"type": "Point", "coordinates": [-121.86081587, 37.3030055]}, "servedBy": ["o-9q9-vta"], "identifiers": [{"identifier": "f-vta-s-5649", "tags": {"stop_lat": "37.303005499999998", "zone_id": "1", "stop_lon": "-121.86081587", "stop_id": "5649", "stop_desc": "", "stop_name": "MONTEREY & CURNTER (FS)"}}], "type": "Feature", "properties": {}}, {"onestopId": "s-9q9k4m3jnj-lincoln~clark", "name": "LINCOLN & CLARK", "tags": {}, "geometry": {"type": "Point", "coordinates": [-121.89167944, 37.295352444]}, "servedBy": ["o-9q9-vta"], "identifiers": [{"identifier": "f-vta-s-3088", "tags": {"stop_lat": "37.295352444000002", "zone_id": "1", "stop_lon": "-121.89167944", "stop_id": "3088", "stop_desc": "", "stop_name": "LINCOLN & CLARK"}}], "type": "Feature", "properties": {}}, {"onestopId": "s-9q9k4prdhy-minnesota~curtiss", "name": "MINNESOTA & CURTISS", "tags": {}, "geometry": {"type": "Point", "coordinates": [-121.893787013, 37.305830494]}, "servedBy": ["o-9q9-vta"], "identifiers": [{"identifier": "f-vta-s-4175", "tags": {"stop_lat": "37.305830493999999", "zone_id": "1", "stop_lon": "-121.89378701299999", "stop_id": "4175", "stop_desc": "", "stop_name": "MINNESOTA & CURTISS"}}], "type": "Feature", "properties": {}}, {"onestopId": "s-9q9k4phjcp-lincoln~brace", "name": "LINCOLN & BRACE", "tags": {}, "geometry": {"type": "Point", "coordinates": [-121.898754947, 37.305103987]}, "servedBy": ["o-9q9-vta"], "identifiers": [{"identifier": "f-vta-s-3084", "tags": {"stop_lat": "37.305103987000003", "zone_id": "1", "stop_lon": "-121.898754947", "stop_id": "3084", "stop_desc": "", "stop_name": "LINCOLN & BRACE"}}], "type": "Feature", "properties": {}}, {"onestopId": "s-9q9k4r25ev-minnesota~curtiss", "name": "MINNESOTA & CURTISS", "tags": {}, "geometry": {"type": "Point", "coordinates": [-121.893145137, 37.306080283]}, "servedBy": ["o-9q9-vta"], "identifiers": [{"identifier": "f-vta-s-4124", "tags": {"stop_lat": "37.306080283", "zone_id": "1", "stop_lon": "-121.893145137", "stop_id": "4124", "stop_desc": "", "stop_name": "MINNESOTA & CURTISS"}}], "type": "Feature", "properties": {}}, {"onestopId": "s-9q9k4m3nrd-lincoln~byerley", "name": "LINCOLN & BYERLEY", "tags": {}, "geometry": {"type": "Point", "coordinates": [-121.891612451, 37.29555206]}, "servedBy": ["o-9q9-vta"], "identifiers": [{"identifier": "f-vta-s-3008", "tags": {"stop_lat": "37.295552059999999", "zone_id": "1", "stop_lon": "-121.891612451", "stop_id": "3008", "stop_desc": "", "stop_name": "LINCOLN & BYERLEY"}}], "type": "Feature", "properties": {}}, {"onestopId": "s-9q9k47v7zk-lincoln~mayette", "name": "LINCOLN & MAYETTE", "tags": {}, "geometry": {"type": "Point", "coordinates": [-121.885785191, 37.286893265]}, "servedBy": ["o-9q9-vta"], "identifiers": [{"identifier": "f-vta-s-3093", "tags": {"stop_lat": "37.286893265000003", "zone_id": "1", "stop_lon": "-121.885785191", "stop_id": "3093", "stop_desc": "", "stop_name": "LINCOLN & MAYETTE"}}], "type": "Feature", "properties": {}}, {"onestopId": "s-9q9k4y7c0d-curtner~littleorchard", "name": "CURTNER & LITTLE ORCHARD", "tags": {}, "geometry": {"type": "Point", "coordinates": [-121.86615996, 37.300144936]}, "servedBy": ["o-9q9-vta"], "identifiers": [{"identifier": "f-vta-s-938", "tags": {"stop_lat": "37.300144936000002", "zone_id": "1", "stop_lon": "-121.86615996", "stop_id": "938", "stop_desc": "", "stop_name": "CURTNER & LITTLE ORCHARD"}}], "type": "Feature", "properties": {}}, {"onestopId": "s-9q9k40ek98-hillsdale~sanclemente", "name": "HILLSDALE & SAN CLEMENTE", "tags": {}, "geometry": {"type": "Point", "coordinates": [-121.899762153, 37.269147411]}, "servedBy": ["o-9q9-vta"], "identifiers": [{"identifier": "f-vta-s-1698", "tags": {"stop_lat": "37.269147410999999", "zone_id": "1", "stop_lon": "-121.899762153", "stop_id": "1698", "stop_desc": "", "stop_name": "HILLSDALE & SAN CLEMENTE"}}], "type": "Feature", "properties": {}}, {"onestopId": "s-9q9k4r9ez2-minnesota~bird", "name": "MINNESOTA & BIRD", "tags": {}, "geometry": {"type": "Point", "coordinates": [-121.890932544, 37.307472575]}, "servedBy": ["o-9q9-vta"], "identifiers": [{"identifier": "f-vta-s-4125", "tags": {"stop_lat": "37.307472574999998", "zone_id": "1", "stop_lon": "-121.89093254399999", "stop_id": "4125", "stop_desc": "", "stop_name": "MINNESOTA & BIRD"}}], "type": "Feature", "properties": {}}, {"onestopId": "s-9q9k4sf5pm-curtner~almaden", "name": "CURTNER & ALMADEN", "tags": {}, "geometry": {"type": "Point", "coordinates": [-121.879263522, 37.292264455]}, "servedBy": ["o-9q9-vta"], "identifiers": [{"identifier": "f-vta-s-934", "tags": {"stop_lat": "37.292264455000002", "zone_id": "1", "stop_lon": "-121.879263522", "stop_id": "934", "stop_desc": "", "stop_name": "CURTNER & ALMADEN"}}], "type": "Feature", "properties": {}}, {"onestopId": "s-9q9k4fm83b-narvaez~shadowcreek", "name": "NARVAEZ & SHADOW CREEK", "tags": {}, "geometry": {"type": "Point", "coordinates": [-121.8637008, 37.278030343]}, "servedBy": ["o-9q9-vta"], "identifiers": [{"identifier": "f-vta-s-1710", "tags": {"stop_lat": "37.278030342999998", "zone_id": "1", "stop_lon": "-121.8637008", "stop_id": "1710", "stop_desc": "", "stop_name": "NARVAEZ & SHADOW CREEK"}}], "type": "Feature", "properties": {}}, {"onestopId": "s-9q9k4kkmw3-curtner~lincoln", "name": "CURTNER & LINCOLN", "tags": {}, "geometry": {"type": "Point", "coordinates": [-121.887204046, 37.289923312]}, "servedBy": ["o-9q9-vta"], "identifiers": [{"identifier": "f-vta-s-931", "tags": {"stop_lat": "37.289923311999999", "zone_id": "1", "stop_lon": "-121.88720404599999", "stop_id": "931", "stop_desc": "", "stop_name": "CURTNER & LINCOLN"}}], "type": "Feature", "properties": {}}, {"onestopId": "s-9q9k40ytct-hillsdale~jarvis", "name": "HILLSDALE & JARVIS", "tags": {}, "geometry": {"type": "Point", "coordinates": [-121.895302068, 37.270763725]}, "servedBy": ["o-9q9-vta"], "identifiers": [{"identifier": "f-vta-s-1729", "tags": {"stop_lat": "37.270763725000002", "zone_id": "1", "stop_lon": "-121.89530206800001", "stop_id": "1729", "stop_desc": "", "stop_name": "HILLSDALE & JARVIS"}}], "type": "Feature", "properties": {}}, {"onestopId": "s-9q9k4j0tcq-pine~cherry", "name": "PINE & CHERRY", "tags": {}, "geometry": {"type": "Point", "coordinates": [-121.903547231, 37.294114843]}, "servedBy": ["o-9q9-vta"], "identifiers": [{"identifier": "f-vta-s-4183", "tags": {"stop_lat": "37.294114843000003", "zone_id": "1", "stop_lon": "-121.903547231", "stop_id": "4183", "stop_desc": "", "stop_name": "PINE & CHERRY"}}], "type": "Feature", "properties": {}}, {"onestopId": "s-9q9k4rffx4-minnesota~hervey", "name": "MINNESOTA & HERVEY", "tags": {}, "geometry": {"type": "Point", "coordinates": [-121.889227433, 37.30864054]}, "servedBy": ["o-9q9-vta"], "identifiers": [{"identifier": "f-vta-s-4173", "tags": {"stop_lat": "37.308640539999999", "zone_id": "1", "stop_lon": "-121.889227433", "stop_id": "4173", "stop_desc": "", "stop_name": "MINNESOTA & HERVEY"}}], "type": "Feature", "properties": {}}, {"onestopId": "s-9q9k4nve23-lincoln~minnesota", "name": "LINCOLN & MINNESOTA", "tags": {}, "geometry": {"type": "Point", "coordinates": [-121.896723545, 37.30326997]}, "servedBy": ["o-9q9-vta"], "identifiers": [{"identifier": "f-vta-s-3012", "tags": {"stop_lat": "37.303269970000002", "zone_id": "1", "stop_lon": "-121.896723545", "stop_id": "3012", "stop_desc": "", "stop_name": "LINCOLN & MINNESOTA"}}], "type": "Feature", "properties": {}}, {"onestopId": "s-9q9k45v31w-curtner~shibley", "name": "CURTNER & SHIBLEY", "tags": {}, "geometry": {"type": "Point", "coordinates": [-121.897018217, 37.286429359]}, "servedBy": ["o-9q9-vta"], "identifiers": [{"identifier": "f-vta-s-928", "tags": {"stop_lat": "37.286429359000003", "zone_id": "1", "stop_lon": "-121.897018217", "stop_id": "928", "stop_desc": "", "stop_name": "CURTNER & SHIBLEY"}}], "type": "Feature", "properties": {}}, {"onestopId": "s-9q9k45df16-curtner~plummer", "name": "CURTNER & PLUMMER", "tags": {}, "geometry": {"type": "Point", "coordinates": [-121.90046451, 37.285207842]}, "servedBy": ["o-9q9-vta"], "identifiers": [{"identifier": "f-vta-s-927", "tags": {"stop_lat": "37.285207841999998", "zone_id": "1", "stop_lon": "-121.90046451000001", "stop_id": "927", "stop_desc": "", "stop_name": "CURTNER & PLUMMER"}}], "type": "Feature", "properties": {}}, {"onestopId": "s-9q9k4sz454-curtnerlightrailstation", "name": "CURTNER LIGHT RAIL STATION", "tags": {}, "geometry": {"type": "Point", "coordinates": [-121.872581333, 37.292075173]}, "servedBy": ["o-9q9-vta"], "identifiers": [{"identifier": "f-vta-s-936", "tags": {"stop_lat": "37.292075173000001", "zone_id": "1", "stop_lon": "-121.872581333", "stop_id": "936", "stop_desc": "", "stop_name": "CURTNER LIGHT RAIL STATION"}}], "type": "Feature", "properties": {}}, {"onestopId": "s-9q9k4nd2th-newport~minnesota", "name": "NEWPORT & MINNESOTA", "tags": {}, "geometry": {"type": "Point", "coordinates": [-121.900991505, 37.301439303]}, "servedBy": ["o-9q9-vta"], "identifiers": [{"identifier": "f-vta-s-4179", "tags": {"stop_lat": "37.301439303000002", "zone_id": "1", "stop_lon": "-121.90099150499999", "stop_id": "4179", "stop_desc": "", "stop_name": "NEWPORT & MINNESOTA"}}], "type": "Feature", "properties": {}}, {"onestopId": "s-9q9k4nrk7x-lincoln~willowglen", "name": "LINCOLN & WILLOW GLEN", "tags": {}, "geometry": {"type": "Point", "coordinates": [-121.894183441, 37.30072862]}, "servedBy": ["o-9q9-vta"], "identifiers": [{"identifier": "f-vta-s-3010", "tags": {"stop_lat": "37.300728620000001", "zone_id": "1", "stop_lon": "-121.894183441", "stop_id": "3010", "stop_desc": "", "stop_name": "LINCOLN & WILLOW GLEN"}}], "type": "Feature", "properties": {}}, {"onestopId": "s-9q9k4svngj-curtner~canoasgarden", "name": "CURTNER & CANOAS GARDEN", "tags": {}, "geometry": {"type": "Point", "coordinates": [-121.875318714, 37.292907234]}, "servedBy": ["o-9q9-vta"], "identifiers": [{"identifier": "f-vta-s-959", "tags": {"stop_lat": "37.292907233999998", "zone_id": "1", "stop_lon": "-121.875318714", "stop_id": "959", "stop_desc": "", "stop_name": "CURTNER & CANOAS GARDEN"}}], "type": "Feature", "properties": {}}, {"onestopId": "s-9q9k43685q-hillsdale~cherry", "name": "HILLSDALE & CHERRY", "tags": {}, "geometry": {"type": "Point", "coordinates": [-121.889728268, 37.272525818]}, "servedBy": ["o-9q9-vta"], "identifiers": [{"identifier": "f-vta-s-1728", "tags": {"stop_lat": "37.272525817999998", "zone_id": "1", "stop_lon": "-121.889728268", "stop_id": "1728", "stop_desc": "", "stop_name": "HILLSDALE & CHERRY"}}], "type": "Feature", "properties": {}}, {"onestopId": "s-9q9k43mt5b-hillsdale~vistamont", "name": "HILLSDALE & VISTAMONT", "tags": {}, "geometry": {"type": "Point", "coordinates": [-121.885589455, 37.273350312]}, "servedBy": ["o-9q9-vta"], "identifiers": [{"identifier": "f-vta-s-5565", "tags": {"stop_lat": "37.273350311999998", "zone_id": "1", "stop_lon": "-121.885589455", "stop_id": "5565", "stop_desc": "", "stop_name": "HILLSDALE & VISTAMONT"}}], "type": "Feature", "properties": {}}, {"onestopId": "s-9q9k4p8d96-willow~crescent", "name": "WILLOW & CRESCENT", "tags": {}, "geometry": {"type": "Point", "coordinates": [-121.903552687, 37.307264538]}, "servedBy": ["o-9q9-vta"], "identifiers": [{"identifier": "f-vta-s-743", "tags": {"stop_lat": "37.307264537999998", "zone_id": "1", "stop_lon": "-121.903552687", "stop_id": "743", "stop_desc": "", "stop_name": "WILLOW & CRESCENT"}}], "type": "Feature", "properties": {}}, {"onestopId": "s-9q9k4q00bn-lincoln~pine", "name": "LINCOLN & PINE", "tags": {}, "geometry": {"type": "Point", "coordinates": [-121.893302164, 37.298748993]}, "servedBy": ["o-9q9-vta"], "identifiers": [{"identifier": "f-vta-s-3009", "tags": {"stop_lat": "37.298748992999997", "zone_id": "1", "stop_lon": "-121.893302164", "stop_id": "3009", "stop_desc": "", "stop_name": "LINCOLN & PINE"}}], "type": "Feature", "properties": {}}, {"onestopId": "s-9q9k4hp2hu-curtner~cottle", "name": "CURTNER & COTTLE", "tags": {}, "geometry": {"type": "Point", "coordinates": [-121.894127386, 37.287621795]}, "servedBy": ["o-9q9-vta"], "identifiers": [{"identifier": "f-vta-s-964", "tags": {"stop_lat": "37.287621795", "zone_id": "1", "stop_lon": "-121.89412738599999", "stop_id": "964", "stop_desc": "", "stop_name": "CURTNER & COTTLE"}}], "type": "Feature", "properties": {}}, {"onestopId": "s-9q9k4jszjq-newport~pine", "name": "NEWPORT & PINE", "tags": {}, "geometry": {"type": "Point", "coordinates": [-121.897538817, 37.297073042]}, "servedBy": ["o-9q9-vta"], "identifiers": [{"identifier": "f-vta-s-4118", "tags": {"stop_lat": "37.297073042000001", "zone_id": "1", "stop_lon": "-121.897538817", "stop_id": "4118", "stop_desc": "", "stop_name": "NEWPORT & PINE"}}], "type": "Feature", "properties": {}}, {"onestopId": "s-9q9k4rggzv-alma~minnesota", "name": "ALMA & MINNESOTA", "tags": {}, "geometry": {"type": "Point", "coordinates": [-121.88782617, 37.308872878]}, "servedBy": ["o-9q9-vta"], "identifiers": [{"identifier": "f-vta-s-4126", "tags": {"stop_lat": "37.308872878000003", "zone_id": "1", "stop_lon": "-121.88782617", "stop_id": "4126", "stop_desc": "", "stop_name": "ALMA & MINNESOTA"}}], "type": "Feature", "properties": {}}, {"onestopId": "s-9q9k4sc4d3-curtner~coastland", "name": "CURTNER & COASTLAND", "tags": {}, "geometry": {"type": "Point", "coordinates": [-121.880843766, 37.292153726]}, "servedBy": ["o-9q9-vta"], "identifiers": [{"identifier": "f-vta-s-933", "tags": {"stop_lat": "37.292153726000002", "zone_id": "1", "stop_lon": "-121.880843766", "stop_id": "933", "stop_desc": "", "stop_name": "CURTNER & COASTLAND"}}], "type": "Feature", "properties": {}}, {"onestopId": "s-9q9k4kem9j-lincoln~lincoln", "name": "LINCOLN & LINCOLN", "tags": {}, "geometry": {"type": "Point", "coordinates": [-121.888796532, 37.291319792]}, "servedBy": ["o-9q9-vta"], "identifiers": [{"identifier": "f-vta-s-3090", "tags": {"stop_lat": "37.291319792000003", "zone_id": "1", "stop_lon": "-121.888796532", "stop_id": "3090", "stop_desc": "", "stop_name": "LINCOLN & LINCOLN"}}], "type": "Feature", "properties": {}}, {"onestopId": "s-9q9k4feb79-oldhillsdale~pearlmd", "name": "OLD HILLSDALE & PEARL (MD)", "tags": {}, "geometry": {"type": "Point", "coordinates": [-121.866034094, 37.27940672]}, "servedBy": ["o-9q9-vta"], "identifiers": [{"identifier": "f-vta-s-1709", "tags": {"stop_lat": "37.279406719999997", "zone_id": "1", "stop_lon": "-121.866034094", "stop_id": "1709", "stop_desc": "", "stop_name": "OLD HILLSDALE & PEARL (MD)"}}], "type": "Feature", "properties": {}}, {"onestopId": "s-9q9k4pfd5e-willow~lincoln", "name": "WILLOW & LINCOLN", "tags": {}, "geometry": {"type": "Point", "coordinates": [-121.900707001, 37.308561016]}, "servedBy": ["o-9q9-vta"], "identifiers": [{"identifier": "f-vta-s-744", "tags": {"stop_lat": "37.308561015999999", "zone_id": "1", "stop_lon": "-121.900707001", "stop_id": "744", "stop_desc": "", "stop_name": "WILLOW & LINCOLN"}}], "type": "Feature", "properties": {}}, {"onestopId": "s-9q9k486x95-almaden~bryan", "name": "ALMADEN & BRYAN", "tags": {}, "geometry": {"type": "Point", "coordinates": [-121.878838116, 37.268305659]}, "servedBy": ["o-9q9-vta"], "identifiers": [{"identifier": "f-vta-s-3096", "tags": {"stop_lat": "37.268305658999999", "zone_id": "1", "stop_lon": "-121.878838116", "stop_id": "3096", "stop_desc": "", "stop_name": "ALMADEN & BRYAN"}}], "type": "Feature", "properties": {}}, {"onestopId": "s-9q9k4zmqsp-monterey~sprrxng", "name": "MONTEREY & SPRR XNG", "tags": {}, "geometry": {"type": "Point", "coordinates": [-121.863955676, 37.3066078]}, "servedBy": ["o-9q9-vta"], "identifiers": [{"identifier": "f-vta-s-3203", "tags": {"stop_lat": "37.306607800000002", "zone_id": "1", "stop_lon": "-121.863955676", "stop_id": "3203", "stop_desc": "", "stop_name": "MONTEREY & SPRR XNG"}}], "type": "Feature", "properties": {}}, {"onestopId": "s-9q9k4pnkqu-minnesota~settle", "name": "MINNESOTA & SETTLE", "tags": {}, "geometry": {"type": "Point", "coordinates": [-121.895418468, 37.304829124]}, "servedBy": ["o-9q9-vta"], "identifiers": [{"identifier": "f-vta-s-4176", "tags": {"stop_lat": "37.304829124000001", "zone_id": "1", "stop_lon": "-121.895418468", "stop_id": "4176", "stop_desc": "", "stop_name": "MINNESOTA & SETTLE"}}], "type": "Feature", "properties": {}}, {"onestopId": "s-9q9k4rvw28-alma~guadaluperiver", "name": "ALMA & GUADALUPE RIVER", "tags": {}, "geometry": {"type": "Point", "coordinates": [-121.885728572, 37.309272928]}, "servedBy": ["o-9q9-vta"], "identifiers": [{"identifier": "f-vta-s-4127", "tags": {"stop_lat": "37.309272927999999", "zone_id": "1", "stop_lon": "-121.885728572", "stop_id": "4127", "stop_desc": "", "stop_name": "ALMA & GUADALUPE RIVER"}}], "type": "Feature", "properties": {}}, {"onestopId": "s-9q9k4zgd7w-monterey~staufferins", "name": "MONTEREY & STAUFFER (INS)", "tags": {}, "geometry": {"type": "Point", "coordinates": [-121.866377445, 37.308616642]}, "servedBy": ["o-9q9-vta"], "identifiers": [{"identifier": "f-vta-s-3277", "tags": {"stop_lat": "37.308616641999997", "zone_id": "1", "stop_lon": "-121.866377445", "stop_id": "3277", "stop_desc": "", "stop_name": "MONTEREY & STAUFFER (INS)"}}], "type": "Feature", "properties": {}}, {"onestopId": "s-9q9k4nv6pz-lincoln~minnesota", "name": "LINCOLN & MINNESOTA", "tags": {}, "geometry": {"type": "Point", "coordinates": [-121.89675103, 37.303087301]}, "servedBy": ["o-9q9-vta"], "identifiers": [{"identifier": "f-vta-s-3085", "tags": {"stop_lat": "37.303087300999998", "zone_id": "1", "stop_lon": "-121.89675103", "stop_id": "3085", "stop_desc": "", "stop_name": "LINCOLN & MINNESOTA"}}], "type": "Feature", "properties": {}}, {"onestopId": "s-9q9k4n5shu-newport~nevada", "name": "NEWPORT & NEVADA", "tags": {}, "geometry": {"type": "Point", "coordinates": [-121.899282583, 37.299297349]}, "servedBy": ["o-9q9-vta"], "identifiers": [{"identifier": "f-vta-s-4119", "tags": {"stop_lat": "37.299297349", "zone_id": "1", "stop_lon": "-121.899282583", "stop_id": "4119", "stop_desc": "", "stop_name": "NEWPORT & NEVADA"}}], "type": "Feature", "properties": {}}, {"onestopId": "s-9q9k40ejsh-hillsdale~sanclemente", "name": "HILLSDALE & SAN CLEMENTE", "tags": {}, "geometry": {"type": "Point", "coordinates": [-121.900000807, 37.269340682]}, "servedBy": ["o-9q9-vta"], "identifiers": [{"identifier": "f-vta-s-1730", "tags": {"stop_lat": "37.269340681999999", "zone_id": "1", "stop_lon": "-121.900000807", "stop_id": "1730", "stop_desc": "", "stop_name": "HILLSDALE & SAN CLEMENTE"}}], "type": "Feature", "properties": {}}, {"onestopId": "s-9q9k4fe89z-oldhillsdale~summercreek", "name": "OLD HILLSDALE & SUMMERCREEK", "tags": {}, "geometry": {"type": "Point", "coordinates": [-121.866448513, 37.279484028]}, "servedBy": ["o-9q9-vta"], "identifiers": [{"identifier": "f-vta-s-1721", "tags": {"stop_lat": "37.279484027999999", "zone_id": "1", "stop_lon": "-121.86644851299999", "stop_id": "1721", "stop_desc": "", "stop_name": "OLD HILLSDALE & SUMMERCREEK"}}], "type": "Feature", "properties": {}}, {"onestopId": "s-9q9k4mbjb0-lincoln~pine", "name": "LINCOLN & PINE", "tags": {}, "geometry": {"type": "Point", "coordinates": [-121.893304456, 37.298201397]}, "servedBy": ["o-9q9-vta"], "identifiers": [{"identifier": "f-vta-s-3087", "tags": {"stop_lat": "37.298201397", "zone_id": "1", "stop_lon": "-121.893304456", "stop_id": "3087", "stop_desc": "", "stop_name": "LINCOLN & PINE"}}], "type": "Feature", "properties": {}}, {"onestopId": "s-9q9k4cvbk4-capitolstation0", "name": "CAPITOL STATION (0)", "tags": {}, "geometry": {"type": "Point", "coordinates": [-121.863268615, 37.275293045]}, "servedBy": ["o-9q9-vta"], "identifiers": [{"identifier": "f-vta-s-4741", "tags": {"stop_lat": "37.275293044999998", "zone_id": "1", "stop_lon": "-121.863268615", "stop_id": "4741", "stop_desc": "", "stop_name": "CAPITOL STATION (0)"}}], "type": "Feature", "properties": {}}, {"onestopId": "s-9q9k4htupy-cottle~malone", "name": "COTTLE & MALONE", "tags": {}, "geometry": {"type": "Point", "coordinates": [-121.896060182, 37.291065363]}, "servedBy": ["o-9q9-vta"], "identifiers": [{"identifier": "f-vta-s-4117", "tags": {"stop_lat": "37.291065363000001", "zone_id": "1", "stop_lon": "-121.896060182", "stop_id": "4117", "stop_desc": "", "stop_name": "COTTLE & MALONE"}}], "type": "Feature", "properties": {}}, {"onestopId": "s-9q9k4d4h3k-almaden~foxworthy", "name": "ALMADEN & FOXWORTHY", "tags": {}, "geometry": {"type": "Point", "coordinates": [-121.879519346, 37.277363068]}, "servedBy": ["o-9q9-vta"], "identifiers": [{"identifier": "f-vta-s-3002", "tags": {"stop_lat": "37.277363068", "zone_id": "1", "stop_lon": "-121.879519346", "stop_id": "3002", "stop_desc": "", "stop_name": "ALMADEN & FOXWORTHY"}}], "type": "Feature", "properties": {}}, {"onestopId": "s-9q9k4cx1bq-capitollightrailstation", "name": "CAPITOL LIGHT RAIL STATION", "tags": {}, "geometry": {"type": "Point", "coordinates": [-121.861704476, 37.274197889]}, "servedBy": ["o-9q9-vta"], "identifiers": [{"identifier": "f-vta-s-3325", "tags": {"stop_lat": "37.274197889", "zone_id": "1", "stop_lon": "-121.861704476", "stop_id": "3325", "stop_desc": "", "stop_name": "CAPITOL LIGHT RAIL STATION"}}], "type": "Feature", "properties": {}}, {"onestopId": "s-9q9k45d6py-curtner~cheryl", "name": "CURTNER & CHERYL", "tags": {}, "geometry": {"type": "Point", "coordinates": [-121.900874134, 37.285228607]}, "servedBy": ["o-9q9-vta"], "identifiers": [{"identifier": "f-vta-s-966", "tags": {"stop_lat": "37.285228607000001", "zone_id": "1", "stop_lon": "-121.90087413400001", "stop_id": "966", "stop_desc": "", "stop_name": "CURTNER & CHERYL"}}], "type": "Feature", "properties": {}}, {"onestopId": "s-9q9k4zmndq-monterey~rrxing", "name": "MONTEREY & RR-XING", "tags": {}, "geometry": {"type": "Point", "coordinates": [-121.864369669, 37.306601301]}, "servedBy": ["o-9q9-vta"], "identifiers": [{"identifier": "f-vta-s-3278", "tags": {"stop_lat": "37.306601301000001", "zone_id": "1", "stop_lon": "-121.864369669", "stop_id": "3278", "stop_desc": "", "stop_name": "MONTEREY & RR-XING"}}], "type": "Feature", "properties": {}}, {"onestopId": "s-9q9k4yt078-curtner~theplantop", "name": "CURTNER @ THE PLANT (OP)", "tags": {}, "geometry": {"type": "Point", "coordinates": [-121.864319291, 37.301373852]}, "servedBy": ["o-9q9-vta"], "identifiers": [{"identifier": "f-vta-s-939", "tags": {"stop_lat": "37.301373851999998", "zone_id": "1", "stop_lon": "-121.864319291", "stop_id": "939", "stop_desc": "", "stop_name": "CURTNER @ THE PLANT (OP)"}}], "type": "Feature", "properties": {}}, {"onestopId": "s-9q9k4phns3-lincoln~brace", "name": "LINCOLN & BRACE", "tags": {}, "geometry": {"type": "Point", "coordinates": [-121.898616017, 37.305200592]}, "servedBy": ["o-9q9-vta"], "identifiers": [{"identifier": "f-vta-s-3013", "tags": {"stop_lat": "37.305200591999998", "zone_id": "1", "stop_lon": "-121.89861601699999", "stop_id": "3013", "stop_desc": "", "stop_name": "LINCOLN & BRACE"}}], "type": "Feature", "properties": {}}, {"onestopId": "s-9q9k4cw05n-capitolstation1", "name": "CAPITOL STATION (1)", "tags": {}, "geometry": {"type": "Point", "coordinates": [-121.862963786, 37.27390098]}, "servedBy": ["o-9q9-vta"], "identifiers": [{"identifier": "f-vta-s-4780", "tags": {"stop_lat": "37.273900980000001", "zone_id": "1", "stop_lon": "-121.86296378599999", "stop_id": "4780", "stop_desc": "", "stop_name": "CAPITOL STATION (1)"}}], "type": "Feature", "properties": {}}, {"onestopId": "s-9q9k4nerkz-minnesota~glenpine", "name": "MINNESOTA & GLENPINE", "tags": {}, "geometry": {"type": "Point", "coordinates": [-121.899624352, 37.302617287]}, "servedBy": ["o-9q9-vta"], "identifiers": [{"identifier": "f-vta-s-4178", "tags": {"stop_lat": "37.302617286999997", "zone_id": "1", "stop_lon": "-121.899624352", "stop_id": "4178", "stop_desc": "", "stop_name": "MINNESOTA & GLENPINE"}}], "type": "Feature", "properties": {}}, {"onestopId": "s-9q9k4sfhku-curtner~almaden", "name": "CURTNER & ALMADEN", "tags": {}, "geometry": {"type": "Point", "coordinates": [-121.879370026, 37.292470655]}, "servedBy": ["o-9q9-vta"], "identifiers": [{"identifier": "f-vta-s-960", "tags": {"stop_lat": "37.292470655000002", "zone_id": "1", "stop_lon": "-121.879370026", "stop_id": "960", "stop_desc": "", "stop_name": "CURTNER & ALMADEN"}}], "type": "Feature", "properties": {}}, {"onestopId": "s-9q9k4zp0n9-monterey~tully", "name": "MONTEREY & TULLY", "tags": {}, "geometry": {"type": "Point", "coordinates": [-121.861435931, 37.304084642]}, "servedBy": ["o-9q9-vta"], "identifiers": [{"identifier": "f-vta-s-3202", "tags": {"stop_lat": "37.304084641999999", "zone_id": "1", "stop_lon": "-121.861435931", "stop_id": "3202", "stop_desc": "", "stop_name": "MONTEREY & TULLY"}}], "type": "Feature", "properties": {}}, {"onestopId": "s-9q9k4372xd-hillsdale~cherry", "name": "HILLSDALE & CHERRY", "tags": {}, "geometry": {"type": "Point", "coordinates": [-121.888514948, 37.272593295]}, "servedBy": ["o-9q9-vta"], "identifiers": [{"identifier": "f-vta-s-5564", "tags": {"stop_lat": "37.272593295", "zone_id": "1", "stop_lon": "-121.88851494799999", "stop_id": "5564", "stop_desc": "", "stop_name": "HILLSDALE & CHERRY"}}], "type": "Feature", "properties": {}}, {"onestopId": "s-9q9k4969fz-almaden~newberry", "name": "ALMADEN & NEWBERRY", "tags": {}, "geometry": {"type": "Point", "coordinates": [-121.878769814, 37.272829976]}, "servedBy": ["o-9q9-vta"], "identifiers": [{"identifier": "f-vta-s-3095", "tags": {"stop_lat": "37.272829975999997", "zone_id": "1", "stop_lon": "-121.87876981399999", "stop_id": "3095", "stop_desc": "", "stop_name": "ALMADEN & NEWBERRY"}}], "type": "Feature", "properties": {}}, {"onestopId": "s-9q9k4suvj0-curtner~canoasgarden", "name": "CURTNER & CANOAS GARDEN", "tags": {}, "geometry": {"type": "Point", "coordinates": [-121.875580067, 37.292579217]}, "servedBy": ["o-9q9-vta"], "identifiers": [{"identifier": "f-vta-s-935", "tags": {"stop_lat": "37.292579216999997", "zone_id": "1", "stop_lon": "-121.875580067", "stop_id": "935", "stop_desc": "", "stop_name": "CURTNER & CANOAS GARDEN"}}], "type": "Feature", "properties": {}}, {"onestopId": "s-9q9k4szr8x-curtnerstation1", "name": "CURTNER STATION (1)", "tags": {}, "geometry": {"type": "Point", "coordinates": [-121.872342901, 37.293043673]}, "servedBy": ["o-9q9-vta"], "identifiers": [{"identifier": "f-vta-s-4779", "tags": {"stop_lat": "37.293043673", "zone_id": "1", "stop_lon": "-121.872342901", "stop_id": "4779", "stop_desc": "", "stop_name": "CURTNER STATION (1)"}}], "type": "Feature", "properties": {}}, {"onestopId": "s-9q9k45275u-curtner~booksin", "name": "CURTNER & BOOKSIN", "tags": {}, "geometry": {"type": "Point", "coordinates": [-121.903790613, 37.284015653]}, "servedBy": ["o-9q9-vta"], "identifiers": [{"identifier": "f-vta-s-926", "tags": {"stop_lat": "37.284015652999997", "zone_id": "1", "stop_lon": "-121.903790613", "stop_id": "926", "stop_desc": "", "stop_name": "CURTNER & BOOKSIN"}}], "type": "Feature", "properties": {}}, {"onestopId": "s-9q9k43xd8b-hillsdale~gardendale", "name": "HILLSDALE & GARDENDALE", "tags": {}, "geometry": {"type": "Point", "coordinates": [-121.882973918, 37.274295082]}, "servedBy": ["o-9q9-vta"], "identifiers": [{"identifier": "f-vta-s-5032", "tags": {"stop_lat": "37.274295082000002", "zone_id": "1", "stop_lon": "-121.882973918", "stop_id": "5032", "stop_desc": "", "stop_name": "HILLSDALE & GARDENDALE"}}], "type": "Feature", "properties": {}}, {"onestopId": "s-9q9k4k1zqy-curtner~newport", "name": "CURTNER & NEWPORT", "tags": {}, "geometry": {"type": "Point", "coordinates": [-121.890616714, 37.288874853]}, "servedBy": ["o-9q9-vta"], "identifiers": [{"identifier": "f-vta-s-963", "tags": {"stop_lat": "37.288874853000003", "zone_id": "1", "stop_lon": "-121.890616714", "stop_id": "963", "stop_desc": "", "stop_name": "CURTNER & NEWPORT"}}], "type": "Feature", "properties": {}}, {"onestopId": "s-9q9k4n5c5n-newport~glenwood", "name": "NEWPORT & GLENWOOD", "tags": {}, "geometry": {"type": "Point", "coordinates": [-121.899012772, 37.298791909]}, "servedBy": ["o-9q9-vta"], "identifiers": [{"identifier": "f-vta-s-4180", "tags": {"stop_lat": "37.298791909000002", "zone_id": "1", "stop_lon": "-121.89901277200001", "stop_id": "4180", "stop_desc": "", "stop_name": "NEWPORT & GLENWOOD"}}], "type": "Feature", "properties": {}}, {"onestopId": "s-9q9k4cwf52-capitollightrailstation", "name": "CAPITOL LIGHT RAIL STATION", "tags": {}, "geometry": {"type": "Point", "coordinates": [-121.861924607, 37.274210801]}, "servedBy": ["o-9q9-vta"], "identifiers": [{"identifier": "f-vta-s-1711", "tags": {"stop_lat": "37.274210801000002", "zone_id": "1", "stop_lon": "-121.86192460700001", "stop_id": "1711", "stop_desc": "", "stop_name": "CAPITOL LIGHT RAIL STATION"}}], "type": "Feature", "properties": {}}, {"onestopId": "s-9q9k498e1s-hillsdale~cheshire", "name": "HILLSDALE & CHESHIRE", "tags": {}, "geometry": {"type": "Point", "coordinates": [-121.881565375, 37.274406178]}, "servedBy": ["o-9q9-vta"], "identifiers": [{"identifier": "f-vta-s-5574", "tags": {"stop_lat": "37.274406178", "zone_id": "1", "stop_lon": "-121.88156537499999", "stop_id": "5574", "stop_desc": "", "stop_name": "HILLSDALE & CHESHIRE"}}], "type": "Feature", "properties": {}}, {"onestopId": "s-9q9k4d63m4-foxworthy~oldalmaden", "name": "FOXWORTHY & OLD ALMADEN", "tags": {}, "geometry": {"type": "Point", "coordinates": [-121.879014857, 37.278211962]}, "servedBy": ["o-9q9-vta"], "identifiers": [{"identifier": "f-vta-s-1706", "tags": {"stop_lat": "37.278211962", "zone_id": "1", "stop_lon": "-121.879014857", "stop_id": "1706", "stop_desc": "", "stop_name": "FOXWORTHY & OLD ALMADEN"}}], "type": "Feature", "properties": {}}, {"onestopId": "s-9q9k4kwsdj-curtner~celestine", "name": "CURTNER & CELESTINE", "tags": {}, "geometry": {"type": "Point", "coordinates": [-121.88429161, 37.29114376]}, "servedBy": ["o-9q9-vta"], "identifiers": [{"identifier": "f-vta-s-961", "tags": {"stop_lat": "37.291143759999997", "zone_id": "1", "stop_lon": "-121.88429161000001", "stop_id": "961", "stop_desc": "", "stop_name": "CURTNER & CELESTINE"}}], "type": "Feature", "properties": {}}, {"onestopId": "s-9q9k4nwq18-lincoln~california", "name": "LINCOLN & CALIFORNIA", "tags": {}, "geometry": {"type": "Point", "coordinates": [-121.895649371, 37.302364868]}, "servedBy": ["o-9q9-vta"], "identifiers": [{"identifier": "f-vta-s-3011", "tags": {"stop_lat": "37.302364867999998", "zone_id": "1", "stop_lon": "-121.895649371", "stop_id": "3011", "stop_desc": "", "stop_name": "LINCOLN & CALIFORNIA"}}], "type": "Feature", "properties": {}}, {"onestopId": "s-9q9k45zxgf-curtner~cottle", "name": "CURTNER & COTTLE", "tags": {}, "geometry": {"type": "Point", "coordinates": [-121.893828523, 37.287570237]}, "servedBy": ["o-9q9-vta"], "identifiers": [{"identifier": "f-vta-s-929", "tags": {"stop_lat": "37.287570236999997", "zone_id": "1", "stop_lon": "-121.893828523", "stop_id": "929", "stop_desc": "", "stop_name": "CURTNER & COTTLE"}}], "type": "Feature", "properties": {}}, {"onestopId": "s-9q9k4sz0ug-curtnerlightrailstation", "name": "CURTNER LIGHT RAIL STATION", "tags": {}, "geometry": {"type": "Point", "coordinates": [-121.872497837, 37.291866733]}, "servedBy": ["o-9q9-vta"], "identifiers": [{"identifier": "f-vta-s-958", "tags": {"stop_lat": "37.291866732999999", "zone_id": "1", "stop_lon": "-121.872497837", "stop_id": "958", "stop_desc": "", "stop_name": "CURTNER LIGHT RAIL STATION"}}], "type": "Feature", "properties": {}}, {"onestopId": "s-9q9k402jwr-hillsdale~meridian", "name": "HILLSDALE & MERIDIAN", "tags": {}, "geometry": {"type": "Point", "coordinates": [-121.904025308, 37.267984991]}, "servedBy": ["o-9q9-vta"], "identifiers": [{"identifier": "f-vta-s-1697", "tags": {"stop_lat": "37.267984990999999", "zone_id": "1", "stop_lon": "-121.904025308", "stop_id": "1697", "stop_desc": "", "stop_name": "HILLSDALE & MERIDIAN"}}], "type": "Feature", "properties": {}}, {"onestopId": "s-9q9k4jsyjz-newport~pine", "name": "NEWPORT & PINE", "tags": {}, "geometry": {"type": "Point", "coordinates": [-121.897517067, 37.296908406]}, "servedBy": ["o-9q9-vta"], "identifiers": [{"identifier": "f-vta-s-4181", "tags": {"stop_lat": "37.296908406", "zone_id": "1", "stop_lon": "-121.897517067", "stop_id": "4181", "stop_desc": "", "stop_name": "NEWPORT & PINE"}}], "type": "Feature", "properties": {}}, {"onestopId": "s-9q9k4tp5f5-curtnerstation0", "name": "CURTNER STATION (0)", "tags": {}, "geometry": {"type": "Point", "coordinates": [-121.872621797, 37.29375248]}, "servedBy": ["o-9q9-vta"], "identifiers": [{"identifier": "f-vta-s-4742", "tags": {"stop_lat": "37.293752480000002", "zone_id": "1", "stop_lon": "-121.87262179699999", "stop_id": "4742", "stop_desc": "", "stop_name": "CURTNER STATION (0)"}}], "type": "Feature", "properties": {}}]}