{"prefix": "9q9ke", "type": "FeatureCollection", "properties": {}, "features": [{"onestopId": "s-9q9kedr5rb-white~alumrock", "name": "WHITE & ALUM ROCK", "tags": {}, "geometry": {"type": "Point", "coordinates": [-121.828424176, 37.366435528]}, "servedBy": ["o-9q9-vta"], "identifiers": [{"identifier": "f-vta-s-3604", "tags": {"stop_lat": "37.366435527999997", "zone_id": "1", "stop_lon": "-121.828424176", "stop_id": "3604", "stop_desc": "", "stop_name": "WHITE & ALUM ROCK"}}], "type": "Feature", "properties": {}}, {"onestopId": "s-9q9kec6tsy-white~easthills", "name": "WHITE & EASTHILLS", "tags": {}, "geometry": {"type": "Point", "coordinates": [-121.823754636, 37.36135865]}, "servedBy": ["o-9q9-vta"], "identifiers": [{"identifier": "f-vta-s-3602", "tags": {"stop_lat": "37.36135865", "zone_id": "1", "stop_lon": "-121.823754636", "stop_id": "3602", "stop_desc": "", "stop_name": "WHITE & EASTHILLS"}}], "type": "Feature", "properties": {}}, {"onestopId": "s-9q9kev57z4-mckee~gordon", "name": "MCKEE & GORDON", "tags": {}, "geometry": {"type": "Point", "coordinates": [-121.8226242, 37.38164105]}, "servedBy": ["o-9q9-vta"], "identifiers": [{"identifier": "f-vta-s-5358", "tags": {"stop_lat": "37.381641049999999", "zone_id": "1", "stop_lon": "-121.82262420000001", "stop_id": "5358", "stop_desc": "", "stop_name": "MCKEE & GORDON"}}], "type": "Feature", "properties": {}}, {"onestopId": "s-9q9keqv24m-penitenciacreek~piedmont", "name": "PENITENCIA CREEK & PIEDMONT", "tags": {}, "geometry": {"type": "Point", "coordinates": [-121.84204843, 37.39062578]}, "servedBy": ["o-9q9-vta"], "identifiers": [{"identifier": "f-vta-s-5349", "tags": {"stop_lat": "37.390625780000001", "zone_id": "1", "stop_lon": "-121.84204843000001", "stop_id": "5349", "stop_desc": "", "stop_name": "PENITENCIA CREEK & PIEDMONT"}}], "type": "Feature", "properties": {}}, {"onestopId": "s-9q9kemmq91-white~mabury", "name": "WHITE & MABURY", "tags": {}, "geometry": {"type": "Point", "coordinates": [-121.842107871, 37.383479014]}, "servedBy": ["o-9q9-vta"], "identifiers": [{"identifier": "f-vta-s-1639", "tags": {"stop_lat": "37.383479014000002", "zone_id": "1", "stop_lon": "-121.842107871", "stop_id": "1639", "stop_desc": "", "stop_name": "WHITE & MABURY"}}], "type": "Feature", "properties": {}}, {"onestopId": "s-9q9keum4ux-alumrock~mountainview", "name": "ALUM ROCK & MOUNTAIN VIEW", "tags": {}, "geometry": {"type": "Point", "coordinates": [-121.820330715, 37.377371614]}, "servedBy": ["o-9q9-vta"], "identifiers": [{"identifier": "f-vta-s-3056", "tags": {"stop_lat": "37.377371613999998", "zone_id": "1", "stop_lon": "-121.820330715", "stop_id": "3056", "stop_desc": "", "stop_name": "ALUM ROCK & MOUNTAIN VIEW"}}], "type": "Feature", "properties": {}}, {"onestopId": "s-9q9kewjt3x-toyon~golf", "name": "TOYON & GOLF", "tags": {}, "geometry": {"type": "Point", "coordinates": [-121.830752421, 37.387413968]}, "servedBy": ["o-9q9-vta"], "identifiers": [{"identifier": "f-vta-s-4031", "tags": {"stop_lat": "37.387413967999997", "zone_id": "1", "stop_lon": "-121.830752421", "stop_id": "4031", "stop_desc": "", "stop_name": "TOYON & GOLF"}}], "type": "Feature", "properties": {}}, {"onestopId": "s-9q9kerfuen-piedmont~suncrest", "name": "PIEDMONT & SUNCREST", "tags": {}, "geometry": {"type": "Point", "coordinates": [-121.845453584, 37.396894705]}, "servedBy": ["o-9q9-vta"], "identifiers": [{"identifier": "f-vta-s-3615", "tags": {"stop_lat": "37.396894705000001", "zone_id": "1", "stop_lon": "-121.845453584", "stop_id": "3615", "stop_desc": "", "stop_name": "PIEDMONT & SUNCREST"}}], "type": "Feature", "properties": {}}, {"onestopId": "s-9q9kerfcke-piedmont~berryesa", "name": "PIEDMONT & BERRYESA", "tags": {}, "geometry": {"type": "Point", "coordinates": [-121.845389564, 37.396321613]}, "servedBy": ["o-9q9-vta"], "identifiers": [{"identifier": "f-vta-s-3675", "tags": {"stop_lat": "37.396321612999998", "zone_id": "1", "stop_lon": "-121.845389564", "stop_id": "3675", "stop_desc": "", "stop_name": "PIEDMONT & BERRYESA"}}], "type": "Feature", "properties": {}}, {"onestopId": "s-9q9ken37wq-berryessa~sandston", "name": "BERRYESSA & SANDSTON", "tags": {}, "geometry": {"type": "Point", "coordinates": [-121.858364075, 37.38848402]}, "servedBy": ["o-9q9-vta"], "identifiers": [{"identifier": "f-vta-s-2843", "tags": {"stop_lat": "37.38848402", "zone_id": "1", "stop_lon": "-121.858364075", "stop_id": "2843", "stop_desc": "", "stop_name": "BERRYESSA & SANDSTON"}}], "type": "Feature", "properties": {}}, {"onestopId": "s-9q9keehf41-white~madeline", "name": "WHITE & MADELINE", "tags": {}, "geometry": {"type": "Point", "coordinates": [-121.831763379, 37.370344088]}, "servedBy": ["o-9q9-vta"], "identifiers": [{"identifier": "f-vta-s-3605", "tags": {"stop_lat": "37.370344088000003", "zone_id": "1", "stop_lon": "-121.83176337899999", "stop_id": "3605", "stop_desc": "", "stop_name": "WHITE & MADELINE"}}], "type": "Feature", "properties": {}}, {"onestopId": "s-9q9keecse9-mckee~white", "name": "MCKEE & WHITE", "tags": {}, "geometry": {"type": "Point", "coordinates": [-121.836159981, 37.374895148]}, "servedBy": ["o-9q9-vta"], "identifiers": [{"identifier": "f-vta-s-4036", "tags": {"stop_lat": "37.374895148", "zone_id": "1", "stop_lon": "-121.83615998099999", "stop_id": "4036", "stop_desc": "", "stop_name": "MCKEE & WHITE"}}], "type": "Feature", "properties": {}}, {"onestopId": "s-9q9ke3bee9-jackson~mammoth", "name": "JACKSON & MAMMOTH", "tags": {}, "geometry": {"type": "Point", "coordinates": [-121.848522141, 37.363736163]}, "servedBy": ["o-9q9-vta"], "identifiers": [{"identifier": "f-vta-s-3510", "tags": {"stop_lat": "37.363736162999999", "zone_id": "1", "stop_lon": "-121.848522141", "stop_id": "3510", "stop_desc": "", "stop_name": "JACKSON & MAMMOTH"}}], "type": "Feature", "properties": {}}, {"onestopId": "s-9q9ke8ukr0-alumrockstation1", "name": "ALUM ROCK STATION (1)", "tags": {}, "geometry": {"type": "Point", "coordinates": [-121.832239, 37.358369]}, "servedBy": ["o-9q9-vta"], "identifiers": [{"identifier": "f-vta-s-5243", "tags": {"stop_lat": "37.358369000000003", "zone_id": "1", "stop_lon": "-121.832239", "stop_id": "5243", "stop_desc": "", "stop_name": "ALUM ROCK STATION (1)"}}], "type": "Feature", "properties": {}}, {"onestopId": "s-9q9keb5gxz-story~lyndale", "name": "STORY & LYNDALE", "tags": {}, "geometry": {"type": "Point", "coordinates": [-121.821904845, 37.354155063]}, "servedBy": ["o-9q9-vta"], "identifiers": [{"identifier": "f-vta-s-770", "tags": {"stop_lat": "37.354155063", "zone_id": "1", "stop_lon": "-121.82190484500001", "stop_id": "770", "stop_desc": "", "stop_name": "STORY & LYNDALE"}}], "type": "Feature", "properties": {}}, {"onestopId": "s-9q9kef8c4w-alumrock~dale", "name": "ALUM ROCK & DALE", "tags": {}, "geometry": {"type": "Point", "coordinates": [-121.826245659, 37.36745732]}, "servedBy": ["o-9q9-vta"], "identifiers": [{"identifier": "f-vta-s-3042", "tags": {"stop_lat": "37.36745732", "zone_id": "1", "stop_lon": "-121.82624565899999", "stop_id": "3042", "stop_desc": "", "stop_name": "ALUM ROCK & DALE"}}], "type": "Feature", "properties": {}}, {"onestopId": "s-9q9keum7gy-alumrock~mountainview", "name": "ALUM ROCK & MOUNTAIN VIEW", "tags": {}, "geometry": {"type": "Point", "coordinates": [-121.820016527, 37.37754224]}, "servedBy": ["o-9q9-vta"], "identifiers": [{"identifier": "f-vta-s-3047", "tags": {"stop_lat": "37.377542239999997", "zone_id": "1", "stop_lon": "-121.82001652700001", "stop_id": "3047", "stop_desc": "", "stop_name": "ALUM ROCK & MOUNTAIN VIEW"}}], "type": "Feature", "properties": {}}, {"onestopId": "s-9q9ke5c8dt-mabury~jackson", "name": "MABURY & JACKSON", "tags": {}, "geometry": {"type": "Point", "coordinates": [-121.8581788, 37.374230504]}, "servedBy": ["o-9q9-vta"], "identifiers": [{"identifier": "f-vta-s-5582", "tags": {"stop_lat": "37.374230504000003", "zone_id": "1", "stop_lon": "-121.8581788", "stop_id": "5582", "stop_desc": "", "stop_name": "MABURY & JACKSON"}}], "type": "Feature", "properties": {}}, {"onestopId": "s-9q9kemne19-white~modred", "name": "WHITE & MODRED", "tags": {}, "geometry": {"type": "Point", "coordinates": [-121.840364724, 37.381501813]}, "servedBy": ["o-9q9-vta"], "identifiers": [{"identifier": "f-vta-s-3609", "tags": {"stop_lat": "37.381501813", "zone_id": "1", "stop_lon": "-121.840364724", "stop_id": "3609", "stop_desc": "", "stop_name": "WHITE & MODRED"}}], "type": "Feature", "properties": {}}, {"onestopId": "s-9q9kendc19-berryessa~summerpark", "name": "BERRYESSA & SUMMER PARK", "tags": {}, "geometry": {"type": "Point", "coordinates": [-121.85650542, 37.38940134]}, "servedBy": ["o-9q9-vta"], "identifiers": [{"identifier": "f-vta-s-5345", "tags": {"stop_lat": "37.389401339999999", "zone_id": "1", "stop_lon": "-121.85650542", "stop_id": "5345", "stop_desc": "", "stop_name": "BERRYESSA & SUMMER PARK"}}], "type": "Feature", "properties": {}}, {"onestopId": "s-9q9kev0kx4-toyon~mckee", "name": "TOYON & MCKEE", "tags": {}, "geometry": {"type": "Point", "coordinates": [-121.82673899, 37.38176531]}, "servedBy": ["o-9q9-vta"], "identifiers": [{"identifier": "f-vta-s-5352", "tags": {"stop_lat": "37.381765309999999", "zone_id": "1", "stop_lon": "-121.82673899", "stop_id": "5352", "stop_desc": "", "stop_name": "TOYON & MCKEE"}}], "type": "Feature", "properties": {}}, {"onestopId": "s-9q9keb53gw-story~lyndale", "name": "STORY & LYNDALE", "tags": {}, "geometry": {"type": "Point", "coordinates": [-121.822773696, 37.353851471]}, "servedBy": ["o-9q9-vta"], "identifiers": [{"identifier": "f-vta-s-782", "tags": {"stop_lat": "37.353851470999999", "zone_id": "1", "stop_lon": "-121.822773696", "stop_id": "782", "stop_desc": "", "stop_name": "STORY & LYNDALE"}}], "type": "Feature", "properties": {}}, {"onestopId": "s-9q9ke92mmr-alumrock~alexander", "name": "ALUM ROCK & ALEXANDER", "tags": {}, "geometry": {"type": "Point", "coordinates": [-121.837809739, 37.361323871]}, "servedBy": ["o-9q9-vta"], "identifiers": [{"identifier": "f-vta-s-3066", "tags": {"stop_lat": "37.361323871000003", "zone_id": "1", "stop_lon": "-121.83780973899999", "stop_id": "3066", "stop_desc": "", "stop_name": "ALUM ROCK & ALEXANDER"}}], "type": "Feature", "properties": {}}, {"onestopId": "s-9q9kewgst8-toyon~ridgetop", "name": "TOYON & RIDGE TOP", "tags": {}, "geometry": {"type": "Point", "coordinates": [-121.83332749, 37.39136776]}, "servedBy": ["o-9q9-vta"], "identifiers": [{"identifier": "f-vta-s-5355", "tags": {"stop_lat": "37.391367760000001", "zone_id": "1", "stop_lon": "-121.83332749", "stop_id": "5355", "stop_desc": "", "stop_name": "TOYON & RIDGE TOP"}}], "type": "Feature", "properties": {}}, {"onestopId": "s-9q9kef8ggj-alumrock~talmadge", "name": "ALUM ROCK & TALMADGE", "tags": {}, "geometry": {"type": "Point", "coordinates": [-121.826231999, 37.367924413]}, "servedBy": ["o-9q9-vta"], "identifiers": [{"identifier": "f-vta-s-3061", "tags": {"stop_lat": "37.367924412999997", "zone_id": "1", "stop_lon": "-121.826231999", "stop_id": "3061", "stop_desc": "", "stop_name": "ALUM ROCK & TALMADGE"}}], "type": "Feature", "properties": {}}, {"onestopId": "s-9q9kecc3b7-white~florence", "name": "WHITE & FLORENCE", "tags": {}, "geometry": {"type": "Point", "coordinates": [-121.825660352, 37.363447737]}, "servedBy": ["o-9q9-vta"], "identifiers": [{"identifier": "f-vta-s-3603", "tags": {"stop_lat": "37.363447737000001", "zone_id": "1", "stop_lon": "-121.825660352", "stop_id": "3603", "stop_desc": "", "stop_name": "WHITE & FLORENCE"}}], "type": "Feature", "properties": {}}, {"onestopId": "s-9q9kedppny-alumrock~white", "name": "ALUM ROCK & WHITE", "tags": {}, "geometry": {"type": "Point", "coordinates": [-121.82846825, 37.365738883]}, "servedBy": ["o-9q9-vta"], "identifiers": [{"identifier": "f-vta-s-3062", "tags": {"stop_lat": "37.365738882999999", "zone_id": "1", "stop_lon": "-121.82846825", "stop_id": "3062", "stop_desc": "", "stop_name": "ALUM ROCK & WHITE"}}], "type": "Feature", "properties": {}}, {"onestopId": "s-9q9ke2p673-jackson~kammerer", "name": "JACKSON & KAMMERER", "tags": {}, "geometry": {"type": "Point", "coordinates": [-121.839268041, 37.353908703]}, "servedBy": ["o-9q9-vta"], "identifiers": [{"identifier": "f-vta-s-3571", "tags": {"stop_lat": "37.353908703000002", "zone_id": "1", "stop_lon": "-121.839268041", "stop_id": "3571", "stop_desc": "", "stop_name": "JACKSON & KAMMERER"}}], "type": "Feature", "properties": {}}, {"onestopId": "s-9q9kec5cbz-white~woodhaven", "name": "WHITE & WOODHAVEN", "tags": {}, "geometry": {"type": "Point", "coordinates": [-121.822200548, 37.359349286]}, "servedBy": ["o-9q9-vta"], "identifiers": [{"identifier": "f-vta-s-780", "tags": {"stop_lat": "37.359349285999997", "zone_id": "1", "stop_lon": "-121.822200548", "stop_id": "780", "stop_desc": "", "stop_name": "WHITE & WOODHAVEN"}}], "type": "Feature", "properties": {}}, {"onestopId": "s-9q9kej5w56-penitenciacreekstation1", "name": "PENITENCIA CREEK STATION (1)", "tags": {}, "geometry": {"type": "Point", "coordinates": [-121.8554, 37.382025]}, "servedBy": ["o-9q9-vta"], "identifiers": [{"identifier": "f-vta-s-5245", "tags": {"stop_lat": "37.382024999999999", "zone_id": "1", "stop_lon": "-121.8554", "stop_id": "5245", "stop_desc": "", "stop_name": "PENITENCIA CREEK STATION (1)"}}], "type": "Feature", "properties": {}}, {"onestopId": "s-9q9kejk0nn-penitenciacreektransit", "name": "PENITENCIA CREEK TRANSIT CENTER", "tags": {}, "geometry": {"type": "Point", "coordinates": [-121.8545998, 37.38238864]}, "servedBy": ["o-9q9-vta"], "identifiers": [{"identifier": "f-vta-s-5325", "tags": {"stop_lat": "37.382388640000002", "zone_id": "1", "stop_lon": "-121.8545998", "stop_id": "5325", "stop_desc": "", "stop_name": "PENITENCIA CREEK TRANSIT CENTER"}}], "type": "Feature", "properties": {}}, {"onestopId": "s-9q9ke0bj29-mckee~king", "name": "MCKEE & KING", "tags": {}, "geometry": {"type": "Point", "coordinates": [-121.860321092, 37.358546652]}, "servedBy": ["o-9q9-vta"], "identifiers": [{"identifier": "f-vta-s-4045", "tags": {"stop_lat": "37.358546652000001", "zone_id": "1", "stop_lon": "-121.86032109200001", "stop_id": "4045", "stop_desc": "", "stop_name": "MCKEE & KING"}}], "type": "Feature", "properties": {}}, {"onestopId": "s-9q9ke3bb6d-jackson~sanjoseregionalmedical", "name": "JACKSON & SAN JOSE REGIONAL MEDICAL CENTER", "tags": {}, "geometry": {"type": "Point", "coordinates": [-121.848225529, 37.363185594]}, "servedBy": ["o-9q9-vta"], "identifiers": [{"identifier": "f-vta-s-3567", "tags": {"stop_lat": "37.363185594000001", "zone_id": "1", "stop_lon": "-121.848225529", "stop_id": "3567", "stop_desc": "", "stop_name": "JACKSON & SAN JOSE REGIONAL MEDICAL CENTER"}}], "type": "Feature", "properties": {}}, {"onestopId": "s-9q9kegexsq-alumrock~elcampo", "name": "ALUM ROCK & EL CAMPO", "tags": {}, "geometry": {"type": "Point", "coordinates": [-121.822393433, 37.374063544]}, "servedBy": ["o-9q9-vta"], "identifiers": [{"identifier": "f-vta-s-3058", "tags": {"stop_lat": "37.374063544000002", "zone_id": "1", "stop_lon": "-121.822393433", "stop_id": "3058", "stop_desc": "", "stop_name": "ALUM ROCK & EL CAMPO"}}], "type": "Feature", "properties": {}}, {"onestopId": "s-9q9kemkz6m-mabury~white", "name": "MABURY & WHITE", "tags": {}, "geometry": {"type": "Point", "coordinates": [-121.842739576, 37.383627426]}, "servedBy": ["o-9q9-vta"], "identifiers": [{"identifier": "f-vta-s-1646", "tags": {"stop_lat": "37.383627425999997", "zone_id": "1", "stop_lon": "-121.842739576", "stop_id": "1646", "stop_desc": "", "stop_name": "MABURY & WHITE"}}], "type": "Feature", "properties": {}}, {"onestopId": "s-9q9ke2p7mn-jackson~kammerer", "name": "JACKSON & KAMMERER", "tags": {}, "geometry": {"type": "Point", "coordinates": [-121.839193541, 37.354106675]}, "servedBy": ["o-9q9-vta"], "identifiers": [{"identifier": "f-vta-s-3506", "tags": {"stop_lat": "37.354106674999997", "zone_id": "1", "stop_lon": "-121.839193541", "stop_id": "3506", "stop_desc": "", "stop_name": "JACKSON & KAMMERER"}}], "type": "Feature", "properties": {}}, {"onestopId": "s-9q9kews6tx-toyon~sanpablo", "name": "TOYON & SAN PABLO", "tags": {}, "geometry": {"type": "Point", "coordinates": [-121.832300282, 37.389691678]}, "servedBy": ["o-9q9-vta"], "identifiers": [{"identifier": "f-vta-s-4030", "tags": {"stop_lat": "37.389691677999998", "zone_id": "1", "stop_lon": "-121.83230028200001", "stop_id": "4030", "stop_desc": "", "stop_name": "TOYON & SAN PABLO"}}], "type": "Feature", "properties": {}}, {"onestopId": "s-9q9kep3nu8-sierra~morrill", "name": "SIERRA & MORRILL", "tags": {}, "geometry": {"type": "Point", "coordinates": [-121.858780152, 37.394502994]}, "servedBy": ["o-9q9-vta"], "identifiers": [{"identifier": "f-vta-s-5435", "tags": {"stop_lat": "37.394502994", "zone_id": "1", "stop_lon": "-121.85878015199999", "stop_id": "5435", "stop_desc": "", "stop_name": "SIERRA & MORRILL"}}], "type": "Feature", "properties": {}}, {"onestopId": "s-9q9ke2myfv-jackson~woodset", "name": "JACKSON & WOODSET", "tags": {}, "geometry": {"type": "Point", "coordinates": [-121.841345985, 37.356076576]}, "servedBy": ["o-9q9-vta"], "identifiers": [{"identifier": "f-vta-s-3570", "tags": {"stop_lat": "37.356076576", "zone_id": "1", "stop_lon": "-121.841345985", "stop_id": "3570", "stop_desc": "", "stop_name": "JACKSON & WOODSET"}}], "type": "Feature", "properties": {}}, {"onestopId": "s-9q9ke8u0xt-alumrocktransit", "name": "ALUM ROCK TRANSIT CENTER", "tags": {}, "geometry": {"type": "Point", "coordinates": [-121.83256318, 37.35774871]}, "servedBy": ["o-9q9-vta"], "identifiers": [{"identifier": "f-vta-s-5320", "tags": {"stop_lat": "37.357748710000003", "zone_id": "1", "stop_lon": "-121.83256317999999", "stop_id": "5320", "stop_desc": "", "stop_name": "ALUM ROCK TRANSIT CENTER"}}], "type": "Feature", "properties": {}}, {"onestopId": "s-9q9kep84be-morrill~ione", "name": "MORRILL & IONE", "tags": {}, "geometry": {"type": "Point", "coordinates": [-121.860325966, 37.395206756]}, "servedBy": ["o-9q9-vta"], "identifiers": [{"identifier": "f-vta-s-4461", "tags": {"stop_lat": "37.395206756", "zone_id": "1", "stop_lon": "-121.860325966", "stop_id": "4461", "stop_desc": "", "stop_name": "MORRILL & IONE"}}], "type": "Feature", "properties": {}}, {"onestopId": "s-9q9kebut16-white~buckner", "name": "WHITE & BUCKNER", "tags": {}, "geometry": {"type": "Point", "coordinates": [-121.821157269, 37.35850713]}, "servedBy": ["o-9q9-vta"], "identifiers": [{"identifier": "f-vta-s-3601", "tags": {"stop_lat": "37.35850713", "zone_id": "1", "stop_lon": "-121.821157269", "stop_id": "3601", "stop_desc": "", "stop_name": "WHITE & BUCKNER"}}], "type": "Feature", "properties": {}}, {"onestopId": "s-9q9ketx68q-toyon~teegardenapt", "name": "TOYON & TEE GARDEN APT", "tags": {}, "geometry": {"type": "Point", "coordinates": [-121.82840802, 37.38419302]}, "servedBy": ["o-9q9-vta"], "identifiers": [{"identifier": "f-vta-s-5351", "tags": {"stop_lat": "37.384193019999998", "zone_id": "1", "stop_lon": "-121.82840802", "stop_id": "5351", "stop_desc": "", "stop_name": "TOYON & TEE GARDEN APT"}}], "type": "Feature", "properties": {}}, {"onestopId": "s-9q9kehwtjc-mabury~capitol", "name": "MABURY & CAPITOL", "tags": {}, "geometry": {"type": "Point", "coordinates": [-121.85116876, 37.37910079]}, "servedBy": ["o-9q9-vta"], "identifiers": [{"identifier": "f-vta-s-1637", "tags": {"stop_lat": "37.379100790000003", "zone_id": "1", "stop_lon": "-121.85116875999999", "stop_id": "1637", "stop_desc": "", "stop_name": "MABURY & CAPITOL"}}], "type": "Feature", "properties": {}}, {"onestopId": "s-9q9kej5ymb-penitenciacreektransit", "name": "PENITENCIA CREEK TRANSIT CENTER", "tags": {}, "geometry": {"type": "Point", "coordinates": [-121.85495044, 37.38205836]}, "servedBy": ["o-9q9-vta"], "identifiers": [{"identifier": "f-vta-s-5337", "tags": {"stop_lat": "37.382058360000002", "zone_id": "1", "stop_lon": "-121.85495044", "stop_id": "5337", "stop_desc": "", "stop_name": "PENITENCIA CREEK TRANSIT CENTER"}}], "type": "Feature", "properties": {}}, {"onestopId": "s-9q9ke4pypw-mckee~jackson", "name": "MCKEE & JACKSON", "tags": {}, "geometry": {"type": "Point", "coordinates": [-121.84938378, 37.365568024]}, "servedBy": ["o-9q9-vta"], "identifiers": [{"identifier": "f-vta-s-4023", "tags": {"stop_lat": "37.365568023999998", "zone_id": "1", "stop_lon": "-121.84938378", "stop_id": "4023", "stop_desc": "", "stop_name": "MCKEE & JACKSON"}}], "type": "Feature", "properties": {}}, {"onestopId": "s-9q9kerh87e-piedmont~noble", "name": "PIEDMONT & NOBLE", "tags": {}, "geometry": {"type": "Point", "coordinates": [-121.843029149, 37.39202894]}, "servedBy": ["o-9q9-vta"], "identifiers": [{"identifier": "f-vta-s-3613", "tags": {"stop_lat": "37.392028940000003", "zone_id": "1", "stop_lon": "-121.843029149", "stop_id": "3613", "stop_desc": "", "stop_name": "PIEDMONT & NOBLE"}}], "type": "Feature", "properties": {}}, {"onestopId": "s-9q9kebqjhj-white~story", "name": "WHITE & STORY", "tags": {}, "geometry": {"type": "Point", "coordinates": [-121.818974739, 37.355774852]}, "servedBy": ["o-9q9-vta"], "identifiers": [{"identifier": "f-vta-s-3683", "tags": {"stop_lat": "37.355774852000003", "zone_id": "1", "stop_lon": "-121.818974739", "stop_id": "3683", "stop_desc": "", "stop_name": "WHITE & STORY"}}], "type": "Feature", "properties": {}}, {"onestopId": "s-9q9kehtxmz-capitol~wiliford", "name": "CAPITOL & WILIFORD", "tags": {}, "geometry": {"type": "Point", "coordinates": [-121.85254452, 37.37952197]}, "servedBy": ["o-9q9-vta"], "identifiers": [{"identifier": "f-vta-s-3828", "tags": {"stop_lat": "37.379521969999999", "zone_id": "1", "stop_lon": "-121.85254452", "stop_id": "3828", "stop_desc": "", "stop_name": "CAPITOL & WILIFORD"}}], "type": "Feature", "properties": {}}, {"onestopId": "s-9q9ke55sh3-jackson~ashglen", "name": "JACKSON & ASHGLEN", "tags": {}, "geometry": {"type": "Point", "coordinates": [-121.855356621, 37.370687542]}, "servedBy": ["o-9q9-vta"], "identifiers": [{"identifier": "f-vta-s-3513", "tags": {"stop_lat": "37.370687541999999", "zone_id": "1", "stop_lon": "-121.855356621", "stop_id": "3513", "stop_desc": "", "stop_name": "JACKSON & ASHGLEN"}}], "type": "Feature", "properties": {}}, {"onestopId": "s-9q9kem5nms-mabury~saltlake", "name": "MABURY & SALT LAKE", "tags": {}, "geometry": {"type": "Point", "coordinates": [-121.845000277, 37.382080444]}, "servedBy": ["o-9q9-vta"], "identifiers": [{"identifier": "f-vta-s-1647", "tags": {"stop_lat": "37.382080444000003", "zone_id": "1", "stop_lon": "-121.845000277", "stop_id": "1647", "stop_desc": "", "stop_name": "MABURY & SALT LAKE"}}], "type": "Feature", "properties": {}}, {"onestopId": "s-9q9ke7x276-mckee~francis", "name": "MCKEE & FRANCIS", "tags": {}, "geometry": {"type": "Point", "coordinates": [-121.839262564, 37.37279682]}, "servedBy": ["o-9q9-vta"], "identifiers": [{"identifier": "f-vta-s-4037", "tags": {"stop_lat": "37.372796819999998", "zone_id": "1", "stop_lon": "-121.83926256399999", "stop_id": "4037", "stop_desc": "", "stop_name": "MCKEE & FRANCIS"}}], "type": "Feature", "properties": {}}, {"onestopId": "s-9q9keppvhm-berryessa~penitenciacreekpark", "name": "BERRYESSA & PENITENCIA CREEK PARK", "tags": {}, "geometry": {"type": "Point", "coordinates": [-121.84952415, 37.39285329]}, "servedBy": ["o-9q9-vta"], "identifiers": [{"identifier": "f-vta-s-5347", "tags": {"stop_lat": "37.392853289999998", "zone_id": "1", "stop_lon": "-121.84952414999999", "stop_id": "5347", "stop_desc": "", "stop_name": "BERRYESSA & PENITENCIA CREEK PARK"}}], "type": "Feature", "properties": {}}, {"onestopId": "s-9q9kefcy17-alumrock~harriet", "name": "ALUM ROCK & HARRIET", "tags": {}, "geometry": {"type": "Point", "coordinates": [-121.824933125, 37.369672781]}, "servedBy": ["o-9q9-vta"], "identifiers": [{"identifier": "f-vta-s-3043", "tags": {"stop_lat": "37.369672780999998", "zone_id": "1", "stop_lon": "-121.824933125", "stop_id": "3043", "stop_desc": "", "stop_name": "ALUM ROCK & HARRIET"}}], "type": "Feature", "properties": {}}, {"onestopId": "s-9q9ke9249w-alumrock~muirfield", "name": "ALUM ROCK & MUIRFIELD", "tags": {}, "geometry": {"type": "Point", "coordinates": [-121.838305394, 37.360848486]}, "servedBy": ["o-9q9-vta"], "identifiers": [{"identifier": "f-vta-s-3031", "tags": {"stop_lat": "37.360848486000002", "zone_id": "1", "stop_lon": "-121.838305394", "stop_id": "3031", "stop_desc": "", "stop_name": "ALUM ROCK & MUIRFIELD"}}], "type": "Feature", "properties": {}}, {"onestopId": "s-9q9ke4p168-mckee~jackson", "name": "MCKEE & JACKSON", "tags": {}, "geometry": {"type": "Point", "coordinates": [-121.850630506, 37.364718176]}, "servedBy": ["o-9q9-vta"], "identifiers": [{"identifier": "f-vta-s-4022", "tags": {"stop_lat": "37.364718175999997", "zone_id": "1", "stop_lon": "-121.850630506", "stop_id": "4022", "stop_desc": "", "stop_name": "MCKEE & JACKSON"}}], "type": "Feature", "properties": {}}, {"onestopId": "s-9q9ke4tkbk-jackson~lanning", "name": "JACKSON & LANNING", "tags": {}, "geometry": {"type": "Point", "coordinates": [-121.853129284, 37.36808568]}, "servedBy": ["o-9q9-vta"], "identifiers": [{"identifier": "f-vta-s-3565", "tags": {"stop_lat": "37.36808568", "zone_id": "1", "stop_lon": "-121.853129284", "stop_id": "3565", "stop_desc": "", "stop_name": "JACKSON & LANNING"}}], "type": "Feature", "properties": {}}, {"onestopId": "s-9q9keqkgus-white~fiji", "name": "WHITE & FIJI", "tags": {}, "geometry": {"type": "Point", "coordinates": [-121.842644786, 37.388515399]}, "servedBy": ["o-9q9-vta"], "identifiers": [{"identifier": "f-vta-s-1644", "tags": {"stop_lat": "37.388515398999999", "zone_id": "1", "stop_lon": "-121.84264478599999", "stop_id": "1644", "stop_desc": "", "stop_name": "WHITE & FIJI"}}], "type": "Feature", "properties": {}}, {"onestopId": "s-9q9kewjtm5-toyon~holly", "name": "TOYON & HOLLY", "tags": {}, "geometry": {"type": "Point", "coordinates": [-121.8306095, 37.387397]}, "servedBy": ["o-9q9-vta"], "identifiers": [{"identifier": "f-vta-s-5353", "tags": {"stop_lat": "37.387397", "zone_id": "1", "stop_lon": "-121.83060949999999", "stop_id": "5353", "stop_desc": "", "stop_name": "TOYON & HOLLY"}}], "type": "Feature", "properties": {}}, {"onestopId": "s-9q9keuypcp-mckee~laurent", "name": "MCKEE & ST. LAURENT", "tags": {}, "geometry": {"type": "Point", "coordinates": [-121.81910889, 37.38097955]}, "servedBy": ["o-9q9-vta"], "identifiers": [{"identifier": "f-vta-s-5357", "tags": {"stop_lat": "37.380979549999999", "zone_id": "1", "stop_lon": "-121.81910889", "stop_id": "5357", "stop_desc": "", "stop_name": "MCKEE & ST. LAURENT"}}], "type": "Feature", "properties": {}}, {"onestopId": "s-9q9kej6w31-capitol~penitenciacreek", "name": "CAPITOL & PENITENCIA CREEK", "tags": {}, "geometry": {"type": "Point", "coordinates": [-121.85686611, 37.38343688]}, "servedBy": ["o-9q9-vta"], "identifiers": [{"identifier": "f-vta-s-3830", "tags": {"stop_lat": "37.383436879999998", "zone_id": "1", "stop_lon": "-121.85686611", "stop_id": "3830", "stop_desc": "", "stop_name": "CAPITOL & PENITENCIA CREEK"}}], "type": "Feature", "properties": {}}, {"onestopId": "s-9q9ke9gfss-alumrock~pleasantridge", "name": "ALUM ROCK & PLEASANTRIDGE", "tags": {}, "geometry": {"type": "Point", "coordinates": [-121.833034867, 37.363581304]}, "servedBy": ["o-9q9-vta"], "identifiers": [{"identifier": "f-vta-s-3064", "tags": {"stop_lat": "37.363581304", "zone_id": "1", "stop_lon": "-121.83303486699999", "stop_id": "3064", "stop_desc": "", "stop_name": "ALUM ROCK & PLEASANTRIDGE"}}], "type": "Feature", "properties": {}}, {"onestopId": "s-9q9kejbjdd-capitol~berryessa", "name": "CAPITOL & BERRYESSA", "tags": {}, "geometry": {"type": "Point", "coordinates": [-121.86024264, 37.3860613]}, "servedBy": ["o-9q9-vta"], "identifiers": [{"identifier": "f-vta-s-3854", "tags": {"stop_lat": "37.386061300000001", "zone_id": "1", "stop_lon": "-121.86024264", "stop_id": "3854", "stop_desc": "", "stop_name": "CAPITOL & BERRYESSA"}}], "type": "Feature", "properties": {}}, {"onestopId": "s-9q9ke2uwbc-alumrock~jackson", "name": "ALUM ROCK & JACKSON", "tags": {}, "geometry": {"type": "Point", "coordinates": [-121.843143547, 37.358799627]}, "servedBy": ["o-9q9-vta"], "identifiers": [{"identifier": "f-vta-s-3067", "tags": {"stop_lat": "37.358799627000003", "zone_id": "1", "stop_lon": "-121.843143547", "stop_id": "3067", "stop_desc": "", "stop_name": "ALUM ROCK & JACKSON"}}], "type": "Feature", "properties": {}}, {"onestopId": "s-9q9kes19d5-white~mckee", "name": "WHITE & MCKEE", "tags": {}, "geometry": {"type": "Point", "coordinates": [-121.836228374, 37.375764765]}, "servedBy": ["o-9q9-vta"], "identifiers": [{"identifier": "f-vta-s-3679", "tags": {"stop_lat": "37.375764765", "zone_id": "1", "stop_lon": "-121.836228374", "stop_id": "3679", "stop_desc": "", "stop_name": "WHITE & MCKEE"}}], "type": "Feature", "properties": {}}, {"onestopId": "s-9q9kehurf7-penitenciacreekstation0", "name": "PENITENCIA CREEK STATION (0)", "tags": {}, "geometry": {"type": "Point", "coordinates": [-121.85441732, 37.38095849]}, "servedBy": ["o-9q9-vta"], "identifiers": [{"identifier": "f-vta-s-5240", "tags": {"stop_lat": "37.380958489999998", "zone_id": "1", "stop_lon": "-121.85441732", "stop_id": "5240", "stop_desc": "", "stop_name": "PENITENCIA CREEK STATION (0)"}}], "type": "Feature", "properties": {}}, {"onestopId": "s-9q9ke2tm93-jackson~sanfernando", "name": "JACKSON & SAN FERNANDO", "tags": {}, "geometry": {"type": "Point", "coordinates": [-121.842095291, 37.357216407]}, "servedBy": ["o-9q9-vta"], "identifiers": [{"identifier": "f-vta-s-3507", "tags": {"stop_lat": "37.357216407000003", "zone_id": "1", "stop_lon": "-121.84209529100001", "stop_id": "3507", "stop_desc": "", "stop_name": "JACKSON & SAN FERNANDO"}}], "type": "Feature", "properties": {}}, {"onestopId": "s-9q9ke1vdpb-mckee~josefigueres", "name": "MCKEE & JOSE FIGUERES", "tags": {}, "geometry": {"type": "Point", "coordinates": [-121.852456282, 37.363474001]}, "servedBy": ["o-9q9-vta"], "identifiers": [{"identifier": "f-vta-s-4021", "tags": {"stop_lat": "37.363474001", "zone_id": "1", "stop_lon": "-121.85245628200001", "stop_id": "4021", "stop_desc": "", "stop_name": "MCKEE & JOSE FIGUERES"}}], "type": "Feature", "properties": {}}, {"onestopId": "s-9q9keq5cxr-white~kyle", "name": "WHITE & KYLE", "tags": {}, "geometry": {"type": "Point", "coordinates": [-121.843894858, 37.386770211]}, "servedBy": ["o-9q9-vta"], "identifiers": [{"identifier": "f-vta-s-1645", "tags": {"stop_lat": "37.386770210999998", "zone_id": "1", "stop_lon": "-121.843894858", "stop_id": "1645", "stop_desc": "", "stop_name": "WHITE & KYLE"}}], "type": "Feature", "properties": {}}, {"onestopId": "s-9q9keprbmw-berryessa~sabal", "name": "BERRYESSA & SABAL", "tags": {}, "geometry": {"type": "Point", "coordinates": [-121.8494714, 37.393416995]}, "servedBy": ["o-9q9-vta"], "identifiers": [{"identifier": "f-vta-s-2851", "tags": {"stop_lat": "37.393416995000003", "zone_id": "1", "stop_lon": "-121.8494714", "stop_id": "2851", "stop_desc": "", "stop_name": "BERRYESSA & SABAL"}}], "type": "Feature", "properties": {}}, {"onestopId": "s-9q9ke2dj34-alumrock~josefigueres", "name": "ALUM ROCK & JOSE FIGUERES", "tags": {}, "geometry": {"type": "Point", "coordinates": [-121.846571, 37.357178]}, "servedBy": ["o-9q9-vta"], "identifiers": [{"identifier": "f-vta-s-3069", "tags": {"stop_lat": "37.357177999999998", "zone_id": "1", "stop_lon": "-121.846571", "stop_id": "3069", "stop_desc": "", "stop_name": "ALUM ROCK & JOSE FIGUERES"}}], "type": "Feature", "properties": {}}, {"onestopId": "s-9q9ke0rd29-alumrock~checkers", "name": "ALUM ROCK & CHECKERS", "tags": {}, "geometry": {"type": "Point", "coordinates": [-121.850028378, 37.355282599]}, "servedBy": ["o-9q9-vta"], "identifiers": [{"identifier": "f-vta-s-3028", "tags": {"stop_lat": "37.355282598999999", "zone_id": "1", "stop_lon": "-121.850028378", "stop_id": "3028", "stop_desc": "", "stop_name": "ALUM ROCK & CHECKERS"}}], "type": "Feature", "properties": {}}, {"onestopId": "s-9q9ketx4ux-toyon~cortese", "name": "TOYON & CORTESE", "tags": {}, "geometry": {"type": "Point", "coordinates": [-121.82856359, 37.384237951]}, "servedBy": ["o-9q9-vta"], "identifiers": [{"identifier": "f-vta-s-4032", "tags": {"stop_lat": "37.384237951000003", "zone_id": "1", "stop_lon": "-121.82856359", "stop_id": "4032", "stop_desc": "", "stop_name": "TOYON & CORTESE"}}], "type": "Feature", "properties": {}}, {"onestopId": "s-9q9kefcxrx-alumrock~pickford", "name": "ALUM ROCK & PICKFORD", "tags": {}, "geometry": {"type": "Point", "coordinates": [-121.825002565, 37.369907535]}, "servedBy": ["o-9q9-vta"], "identifiers": [{"identifier": "f-vta-s-3060", "tags": {"stop_lat": "37.369907535000003", "zone_id": "1", "stop_lon": "-121.82500256500001", "stop_id": "3060", "stop_desc": "", "stop_name": "ALUM ROCK & PICKFORD"}}], "type": "Feature", "properties": {}}, {"onestopId": "s-9q9kerf6m4-berryessa~piedmont", "name": "BERRYESSA & PIEDMONT", "tags": {}, "geometry": {"type": "Point", "coordinates": [-121.846053208, 37.396484892]}, "servedBy": ["o-9q9-vta"], "identifiers": [{"identifier": "f-vta-s-2850", "tags": {"stop_lat": "37.396484891999997", "zone_id": "1", "stop_lon": "-121.846053208", "stop_id": "2850", "stop_desc": "", "stop_name": "BERRYESSA & PIEDMONT"}}], "type": "Feature", "properties": {}}, {"onestopId": "s-9q9ken0s17-berryessa~capitol", "name": "BERRYESSA & CAPITOL", "tags": {}, "geometry": {"type": "Point", "coordinates": [-121.859608778, 37.387178426]}, "servedBy": ["o-9q9-vta"], "identifiers": [{"identifier": "f-vta-s-2842", "tags": {"stop_lat": "37.387178425999998", "zone_id": "1", "stop_lon": "-121.85960877799999", "stop_id": "2842", "stop_desc": "", "stop_name": "BERRYESSA & CAPITOL"}}], "type": "Feature", "properties": {}}, {"onestopId": "s-9q9keg7n16-alumrock~cragmont", "name": "ALUM ROCK & CRAGMONT", "tags": {}, "geometry": {"type": "Point", "coordinates": [-121.823213055, 37.372413964]}, "servedBy": ["o-9q9-vta"], "identifiers": [{"identifier": "f-vta-s-3044", "tags": {"stop_lat": "37.372413964000003", "zone_id": "1", "stop_lon": "-121.823213055", "stop_id": "3044", "stop_desc": "", "stop_name": "ALUM ROCK & CRAGMONT"}}], "type": "Feature", "properties": {}}, {"onestopId": "s-9q9ke1yrvs-mckee~ludlow", "name": "MCKEE & LUDLOW", "tags": {}, "geometry": {"type": "Point", "coordinates": [-121.85153102, 37.364485079]}, "servedBy": ["o-9q9-vta"], "identifiers": [{"identifier": "f-vta-s-4041", "tags": {"stop_lat": "37.364485078999998", "zone_id": "1", "stop_lon": "-121.85153102", "stop_id": "4041", "stop_desc": "", "stop_name": "MCKEE & LUDLOW"}}], "type": "Feature", "properties": {}}, {"onestopId": "s-9q9ke559ug-jackson~ashglen", "name": "JACKSON & ASHGLEN", "tags": {}, "geometry": {"type": "Point", "coordinates": [-121.855335482, 37.370314446]}, "servedBy": ["o-9q9-vta"], "identifiers": [{"identifier": "f-vta-s-3564", "tags": {"stop_lat": "37.370314446000002", "zone_id": "1", "stop_lon": "-121.855335482", "stop_id": "3564", "stop_desc": "", "stop_name": "JACKSON & ASHGLEN"}}], "type": "Feature", "properties": {}}, {"onestopId": "s-9q9kemupk0-white~kyle", "name": "WHITE & KYLE", "tags": {}, "geometry": {"type": "Point", "coordinates": [-121.843696186, 37.386346447]}, "servedBy": ["o-9q9-vta"], "identifiers": [{"identifier": "f-vta-s-3611", "tags": {"stop_lat": "37.386346447000001", "zone_id": "1", "stop_lon": "-121.843696186", "stop_id": "3611", "stop_desc": "", "stop_name": "WHITE & KYLE"}}], "type": "Feature", "properties": {}}, {"onestopId": "s-9q9kedj94c-alumrock~cedar", "name": "ALUM ROCK & CEDAR", "tags": {}, "geometry": {"type": "Point", "coordinates": [-121.830698943, 37.364681905]}, "servedBy": ["o-9q9-vta"], "identifiers": [{"identifier": "f-vta-s-3063", "tags": {"stop_lat": "37.364681904999998", "zone_id": "1", "stop_lon": "-121.830698943", "stop_id": "3063", "stop_desc": "", "stop_name": "ALUM ROCK & CEDAR"}}], "type": "Feature", "properties": {}}, {"onestopId": "s-9q9kerhjfw-piedmont~noble", "name": "PIEDMONT & NOBLE", "tags": {}, "geometry": {"type": "Point", "coordinates": [-121.84375617, 37.39298982]}, "servedBy": ["o-9q9-vta"], "identifiers": [{"identifier": "f-vta-s-3676", "tags": {"stop_lat": "37.392989819999997", "zone_id": "1", "stop_lon": "-121.84375617000001", "stop_id": "3676", "stop_desc": "", "stop_name": "PIEDMONT & NOBLE"}}], "type": "Feature", "properties": {}}, {"onestopId": "s-9q9ke08egs-king~mckee", "name": "KING & MCKEE", "tags": {}, "geometry": {"type": "Point", "coordinates": [-121.859507296, 37.356930132]}, "servedBy": ["o-9q9-vta"], "identifiers": [{"identifier": "f-vta-s-67", "tags": {"stop_lat": "37.356930132000002", "zone_id": "1", "stop_lon": "-121.859507296", "stop_id": "67", "stop_desc": "", "stop_name": "KING & MCKEE"}}], "type": "Feature", "properties": {}}, {"onestopId": "s-9q9keg6src-alumrock~cragmont", "name": "ALUM ROCK & CRAGMONT", "tags": {}, "geometry": {"type": "Point", "coordinates": [-121.82362355, 37.372107117]}, "servedBy": ["o-9q9-vta"], "identifiers": [{"identifier": "f-vta-s-3059", "tags": {"stop_lat": "37.372107116999999", "zone_id": "1", "stop_lon": "-121.82362354999999", "stop_id": "3059", "stop_desc": "", "stop_name": "ALUM ROCK & CRAGMONT"}}], "type": "Feature", "properties": {}}, {"onestopId": "s-9q9kejk34d-penitenciacreektransit", "name": "PENITENCIA CREEK TRANSIT CENTER", "tags": {}, "geometry": {"type": "Point", "coordinates": [-121.85440718, 37.38254079]}, "servedBy": ["o-9q9-vta"], "identifiers": [{"identifier": "f-vta-s-5335", "tags": {"stop_lat": "37.38254079", "zone_id": "1", "stop_lon": "-121.85440718", "stop_id": "5335", "stop_desc": "", "stop_name": "PENITENCIA CREEK TRANSIT CENTER"}}], "type": "Feature", "properties": {}}, {"onestopId": "s-9q9ke9dsk7-alumrock~capitol", "name": "ALUM ROCK & CAPITOL", "tags": {}, "geometry": {"type": "Point", "coordinates": [-121.834752987, 37.362501078]}, "servedBy": ["o-9q9-vta"], "identifiers": [{"identifier": "f-vta-s-3038", "tags": {"stop_lat": "37.362501078000001", "zone_id": "1", "stop_lon": "-121.834752987", "stop_id": "3038", "stop_desc": "", "stop_name": "ALUM ROCK & CAPITOL"}}], "type": "Feature", "properties": {}}, {"onestopId": "s-9q9ke5bfmr-jackson~mabury", "name": "JACKSON & MABURY", "tags": {}, "geometry": {"type": "Point", "coordinates": [-121.859086347, 37.374542421]}, "servedBy": ["o-9q9-vta"], "identifiers": [{"identifier": "f-vta-s-3514", "tags": {"stop_lat": "37.374542421000001", "zone_id": "1", "stop_lon": "-121.859086347", "stop_id": "3514", "stop_desc": "", "stop_name": "JACKSON & MABURY"}}], "type": "Feature", "properties": {}}, {"onestopId": "s-9q9ke9d2nq-capitol~alumrock", "name": "CAPITOL & ALUM ROCK", "tags": {}, "geometry": {"type": "Point", "coordinates": [-121.83501322, 37.36178937]}, "servedBy": ["o-9q9-vta"], "identifiers": [{"identifier": "f-vta-s-3864", "tags": {"stop_lat": "37.361789369999997", "zone_id": "1", "stop_lon": "-121.83501321999999", "stop_id": "3864", "stop_desc": "", "stop_name": "CAPITOL & ALUM ROCK"}}], "type": "Feature", "properties": {}}, {"onestopId": "s-9q9kevh41t-mckee~gordon", "name": "MCKEE & GORDON", "tags": {}, "geometry": {"type": "Point", "coordinates": [-121.82182477, 37.38135312]}, "servedBy": ["o-9q9-vta"], "identifiers": [{"identifier": "f-vta-s-5356", "tags": {"stop_lat": "37.38135312", "zone_id": "1", "stop_lon": "-121.82182477000001", "stop_id": "5356", "stop_desc": "", "stop_name": "MCKEE & GORDON"}}], "type": "Feature", "properties": {}}, {"onestopId": "s-9q9ke1e9j0-mckee~educationpark", "name": "MCKEE & EDUCATION PARK DRIVE", "tags": {}, "geometry": {"type": "Point", "coordinates": [-121.855322687, 37.36193084]}, "servedBy": ["o-9q9-vta"], "identifiers": [{"identifier": "f-vta-s-4043", "tags": {"stop_lat": "37.361930839999999", "zone_id": "1", "stop_lon": "-121.855322687", "stop_id": "4043", "stop_desc": "", "stop_name": "MCKEE & EDUCATION PARK DRIVE"}}], "type": "Feature", "properties": {}}, {"onestopId": "s-9q9kebmtur-story~white", "name": "STORY & WHITE", "tags": {}, "geometry": {"type": "Point", "coordinates": [-121.819652806, 37.355915929]}, "servedBy": ["o-9q9-vta"], "identifiers": [{"identifier": "f-vta-s-781", "tags": {"stop_lat": "37.355915928999998", "zone_id": "1", "stop_lon": "-121.81965280599999", "stop_id": "781", "stop_desc": "", "stop_name": "STORY & WHITE"}}], "type": "Feature", "properties": {}}, {"onestopId": "s-9q9kendd5g-berryessa~morrill", "name": "BERRYESSA & MORRILL", "tags": {}, "geometry": {"type": "Point", "coordinates": [-121.856754747, 37.38958073]}, "servedBy": ["o-9q9-vta"], "identifiers": [{"identifier": "f-vta-s-2853", "tags": {"stop_lat": "37.389580729999999", "zone_id": "1", "stop_lon": "-121.856754747", "stop_id": "2853", "stop_desc": "", "stop_name": "BERRYESSA & MORRILL"}}], "type": "Feature", "properties": {}}, {"onestopId": "s-9q9ke59km7-jackson~mabury", "name": "JACKSON & MABURY", "tags": {}, "geometry": {"type": "Point", "coordinates": [-121.85840219, 37.373490639]}, "servedBy": ["o-9q9-vta"], "identifiers": [{"identifier": "f-vta-s-3563", "tags": {"stop_lat": "37.373490639000003", "zone_id": "1", "stop_lon": "-121.85840219000001", "stop_id": "3563", "stop_desc": "", "stop_name": "JACKSON & MABURY"}}], "type": "Feature", "properties": {}}, {"onestopId": "s-9q9kewcxn0-penitenciacreek~lindavista", "name": "PENITENCIA CREEK & LINDA VISTA", "tags": {}, "geometry": {"type": "Point", "coordinates": [-121.836053382, 37.391797627]}, "servedBy": ["o-9q9-vta"], "identifiers": [{"identifier": "f-vta-s-4028", "tags": {"stop_lat": "37.391797627000003", "zone_id": "1", "stop_lon": "-121.836053382", "stop_id": "4028", "stop_desc": "", "stop_name": "PENITENCIA CREEK & LINDA VISTA"}}], "type": "Feature", "properties": {}}, {"onestopId": "s-9q9ke99ghd-alumrock~capitol", "name": "ALUM ROCK & CAPITOL", "tags": {}, "geometry": {"type": "Point", "coordinates": [-121.835780603, 37.36228342]}, "servedBy": ["o-9q9-vta"], "identifiers": [{"identifier": "f-vta-s-3065", "tags": {"stop_lat": "37.362283419999997", "zone_id": "1", "stop_lon": "-121.835780603", "stop_id": "3065", "stop_desc": "", "stop_name": "ALUM ROCK & CAPITOL"}}], "type": "Feature", "properties": {}}, {"onestopId": "s-9q9ke22q9j-alumrock~sunset", "name": "ALUM ROCK & SUNSET", "tags": {}, "geometry": {"type": "Point", "coordinates": [-121.848976529, 37.356033292]}, "servedBy": ["o-9q9-vta"], "identifiers": [{"identifier": "f-vta-s-3070", "tags": {"stop_lat": "37.356033291999999", "zone_id": "1", "stop_lon": "-121.848976529", "stop_id": "3070", "stop_desc": "", "stop_name": "ALUM ROCK & SUNSET"}}], "type": "Feature", "properties": {}}, {"onestopId": "s-9q9kee7v0h-white~warmsprings", "name": "WHITE & WARM SPRINGS", "tags": {}, "geometry": {"type": "Point", "coordinates": [-121.833218527, 37.372248305]}, "servedBy": ["o-9q9-vta"], "identifiers": [{"identifier": "f-vta-s-3606", "tags": {"stop_lat": "37.372248304999999", "zone_id": "1", "stop_lon": "-121.833218527", "stop_id": "3606", "stop_desc": "", "stop_name": "WHITE & WARM SPRINGS"}}], "type": "Feature", "properties": {}}, {"onestopId": "s-9q9ke4nzqe-jackson~mckee", "name": "JACKSON & MCKEE", "tags": {}, "geometry": {"type": "Point", "coordinates": [-121.850793234, 37.365766693]}, "servedBy": ["o-9q9-vta"], "identifiers": [{"identifier": "f-vta-s-3566", "tags": {"stop_lat": "37.365766692999998", "zone_id": "1", "stop_lon": "-121.85079323399999", "stop_id": "3566", "stop_desc": "", "stop_name": "JACKSON & MCKEE"}}], "type": "Feature", "properties": {}}, {"onestopId": "s-9q9kepdu97-sierra~zion", "name": "SIERRA & ZION", "tags": {}, "geometry": {"type": "Point", "coordinates": [-121.856510763, 37.395507346]}, "servedBy": ["o-9q9-vta"], "identifiers": [{"identifier": "f-vta-s-4583", "tags": {"stop_lat": "37.395507346000002", "zone_id": "1", "stop_lon": "-121.856510763", "stop_id": "4583", "stop_desc": "", "stop_name": "SIERRA & ZION"}}], "type": "Feature", "properties": {}}, {"onestopId": "s-9q9ke0bhr9-mckee~king", "name": "MCKEE & KING", "tags": {}, "geometry": {"type": "Point", "coordinates": [-121.860028539, 37.358370664]}, "servedBy": ["o-9q9-vta"], "identifiers": [{"identifier": "f-vta-s-4018", "tags": {"stop_lat": "37.358370663999999", "zone_id": "1", "stop_lon": "-121.860028539", "stop_id": "4018", "stop_desc": "", "stop_name": "MCKEE & KING"}}], "type": "Feature", "properties": {}}, {"onestopId": "s-9q9kekz3r4-white~patt", "name": "WHITE & PATT", "tags": {}, "geometry": {"type": "Point", "coordinates": [-121.839099693, 37.379835458]}, "servedBy": ["o-9q9-vta"], "identifiers": [{"identifier": "f-vta-s-3608", "tags": {"stop_lat": "37.379835458000002", "zone_id": "1", "stop_lon": "-121.83909969299999", "stop_id": "3608", "stop_desc": "", "stop_name": "WHITE & PATT"}}], "type": "Feature", "properties": {}}, {"onestopId": "s-9q9kec9t48-white~easthills", "name": "WHITE & EASTHILLS", "tags": {}, "geometry": {"type": "Point", "coordinates": [-121.825220703, 37.362615195]}, "servedBy": ["o-9q9-vta"], "identifiers": [{"identifier": "f-vta-s-3682", "tags": {"stop_lat": "37.362615194999997", "zone_id": "1", "stop_lon": "-121.825220703", "stop_id": "3682", "stop_desc": "", "stop_name": "WHITE & EASTHILLS"}}], "type": "Feature", "properties": {}}, {"onestopId": "s-9q9ke36mbt-jackson~madden", "name": "JACKSON & MADDEN", "tags": {}, "geometry": {"type": "Point", "coordinates": [-121.846244453, 37.361397722]}, "servedBy": ["o-9q9-vta"], "identifiers": [{"identifier": "f-vta-s-3509", "tags": {"stop_lat": "37.361397722", "zone_id": "1", "stop_lon": "-121.846244453", "stop_id": "3509", "stop_desc": "", "stop_name": "JACKSON & MADDEN"}}], "type": "Feature", "properties": {}}, {"onestopId": "s-9q9ke9vqvn-alumrock~cedar", "name": "ALUM ROCK & CEDAR", "tags": {}, "geometry": {"type": "Point", "coordinates": [-121.830944829, 37.364321043]}, "servedBy": ["o-9q9-vta"], "identifiers": [{"identifier": "f-vta-s-3040", "tags": {"stop_lat": "37.364321042999997", "zone_id": "1", "stop_lon": "-121.830944829", "stop_id": "3040", "stop_desc": "", "stop_name": "ALUM ROCK & CEDAR"}}], "type": "Feature", "properties": {}}, {"onestopId": "s-9q9kehttfn-capitol~wiliford", "name": "CAPITOL & WILIFORD", "tags": {}, "geometry": {"type": "Point", "coordinates": [-121.85271188, 37.37925749]}, "servedBy": ["o-9q9-vta"], "identifiers": [{"identifier": "f-vta-s-3857", "tags": {"stop_lat": "37.379257490000001", "zone_id": "1", "stop_lon": "-121.85271188", "stop_id": "3857", "stop_desc": "", "stop_name": "CAPITOL & WILIFORD"}}], "type": "Feature", "properties": {}}, {"onestopId": "s-9q9ke76z6w-mckeestation1", "name": "MCKEE STATION (1)", "tags": {}, "geometry": {"type": "Point", "coordinates": [-121.84547695, 37.37264794]}, "servedBy": ["o-9q9-vta"], "identifiers": [{"identifier": "f-vta-s-5244", "tags": {"stop_lat": "37.37264794", "zone_id": "1", "stop_lon": "-121.84547695000001", "stop_id": "5244", "stop_desc": "", "stop_name": "MCKEE STATION (1)"}}], "type": "Feature", "properties": {}}, {"onestopId": "s-9q9keehb4r-white~gay", "name": "WHITE & GAY", "tags": {}, "geometry": {"type": "Point", "coordinates": [-121.831754041, 37.370033639]}, "servedBy": ["o-9q9-vta"], "identifiers": [{"identifier": "f-vta-s-3036", "tags": {"stop_lat": "37.370033638999999", "zone_id": "1", "stop_lon": "-121.831754041", "stop_id": "3036", "stop_desc": "", "stop_name": "WHITE & GAY"}}], "type": "Feature", "properties": {}}, {"onestopId": "s-9q9keuhsvm-alumrock~kirk", "name": "ALUM ROCK & KIRK", "tags": {}, "geometry": {"type": "Point", "coordinates": [-121.820986414, 37.376331931]}, "servedBy": ["o-9q9-vta"], "identifiers": [{"identifier": "f-vta-s-3057", "tags": {"stop_lat": "37.376331931000003", "zone_id": "1", "stop_lon": "-121.820986414", "stop_id": "3057", "stop_desc": "", "stop_name": "ALUM ROCK & KIRK"}}], "type": "Feature", "properties": {}}, {"onestopId": "s-9q9keeb39e-francis~mckee", "name": "FRANCIS & MCKEE", "tags": {}, "geometry": {"type": "Point", "coordinates": [-121.837961024, 37.374389003]}, "servedBy": ["o-9q9-vta"], "identifiers": [{"identifier": "f-vta-s-5583", "tags": {"stop_lat": "37.374389002999997", "zone_id": "1", "stop_lon": "-121.83796102399999", "stop_id": "5583", "stop_desc": "", "stop_name": "FRANCIS & MCKEE"}}], "type": "Feature", "properties": {}}, {"onestopId": "s-9q9ke626zr-mckee~interstate680", "name": "MCKEE & INTERSTATE 680", "tags": {}, "geometry": {"type": "Point", "coordinates": [-121.848704057, 37.366386306]}, "servedBy": ["o-9q9-vta"], "identifiers": [{"identifier": "f-vta-s-4040", "tags": {"stop_lat": "37.366386306000003", "zone_id": "1", "stop_lon": "-121.84870405700001", "stop_id": "4040", "stop_desc": "", "stop_name": "MCKEE & INTERSTATE 680"}}], "type": "Feature", "properties": {}}, {"onestopId": "s-9q9kenvetq-berryessa~summerdale", "name": "BERRYESSA & SUMMER DALE", "tags": {}, "geometry": {"type": "Point", "coordinates": [-121.85257109, 37.391229619]}, "servedBy": ["o-9q9-vta"], "identifiers": [{"identifier": "f-vta-s-5346", "tags": {"stop_lat": "37.391229619000001", "zone_id": "1", "stop_lon": "-121.85257109", "stop_id": "5346", "stop_desc": "", "stop_name": "BERRYESSA & SUMMER DALE"}}], "type": "Feature", "properties": {}}, {"onestopId": "s-9q9ke7j71g-mckee~capitol", "name": "MCKEE & CAPITOL", "tags": {}, "geometry": {"type": "Point", "coordinates": [-121.84207928, 37.370526577]}, "servedBy": ["o-9q9-vta"], "identifiers": [{"identifier": "f-vta-s-4025", "tags": {"stop_lat": "37.370526577", "zone_id": "1", "stop_lon": "-121.84207927999999", "stop_id": "4025", "stop_desc": "", "stop_name": "MCKEE & CAPITOL"}}], "type": "Feature", "properties": {}}, {"onestopId": "s-9q9kewgqmf-toyon~freeman", "name": "TOYON & FREEMAN", "tags": {}, "geometry": {"type": "Point", "coordinates": [-121.833665697, 37.39167923]}, "servedBy": ["o-9q9-vta"], "identifiers": [{"identifier": "f-vta-s-4029", "tags": {"stop_lat": "37.391679230000001", "zone_id": "1", "stop_lon": "-121.833665697", "stop_id": "4029", "stop_desc": "", "stop_name": "TOYON & FREEMAN"}}], "type": "Feature", "properties": {}}, {"onestopId": "s-9q9kegu55v-alumrock~elcampo", "name": "ALUM ROCK & EL CAMPO", "tags": {}, "geometry": {"type": "Point", "coordinates": [-121.821735, 37.374657]}, "servedBy": ["o-9q9-vta"], "identifiers": [{"identifier": "f-vta-s-3045", "tags": {"stop_lat": "37.374656999999999", "zone_id": "1", "stop_lon": "-121.821735", "stop_id": "3045", "stop_desc": "", "stop_name": "ALUM ROCK & EL CAMPO"}}], "type": "Feature", "properties": {}}, {"onestopId": "s-9q9kev0m50-toyon~mckee", "name": "TOYON & MCKEE", "tags": {}, "geometry": {"type": "Point", "coordinates": [-121.82691949, 37.38184167]}, "servedBy": ["o-9q9-vta"], "identifiers": [{"identifier": "f-vta-s-5316", "tags": {"stop_lat": "37.38184167", "zone_id": "1", "stop_lon": "-121.82691948999999", "stop_id": "5316", "stop_desc": "", "stop_name": "TOYON & MCKEE"}}], "type": "Feature", "properties": {}}, {"onestopId": "s-9q9kemt4k0-white~mabury", "name": "WHITE & MABURY", "tags": {}, "geometry": {"type": "Point", "coordinates": [-121.8423221, 37.384115383]}, "servedBy": ["o-9q9-vta"], "identifiers": [{"identifier": "f-vta-s-3610", "tags": {"stop_lat": "37.384115383000001", "zone_id": "1", "stop_lon": "-121.8423221", "stop_id": "3610", "stop_desc": "", "stop_name": "WHITE & MABURY"}}], "type": "Feature", "properties": {}}, {"onestopId": "s-9q9ke9u1f5-alumrock~pleasantridge", "name": "ALUM ROCK & PLEASANTRIDGE", "tags": {}, "geometry": {"type": "Point", "coordinates": [-121.832798363, 37.363446285]}, "servedBy": ["o-9q9-vta"], "identifiers": [{"identifier": "f-vta-s-3039", "tags": {"stop_lat": "37.363446285000002", "zone_id": "1", "stop_lon": "-121.83279836299999", "stop_id": "3039", "stop_desc": "", "stop_name": "ALUM ROCK & PLEASANTRIDGE"}}], "type": "Feature", "properties": {}}, {"onestopId": "s-9q9ke367kd-jackson~alexian", "name": "JACKSON & ALEXIAN", "tags": {}, "geometry": {"type": "Point", "coordinates": [-121.846080529, 37.360953001]}, "servedBy": ["o-9q9-vta"], "identifiers": [{"identifier": "f-vta-s-3568", "tags": {"stop_lat": "37.360953000999999", "zone_id": "1", "stop_lon": "-121.84608052900001", "stop_id": "3568", "stop_desc": "", "stop_name": "JACKSON & ALEXIAN"}}], "type": "Feature", "properties": {}}, {"onestopId": "s-9q9ken0w24-berryessa~capitol", "name": "BERRYESSA & CAPITOL", "tags": {}, "geometry": {"type": "Point", "coordinates": [-121.859663054, 37.387559668]}, "servedBy": ["o-9q9-vta"], "identifiers": [{"identifier": "f-vta-s-2854", "tags": {"stop_lat": "37.387559668000002", "zone_id": "1", "stop_lon": "-121.85966305399999", "stop_id": "2854", "stop_desc": "", "stop_name": "BERRYESSA & CAPITOL"}}], "type": "Feature", "properties": {}}, {"onestopId": "s-9q9ke5fjz6-mabury~lava", "name": "MABURY & LAVA", "tags": {}, "geometry": {"type": "Point", "coordinates": [-121.857284646, 37.375113575]}, "servedBy": ["o-9q9-vta"], "identifiers": [{"identifier": "f-vta-s-1649", "tags": {"stop_lat": "37.375113575", "zone_id": "1", "stop_lon": "-121.857284646", "stop_id": "1649", "stop_desc": "", "stop_name": "MABURY & LAVA"}}], "type": "Feature", "properties": {}}, {"onestopId": "s-9q9ke58ey7-mabury~jackson", "name": "MABURY & JACKSON", "tags": {}, "geometry": {"type": "Point", "coordinates": [-121.859388621, 37.373405234]}, "servedBy": ["o-9q9-vta"], "identifiers": [{"identifier": "f-vta-s-1636", "tags": {"stop_lat": "37.373405234000003", "zone_id": "1", "stop_lon": "-121.85938862099999", "stop_id": "1636", "stop_desc": "", "stop_name": "MABURY & JACKSON"}}], "type": "Feature", "properties": {}}, {"onestopId": "s-9q9ke7jmeb-mckee~capitol", "name": "MCKEE & CAPITOL", "tags": {}, "geometry": {"type": "Point", "coordinates": [-121.84199418, 37.370939281]}, "servedBy": ["o-9q9-vta"], "identifiers": [{"identifier": "f-vta-s-4038", "tags": {"stop_lat": "37.370939280999998", "zone_id": "1", "stop_lon": "-121.84199418", "stop_id": "4038", "stop_desc": "", "stop_name": "MCKEE & CAPITOL"}}], "type": "Feature", "properties": {}}, {"onestopId": "s-9q9ke11wwb-mckee~checkers", "name": "MCKEE & CHECKERS", "tags": {}, "geometry": {"type": "Point", "coordinates": [-121.858000627, 37.360124772]}, "servedBy": ["o-9q9-vta"], "identifiers": [{"identifier": "f-vta-s-4044", "tags": {"stop_lat": "37.360124771999999", "zone_id": "1", "stop_lon": "-121.858000627", "stop_id": "4044", "stop_desc": "", "stop_name": "MCKEE & CHECKERS"}}], "type": "Feature", "properties": {}}, {"onestopId": "s-9q9kemnjsd-white~nashville", "name": "WHITE & NASHVILLE", "tags": {}, "geometry": {"type": "Point", "coordinates": [-121.840931157, 37.381941429]}, "servedBy": ["o-9q9-vta"], "identifiers": [{"identifier": "f-vta-s-3677", "tags": {"stop_lat": "37.381941429000001", "zone_id": "1", "stop_lon": "-121.840931157", "stop_id": "3677", "stop_desc": "", "stop_name": "WHITE & NASHVILLE"}}], "type": "Feature", "properties": {}}, {"onestopId": "s-9q9kebts4f-white~story", "name": "WHITE & STORY", "tags": {}, "geometry": {"type": "Point", "coordinates": [-121.819721096, 37.356960626]}, "servedBy": ["o-9q9-vta"], "identifiers": [{"identifier": "f-vta-s-3600", "tags": {"stop_lat": "37.356960626000003", "zone_id": "1", "stop_lon": "-121.81972109599999", "stop_id": "3600", "stop_desc": "", "stop_name": "WHITE & STORY"}}], "type": "Feature", "properties": {}}, {"onestopId": "s-9q9kenvtk3-berryessa~matterhorn", "name": "BERRYESSA & MATTERHORN", "tags": {}, "geometry": {"type": "Point", "coordinates": [-121.85260871, 37.391505477]}, "servedBy": ["o-9q9-vta"], "identifiers": [{"identifier": "f-vta-s-2852", "tags": {"stop_lat": "37.391505477000003", "zone_id": "1", "stop_lon": "-121.85260871", "stop_id": "2852", "stop_desc": "", "stop_name": "BERRYESSA & MATTERHORN"}}], "type": "Feature", "properties": {}}, {"onestopId": "s-9q9ke8u605-alumrocktransit", "name": "ALUM ROCK TRANSIT CENTER", "tags": {}, "geometry": {"type": "Point", "coordinates": [-121.832539826, 37.357995845]}, "servedBy": ["o-9q9-vta"], "identifiers": [{"identifier": "f-vta-s-5045", "tags": {"stop_lat": "37.357995844999998", "zone_id": "1", "stop_lon": "-121.832539826", "stop_id": "5045", "stop_desc": "", "stop_name": "ALUM ROCK TRANSIT CENTER"}}], "type": "Feature", "properties": {}}, {"onestopId": "s-9q9kem4gkn-mabury~saltlake", "name": "MABURY & SALT LAKE", "tags": {}, "geometry": {"type": "Point", "coordinates": [-121.845414661, 37.38157473]}, "servedBy": ["o-9q9-vta"], "identifiers": [{"identifier": "f-vta-s-1638", "tags": {"stop_lat": "37.381574729999997", "zone_id": "1", "stop_lon": "-121.84541466100001", "stop_id": "1638", "stop_desc": "", "stop_name": "MABURY & SALT LAKE"}}], "type": "Feature", "properties": {}}, {"onestopId": "s-9q9ke0nr64-alumrock~mccreery", "name": "ALUM ROCK & MCCREERY", "tags": {}, "geometry": {"type": "Point", "coordinates": [-121.851681284, 37.354775854]}, "servedBy": ["o-9q9-vta"], "identifiers": [{"identifier": "f-vta-s-3071", "tags": {"stop_lat": "37.354775854000003", "zone_id": "1", "stop_lon": "-121.85168128399999", "stop_id": "3071", "stop_desc": "", "stop_name": "ALUM ROCK & MCCREERY"}}], "type": "Feature", "properties": {}}, {"onestopId": "s-9q9ke17zgh-mckee~ranchoverde", "name": "MCKEE & RANCHO VERDE", "tags": {}, "geometry": {"type": "Point", "coordinates": [-121.855064402, 37.361736396]}, "servedBy": ["o-9q9-vta"], "identifiers": [{"identifier": "f-vta-s-4020", "tags": {"stop_lat": "37.361736395999998", "zone_id": "1", "stop_lon": "-121.855064402", "stop_id": "4020", "stop_desc": "", "stop_name": "MCKEE & RANCHO VERDE"}}], "type": "Feature", "properties": {}}, {"onestopId": "s-9q9ke75yhj-mckeestation0", "name": "MCKEE STATION (0)", "tags": {}, "geometry": {"type": "Point", "coordinates": [-121.84403639, 37.37105676]}, "servedBy": ["o-9q9-vta"], "identifiers": [{"identifier": "f-vta-s-5241", "tags": {"stop_lat": "37.371056760000002", "zone_id": "1", "stop_lon": "-121.84403639", "stop_id": "5241", "stop_desc": "", "stop_name": "MCKEE STATION (0)"}}], "type": "Feature", "properties": {}}, {"onestopId": "s-9q9ke58txr-mabury~jackson", "name": "MABURY & JACKSON", "tags": {}, "geometry": {"type": "Point", "coordinates": [-121.859344549, 37.373728693]}, "servedBy": ["o-9q9-vta"], "identifiers": [{"identifier": "f-vta-s-1650", "tags": {"stop_lat": "37.373728692999997", "zone_id": "1", "stop_lon": "-121.859344549", "stop_id": "1650", "stop_desc": "", "stop_name": "MABURY & JACKSON"}}], "type": "Feature", "properties": {}}, {"onestopId": "s-9q9kedpgtm-white~alumrock", "name": "WHITE & ALUM ROCK", "tags": {}, "geometry": {"type": "Point", "coordinates": [-121.827502055, 37.365131868]}, "servedBy": ["o-9q9-vta"], "identifiers": [{"identifier": "f-vta-s-3681", "tags": {"stop_lat": "37.365131867999999", "zone_id": "1", "stop_lon": "-121.827502055", "stop_id": "3681", "stop_desc": "", "stop_name": "WHITE & ALUM ROCK"}}], "type": "Feature", "properties": {}}, {"onestopId": "s-9q9kejhp61-penitenciacreektransit", "name": "PENITENCIA CREEK TRANSIT CENTER", "tags": {}, "geometry": {"type": "Point", "coordinates": [-121.85477008, 37.38223279]}, "servedBy": ["o-9q9-vta"], "identifiers": [{"identifier": "f-vta-s-5314", "tags": {"stop_lat": "37.382232790000003", "zone_id": "1", "stop_lon": "-121.85477007999999", "stop_id": "5314", "stop_desc": "", "stop_name": "PENITENCIA CREEK TRANSIT CENTER"}}], "type": "Feature", "properties": {}}, {"onestopId": "s-9q9ke14r3q-mckee~checkers", "name": "MCKEE & CHECKERS", "tags": {}, "geometry": {"type": "Point", "coordinates": [-121.857204103, 37.360287622]}, "servedBy": ["o-9q9-vta"], "identifiers": [{"identifier": "f-vta-s-4019", "tags": {"stop_lat": "37.360287622000001", "zone_id": "1", "stop_lon": "-121.857204103", "stop_id": "4019", "stop_desc": "", "stop_name": "MCKEE & CHECKERS"}}], "type": "Feature", "properties": {}}, {"onestopId": "s-9q9kewcrnc-pentenciacreek~lindavista", "name": "PENTENCIA CREEK & LINDA VISTA", "tags": {}, "geometry": {"type": "Point", "coordinates": [-121.83637108, 37.39180264]}, "servedBy": ["o-9q9-vta"], "identifiers": [{"identifier": "f-vta-s-5350", "tags": {"stop_lat": "37.391802640000002", "zone_id": "1", "stop_lon": "-121.83637108000001", "stop_id": "5350", "stop_desc": "", "stop_name": "PENTENCIA CREEK & LINDA VISTA"}}], "type": "Feature", "properties": {}}, {"onestopId": "s-9q9ke4ppqm-jackson~mckee", "name": "JACKSON & MCKEE", "tags": {}, "geometry": {"type": "Point", "coordinates": [-121.85046551, 37.365777311]}, "servedBy": ["o-9q9-vta"], "identifiers": [{"identifier": "f-vta-s-3511", "tags": {"stop_lat": "37.365777311000002", "zone_id": "1", "stop_lon": "-121.85046551000001", "stop_id": "3511", "stop_desc": "", "stop_name": "JACKSON & MCKEE"}}], "type": "Feature", "properties": {}}, {"onestopId": "s-9q9kekxw6x-white~patt", "name": "WHITE & PATT", "tags": {}, "geometry": {"type": "Point", "coordinates": [-121.838949684, 37.379349227]}, "servedBy": ["o-9q9-vta"], "identifiers": [{"identifier": "f-vta-s-3678", "tags": {"stop_lat": "37.379349226999999", "zone_id": "1", "stop_lon": "-121.838949684", "stop_id": "3678", "stop_desc": "", "stop_name": "WHITE & PATT"}}], "type": "Feature", "properties": {}}, {"onestopId": "s-9q9ke8u5dr-alumrocktransit", "name": "ALUM ROCK TRANSIT CENTER", "tags": {}, "geometry": {"type": "Point", "coordinates": [-121.832780698, 37.358275965]}, "servedBy": ["o-9q9-vta"], "identifiers": [{"identifier": "f-vta-s-5047", "tags": {"stop_lat": "37.358275964999997", "zone_id": "1", "stop_lon": "-121.83278069799999", "stop_id": "5047", "stop_desc": "", "stop_name": "ALUM ROCK TRANSIT CENTER"}}], "type": "Feature", "properties": {}}, {"onestopId": "s-9q9kewsd1z-toyon~joanne", "name": "TOYON & JOANNE", "tags": {}, "geometry": {"type": "Point", "coordinates": [-121.83211615, 37.38960692]}, "servedBy": ["o-9q9-vta"], "identifiers": [{"identifier": "f-vta-s-5354", "tags": {"stop_lat": "37.389606919999999", "zone_id": "1", "stop_lon": "-121.83211615", "stop_id": "5354", "stop_desc": "", "stop_name": "TOYON & JOANNE"}}], "type": "Feature", "properties": {}}, {"onestopId": "s-9q9ke4uf69-jackson~brushglen", "name": "JACKSON & BRUSHGLEN", "tags": {}, "geometry": {"type": "Point", "coordinates": [-121.85371668, 37.369016798]}, "servedBy": ["o-9q9-vta"], "identifiers": [{"identifier": "f-vta-s-3512", "tags": {"stop_lat": "37.369016797999997", "zone_id": "1", "stop_lon": "-121.85371668000001", "stop_id": "3512", "stop_desc": "", "stop_name": "JACKSON & BRUSHGLEN"}}], "type": "Feature", "properties": {}}, {"onestopId": "s-9q9keqmjpr-white~fiji", "name": "WHITE & FIJI", "tags": {}, "geometry": {"type": "Point", "coordinates": [-121.842185615, 37.388746994]}, "servedBy": ["o-9q9-vta"], "identifiers": [{"identifier": "f-vta-s-3612", "tags": {"stop_lat": "37.388746994000002", "zone_id": "1", "stop_lon": "-121.84218561500001", "stop_id": "3612", "stop_desc": "", "stop_name": "WHITE & FIJI"}}], "type": "Feature", "properties": {}}, {"onestopId": "s-9q9ke2dh40-alumrock~josefigueres", "name": "ALUM ROCK & JOSE FIGUERES", "tags": {}, "geometry": {"type": "Point", "coordinates": [-121.846529188, 37.356952972]}, "servedBy": ["o-9q9-vta"], "identifiers": [{"identifier": "f-vta-s-3029", "tags": {"stop_lat": "37.356952972000002", "zone_id": "1", "stop_lon": "-121.84652918800001", "stop_id": "3029", "stop_desc": "", "stop_name": "ALUM ROCK & JOSE FIGUERES"}}], "type": "Feature", "properties": {}}, {"onestopId": "s-9q9kedpj15-alumrock~white", "name": "ALUM ROCK & WHITE", "tags": {}, "geometry": {"type": "Point", "coordinates": [-121.828718188, 37.365378357]}, "servedBy": ["o-9q9-vta"], "identifiers": [{"identifier": "f-vta-s-3041", "tags": {"stop_lat": "37.365378356999997", "zone_id": "1", "stop_lon": "-121.828718188", "stop_id": "3041", "stop_desc": "", "stop_name": "ALUM ROCK & WHITE"}}], "type": "Feature", "properties": {}}, {"onestopId": "s-9q9kedr1rt-white~alumrock", "name": "WHITE & ALUM ROCK", "tags": {}, "geometry": {"type": "Point", "coordinates": [-121.828437636, 37.366117368]}, "servedBy": ["o-9q9-vta"], "identifiers": [{"identifier": "f-vta-s-3037", "tags": {"stop_lat": "37.366117367999998", "zone_id": "1", "stop_lon": "-121.828437636", "stop_id": "3037", "stop_desc": "", "stop_name": "WHITE & ALUM ROCK"}}], "type": "Feature", "properties": {}}, {"onestopId": "s-9q9keuhdw5-alumrock~fleming", "name": "ALUM ROCK & FLEMING", "tags": {}, "geometry": {"type": "Point", "coordinates": [-121.820945432, 37.375938436]}, "servedBy": ["o-9q9-vta"], "identifiers": [{"identifier": "f-vta-s-3046", "tags": {"stop_lat": "37.375938435999998", "zone_id": "1", "stop_lon": "-121.820945432", "stop_id": "3046", "stop_desc": "", "stop_name": "ALUM ROCK & FLEMING"}}], "type": "Feature", "properties": {}}, {"onestopId": "s-9q9keqy35q-penitenciacreek~gridley", "name": "PENITENCIA CREEK & GRIDLEY", "tags": {}, "geometry": {"type": "Point", "coordinates": [-121.840634339, 37.3908001]}, "servedBy": ["o-9q9-vta"], "identifiers": [{"identifier": "f-vta-s-4027", "tags": {"stop_lat": "37.3908001", "zone_id": "1", "stop_lon": "-121.840634339", "stop_id": "4027", "stop_desc": "", "stop_name": "PENITENCIA CREEK & GRIDLEY"}}], "type": "Feature", "properties": {}}, {"onestopId": "s-9q9keuwphw-alumrock~mckee", "name": "ALUM ROCK & MCKEE", "tags": {}, "geometry": {"type": "Point", "coordinates": [-121.818951017, 37.379470403]}, "servedBy": ["o-9q9-vta"], "identifiers": [{"identifier": "f-vta-s-3055", "tags": {"stop_lat": "37.379470402999999", "zone_id": "1", "stop_lon": "-121.818951017", "stop_id": "3055", "stop_desc": "", "stop_name": "ALUM ROCK & MCKEE"}}], "type": "Feature", "properties": {}}, {"onestopId": "s-9q9kes19zh-white~mckee", "name": "WHITE & MCKEE", "tags": {}, "geometry": {"type": "Point", "coordinates": [-121.836015661, 37.375813211]}, "servedBy": ["o-9q9-vta"], "identifiers": [{"identifier": "f-vta-s-3607", "tags": {"stop_lat": "37.375813211000001", "zone_id": "1", "stop_lon": "-121.836015661", "stop_id": "3607", "stop_desc": "", "stop_name": "WHITE & MCKEE"}}], "type": "Feature", "properties": {}}, {"onestopId": "s-9q9ke0nhf0-alumrock~mccreery", "name": "ALUM ROCK & MCCREERY", "tags": {}, "geometry": {"type": "Point", "coordinates": [-121.852022793, 37.354332077]}, "servedBy": ["o-9q9-vta"], "identifiers": [{"identifier": "f-vta-s-3027", "tags": {"stop_lat": "37.354332077000002", "zone_id": "1", "stop_lon": "-121.852022793", "stop_id": "3027", "stop_desc": "", "stop_name": "ALUM ROCK & MCCREERY"}}], "type": "Feature", "properties": {}}, {"onestopId": "s-9q9kebpp81-white~lieb", "name": "WHITE & LIEB", "tags": {}, "geometry": {"type": "Point", "coordinates": [-121.817778065, 37.3548131]}, "servedBy": ["o-9q9-vta"], "identifiers": [{"identifier": "f-vta-s-3599", "tags": {"stop_lat": "37.354813100000001", "zone_id": "1", "stop_lon": "-121.817778065", "stop_id": "3599", "stop_desc": "", "stop_name": "WHITE & LIEB"}}], "type": "Feature", "properties": {}}, {"onestopId": "s-9q9ke1v1j5-mckee~josefigueres", "name": "MCKEE & JOSE FIGUERES", "tags": {}, "geometry": {"type": "Point", "coordinates": [-121.853265425, 37.363319676]}, "servedBy": ["o-9q9-vta"], "identifiers": [{"identifier": "f-vta-s-4042", "tags": {"stop_lat": "37.363319676000003", "zone_id": "1", "stop_lon": "-121.853265425", "stop_id": "4042", "stop_desc": "", "stop_name": "MCKEE & JOSE FIGUERES"}}], "type": "Feature", "properties": {}}, {"onestopId": "s-9q9kee7sjg-white~warmsprings", "name": "WHITE & WARM SPRINGS", "tags": {}, "geometry": {"type": "Point", "coordinates": [-121.83332166, 37.372072802]}, "servedBy": ["o-9q9-vta"], "identifiers": [{"identifier": "f-vta-s-3680", "tags": {"stop_lat": "37.372072801999998", "zone_id": "1", "stop_lon": "-121.83332166", "stop_id": "3680", "stop_desc": "", "stop_name": "WHITE & WARM SPRINGS"}}], "type": "Feature", "properties": {}}, {"onestopId": "s-9q9ke2up9r-jackson~alumrock", "name": "JACKSON & ALUM ROCK", "tags": {}, "geometry": {"type": "Point", "coordinates": [-121.843811198, 37.358963614]}, "servedBy": ["o-9q9-vta"], "identifiers": [{"identifier": "f-vta-s-3508", "tags": {"stop_lat": "37.358963613999997", "zone_id": "1", "stop_lon": "-121.843811198", "stop_id": "3508", "stop_desc": "", "stop_name": "JACKSON & ALUM ROCK"}}], "type": "Feature", "properties": {}}, {"onestopId": "s-9q9ke8ggp6-alumrocktransit", "name": "ALUM ROCK TRANSIT CENTER", "tags": {}, "geometry": {"type": "Point", "coordinates": [-121.832917724, 37.358166259]}, "servedBy": ["o-9q9-vta"], "identifiers": [{"identifier": "f-vta-s-5048", "tags": {"stop_lat": "37.358166259000001", "zone_id": "1", "stop_lon": "-121.832917724", "stop_id": "5048", "stop_desc": "", "stop_name": "ALUM ROCK TRANSIT CENTER"}}], "type": "Feature", "properties": {}}, {"onestopId": "s-9q9kehwwy2-mabury~capitol", "name": "MABURY & CAPITOL", "tags": {}, "geometry": {"type": "Point", "coordinates": [-121.851151854, 37.379397528]}, "servedBy": ["o-9q9-vta"], "identifiers": [{"identifier": "f-vta-s-1648", "tags": {"stop_lat": "37.379397527999998", "zone_id": "1", "stop_lon": "-121.85115185399999", "stop_id": "1648", "stop_desc": "", "stop_name": "MABURY & CAPITOL"}}], "type": "Feature", "properties": {}}, {"onestopId": "s-9q9ke8udcu-alumrockstation0", "name": "ALUM ROCK STATION (0)", "tags": {}, "geometry": {"type": "Point", "coordinates": [-121.83212036, 37.35813414]}, "servedBy": ["o-9q9-vta"], "identifiers": [{"identifier": "f-vta-s-5242", "tags": {"stop_lat": "37.358134139999997", "zone_id": "1", "stop_lon": "-121.83212036", "stop_id": "5242", "stop_desc": "", "stop_name": "ALUM ROCK STATION (0)"}}], "type": "Feature", "properties": {}}, {"onestopId": "s-9q9ke2utvv-alumrock~jackson", "name": "ALUM ROCK & JACKSON", "tags": {}, "geometry": {"type": "Point", "coordinates": [-121.842938642, 37.358652166]}, "servedBy": ["o-9q9-vta"], "identifiers": [{"identifier": "f-vta-s-3030", "tags": {"stop_lat": "37.358652165999999", "zone_id": "1", "stop_lon": "-121.84293864199999", "stop_id": "3030", "stop_desc": "", "stop_name": "ALUM ROCK & JACKSON"}}], "type": "Feature", "properties": {}}, {"onestopId": "s-9q9kepew04-sierra~matterhorn", "name": "SIERRA & MATTERHORN", "tags": {}, "geometry": {"type": "Point", "coordinates": [-121.85553866, 37.3957552]}, "servedBy": ["o-9q9-vta"], "identifiers": [{"identifier": "f-vta-s-2847", "tags": {"stop_lat": "37.395755200000004", "zone_id": "1", "stop_lon": "-121.85553865999999", "stop_id": "2847", "stop_desc": "", "stop_name": "SIERRA & MATTERHORN"}}], "type": "Feature", "properties": {}}, {"onestopId": "s-9q9kere8cz-piedmont~whitman", "name": "PIEDMONT & WHITMAN", "tags": {}, "geometry": {"type": "Point", "coordinates": [-121.844475028, 37.394885458]}, "servedBy": ["o-9q9-vta"], "identifiers": [{"identifier": "f-vta-s-3614", "tags": {"stop_lat": "37.394885457999997", "zone_id": "1", "stop_lon": "-121.84447502800001", "stop_id": "3614", "stop_desc": "", "stop_name": "PIEDMONT & WHITMAN"}}], "type": "Feature", "properties": {}}, {"onestopId": "s-9q9ke2u6xj-jackson~alumrock", "name": "JACKSON & ALUM ROCK", "tags": {}, "geometry": {"type": "Point", "coordinates": [-121.843225509, 37.358093867]}, "servedBy": ["o-9q9-vta"], "identifiers": [{"identifier": "f-vta-s-3569", "tags": {"stop_lat": "37.358093867000001", "zone_id": "1", "stop_lon": "-121.84322550900001", "stop_id": "3569", "stop_desc": "", "stop_name": "JACKSON & ALUM ROCK"}}], "type": "Feature", "properties": {}}, {"onestopId": "s-9q9kepd0c7-sierra~sanmoritz", "name": "SIERRA & SAN MORITZ", "tags": {}, "geometry": {"type": "Point", "coordinates": [-121.85754143, 37.39486385]}, "servedBy": ["o-9q9-vta"], "identifiers": [{"identifier": "f-vta-s-2846", "tags": {"stop_lat": "37.39486385", "zone_id": "1", "stop_lon": "-121.85754143", "stop_id": "2846", "stop_desc": "", "stop_name": "SIERRA & SAN MORITZ"}}], "type": "Feature", "properties": {}}]}