{"prefix": "9qbdz", "type": "FeatureCollection", "properties": {}, "features": [{"onestopId": "s-9qbdz2ryhp-srjcmendocino~mcconnell", "name": "SRJC Mendocino Av & McConnell Av", "tags": {}, "geometry": {"type": "Point", "coordinates": [-122.717453, 38.454594]}, "servedBy": ["o-9qb-goldengatetransit"], "identifiers": [{"identifier": "f-goldengatetransit-s-40960", "tags": {"stop_lat": "  38.454594", "stop_code": "40960", "stop_lon": "-122.717453", "stop_id": "40960", "stop_desc": "", "stop_name": "SRJC Mendocino Av & McConnell Av", "zone_id": "6"}}], "type": "Feature", "properties": {}}, {"onestopId": "s-9qbdz4pznh-cleveland~terry", "name": "Cleveland Av & Terry Ln", "tags": {}, "geometry": {"type": "Point", "coordinates": [-122.728355, 38.464363]}, "servedBy": ["o-9qb-goldengatetransit"], "identifiers": [{"identifier": "f-goldengatetransit-s-40953", "tags": {"stop_lat": "  38.464363", "stop_code": "40953", "stop_lon": "-122.728355", "stop_id": "40953", "stop_desc": "", "stop_name": "Cleveland Av & Terry Ln", "zone_id": "6"}}], "type": "Feature", "properties": {}}, {"onestopId": "s-9qbdz5sg6x-piner~range", "name": "Piner Rd & Range Av", "tags": {}, "geometry": {"type": "Point", "coordinates": [-122.73262, 38.47197]}, "servedBy": ["o-9qb-goldengatetransit"], "identifiers": [{"identifier": "f-goldengatetransit-s-40950", "tags": {"stop_lat": "  38.471970", "stop_code": "40950", "stop_lon": "-122.732620", "stop_id": "40950", "stop_desc": "", "stop_name": "Piner Rd & Range Av", "zone_id": "6"}}], "type": "Feature", "properties": {}}, {"onestopId": "s-9qbdz1xyyv-cleveland~steele", "name": "Cleveland Av & Steele Ln", "tags": {}, "geometry": {"type": "Point", "coordinates": [-122.728325, 38.461575]}, "servedBy": ["o-9qb-goldengatetransit"], "identifiers": [{"identifier": "f-goldengatetransit-s-40954", "tags": {"stop_lat": "  38.461575", "stop_code": "40954", "stop_lon": "-122.728325", "stop_id": "40954", "stop_desc": "", "stop_name": "Cleveland Av & Steele Ln", "zone_id": "6"}}], "type": "Feature", "properties": {}}, {"onestopId": "s-9qbdz3kn83-steele~meyers", "name": "Steele Ln & Meyers Dr", "tags": {}, "geometry": {"type": "Point", "coordinates": [-122.722763, 38.46014]}, "servedBy": ["o-9qb-goldengatetransit"], "identifiers": [{"identifier": "f-goldengatetransit-s-40956", "tags": {"stop_lat": "  38.460140", "stop_code": "40956", "stop_lon": "-122.722763", "stop_id": "40956", "stop_desc": "", "stop_name": "Steele Ln & Meyers Dr", "zone_id": "6"}}], "type": "Feature", "properties": {}}, {"onestopId": "s-9qbdz90n5n-mendocino~silva", "name": "Mendocino Av & Silva Av", "tags": {}, "geometry": {"type": "Point", "coordinates": [-122.717148, 38.458706]}, "servedBy": ["o-9qb-goldengatetransit"], "identifiers": [{"identifier": "f-goldengatetransit-s-40962", "tags": {"stop_lat": "  38.458706", "stop_code": "40962", "stop_lon": "-122.717148", "stop_id": "40962", "stop_desc": "", "stop_name": "Mendocino Av & Silva Av", "zone_id": "6"}}], "type": "Feature", "properties": {}}, {"onestopId": "s-9qbdz4xc4b-cleveland~statefarm", "name": "Cleveland Av & State Farm Dr", "tags": {}, "geometry": {"type": "Point", "coordinates": [-122.728493, 38.466057]}, "servedBy": ["o-9qb-goldengatetransit"], "identifiers": [{"identifier": "f-goldengatetransit-s-40955", "tags": {"stop_lat": "  38.466057", "stop_code": "40955", "stop_lon": "-122.728493", "stop_id": "40955", "stop_desc": "", "stop_name": "Cleveland Av & State Farm Dr", "zone_id": "6"}}], "type": "Feature", "properties": {}}, {"onestopId": "s-9qbdz2xbpk-srjcmendocino~mcconnell", "name": "SRJC Mendocino Av & McConnell Av", "tags": {}, "geometry": {"type": "Point", "coordinates": [-122.717308, 38.454918]}, "servedBy": ["o-9qb-goldengatetransit"], "identifiers": [{"identifier": "f-goldengatetransit-s-40961", "tags": {"stop_lat": "  38.454918", "stop_code": "40961", "stop_lon": "-122.717308", "stop_id": "40961", "stop_desc": "", "stop_name": "SRJC Mendocino Av & McConnell Av", "zone_id": "6"}}], "type": "Feature", "properties": {}}, {"onestopId": "s-9qbdz3w9b2-steele~oakview", "name": "Steele Ln & Oakview Ct", "tags": {}, "geometry": {"type": "Point", "coordinates": [-122.71933, 38.460693]}, "servedBy": ["o-9qb-goldengatetransit"], "identifiers": [{"identifier": "f-goldengatetransit-s-40958", "tags": {"stop_lat": "  38.460693", "stop_code": "40958", "stop_lon": "-122.719330", "stop_id": "40958", "stop_desc": "", "stop_name": "Steele Ln & Oakview Ct", "zone_id": "6"}}], "type": "Feature", "properties": {}}, {"onestopId": "s-9qbdz4pv4z-cleveland~terry", "name": "Cleveland Av & Terry Ln", "tags": {}, "geometry": {"type": "Point", "coordinates": [-122.728493, 38.464031]}, "servedBy": ["o-9qb-goldengatetransit"], "identifiers": [{"identifier": "f-goldengatetransit-s-40952", "tags": {"stop_lat": "  38.464031", "stop_code": "40952", "stop_lon": "-122.728493", "stop_id": "40952", "stop_desc": "", "stop_name": "Cleveland Av & Terry Ln", "zone_id": "6"}}], "type": "Feature", "properties": {}}, {"onestopId": "s-9qbdz5sk0e-piner~opal", "name": "Piner Rd & Opal Way", "tags": {}, "geometry": {"type": "Point", "coordinates": [-122.733391, 38.47208]}, "servedBy": ["o-9qb-goldengatetransit"], "identifiers": [{"identifier": "f-goldengatetransit-s-40951", "tags": {"stop_lat": "  38.472080", "stop_code": "40951", "stop_lon": "-122.733391", "stop_id": "40951", "stop_desc": "", "stop_name": "Piner Rd & Opal Way", "zone_id": "6"}}], "type": "Feature", "properties": {}}, {"onestopId": "s-9qbdz3w91y-steele~salem", "name": "Steele Ln & Salem Av", "tags": {}, "geometry": {"type": "Point", "coordinates": [-122.719261, 38.460594]}, "servedBy": ["o-9qb-goldengatetransit"], "identifiers": [{"identifier": "f-goldengatetransit-s-40957", "tags": {"stop_lat": "  38.460594", "stop_code": "40957", "stop_lon": "-122.719261", "stop_id": "40957", "stop_desc": "", "stop_name": "Steele Ln & Salem Av", "zone_id": "6"}}], "type": "Feature", "properties": {}}, {"onestopId": "s-9qbdz92104-mendocino~clement", "name": "Mendocino Av & Clement Av", "tags": {}, "geometry": {"type": "Point", "coordinates": [-122.717278, 38.459198]}, "servedBy": ["o-9qb-goldengatetransit"], "identifiers": [{"identifier": "f-goldengatetransit-s-40959", "tags": {"stop_lat": "  38.459198", "stop_code": "40959", "stop_lon": "-122.717278", "stop_id": "40959", "stop_desc": "", "stop_name": "Mendocino Av & Clement Av", "zone_id": "6"}}], "type": "Feature", "properties": {}}]}