{"prefix": "9qc01", "type": "FeatureCollection", "properties": {}, "features": [{"onestopId": "s-9qc011e6ve-appian~valleyview", "name": "Appian Way:Valley View Rd", "tags": {}, "geometry": {"type": "Point", "coordinates": [-122.295104, 37.977483]}, "servedBy": ["o-9q9-actransit"], "identifiers": [{"identifier": "f-actransit-s-9900200", "tags": {"stop_lat": "37.977483", "stop_code": "57701", "stop_lon": "-122.295104", "parent_station": "", "stop_id": "9900200", "stop_name": "Appian Way:Valley View Rd", "location_type": ""}}], "type": "Feature", "properties": {}}, {"onestopId": "s-9qc01498xg-manor~appian", "name": "Manor Rd:Appian Way", "tags": {}, "geometry": {"type": "Point", "coordinates": [-122.297412, 37.982589]}, "servedBy": ["o-9q9-actransit"], "identifiers": [{"identifier": "f-actransit-s-9900740", "tags": {"stop_lat": "37.982589", "stop_code": "52103", "stop_lon": "-122.297412", "parent_station": "", "stop_id": "9900740", "stop_name": "Manor Rd:Appian Way", "location_type": ""}}], "type": "Feature", "properties": {}}, {"onestopId": "s-9qc0122dzk-valleyview~morningside", "name": "Valley View Rd:Morningside Dr", "tags": {}, "geometry": {"type": "Point", "coordinates": [-122.287811, 37.970621]}, "servedBy": ["o-9q9-actransit"], "identifiers": [{"identifier": "f-actransit-s-1303830", "tags": {"stop_lat": "37.970621", "stop_code": "57876", "stop_lon": "-122.287811", "parent_station": "", "stop_id": "1303830", "stop_name": "Valley View Rd:Morningside Dr", "location_type": ""}}], "type": "Feature", "properties": {}}, {"onestopId": "s-9qc010njvm-may~santaritadeanzahighschool", "name": "May Rd:Santa Rita Rd (De Anza High School)", "tags": {}, "geometry": {"type": "Point", "coordinates": [-122.291333, 37.969769]}, "servedBy": ["o-9q9-actransit"], "identifiers": [{"identifier": "f-actransit-s-1302540", "tags": {"stop_lat": "37.969769", "stop_code": "55324", "stop_lon": "-122.291333", "parent_station": "", "stop_id": "1302540", "stop_name": "May Rd:Santa Rita Rd (De Anza High School)", "location_type": ""}}], "type": "Feature", "properties": {}}, {"onestopId": "s-9qc012833k-valleyview~may", "name": "Valley View Rd:May Rd", "tags": {}, "geometry": {"type": "Point", "coordinates": [-122.288417, 37.971734]}, "servedBy": ["o-9q9-actransit"], "identifiers": [{"identifier": "f-actransit-s-1303810", "tags": {"stop_lat": "37.971734", "stop_code": "50884", "stop_lon": "-122.288417", "parent_station": "", "stop_id": "1303810", "stop_name": "Valley View Rd:May Rd", "location_type": ""}}], "type": "Feature", "properties": {}}, {"onestopId": "s-9qc0150yup-appian~dalessi", "name": "Appian Way:Dalessi Dr", "tags": {}, "geometry": {"type": "Point", "coordinates": [-122.298602, 37.98643]}, "servedBy": ["o-9q9-actransit"], "identifiers": [{"identifier": "f-actransit-s-1200010", "tags": {"stop_lat": "37.986430", "stop_code": "56887", "stop_lon": "-122.298602", "parent_station": "", "stop_id": "1200010", "stop_name": "Appian Way:Dalessi Dr", "location_type": ""}}], "type": "Feature", "properties": {}}, {"onestopId": "s-9qc010xfwx-may~valleyview", "name": "May Rd:Valley View Rd", "tags": {}, "geometry": {"type": "Point", "coordinates": [-122.288877, 37.971966]}, "servedBy": ["o-9q9-actransit"], "identifiers": [{"identifier": "f-actransit-s-1302550", "tags": {"stop_lat": "37.971966", "stop_code": "58893", "stop_lon": "-122.288877", "parent_station": "", "stop_id": "1302550", "stop_name": "May Rd:Valley View Rd", "location_type": ""}}], "type": "Feature", "properties": {}}, {"onestopId": "s-9qc0116qmd-appian~fran", "name": "Appian Way:Fran Way", "tags": {}, "geometry": {"type": "Point", "coordinates": [-122.29647, 37.976704]}, "servedBy": ["o-9q9-actransit"], "identifiers": [{"identifier": "f-actransit-s-9900110", "tags": {"stop_lat": "37.976704", "stop_code": "59433", "stop_lon": "-122.296470", "parent_station": "", "stop_id": "9900110", "stop_name": "Appian Way:Fran Way", "location_type": ""}}], "type": "Feature", "properties": {}}, {"onestopId": "s-9qc0113d1b-appian~4950", "name": "Appian Way:#4950", "tags": {}, "geometry": {"type": "Point", "coordinates": [-122.297667, 37.975963]}, "servedBy": ["o-9q9-actransit"], "identifiers": [{"identifier": "f-actransit-s-9900070", "tags": {"stop_lat": "37.975963", "stop_code": "58006", "stop_lon": "-122.297667", "parent_station": "", "stop_id": "9900070", "stop_name": "Appian Way:#4950", "location_type": ""}}], "type": "Feature", "properties": {}}, {"onestopId": "s-9qc010n53n-may~santarita", "name": "May Rd:Santa Rita Rd", "tags": {}, "geometry": {"type": "Point", "coordinates": [-122.291517, 37.969344]}, "servedBy": ["o-9q9-actransit"], "identifiers": [{"identifier": "f-actransit-s-1302530", "tags": {"stop_lat": "37.969344", "stop_code": "56221", "stop_lon": "-122.291517", "parent_station": "", "stop_id": "1302530", "stop_name": "May Rd:Santa Rita Rd", "location_type": ""}}], "type": "Feature", "properties": {}}, {"onestopId": "s-9qc0122geg-valleyview~morningside", "name": "Valley View Rd:Morningside Dr", "tags": {}, "geometry": {"type": "Point", "coordinates": [-122.287621, 37.970742]}, "servedBy": ["o-9q9-actransit"], "identifiers": [{"identifier": "f-actransit-s-1303820", "tags": {"stop_lat": "37.970742", "stop_code": "58155", "stop_lon": "-122.287621", "parent_station": "", "stop_id": "1303820", "stop_name": "Valley View Rd:Morningside Dr", "location_type": ""}}], "type": "Feature", "properties": {}}, {"onestopId": "s-9qc01515r3-appian~allview", "name": "Appian Way:Allview Av", "tags": {}, "geometry": {"type": "Point", "coordinates": [-122.298111, 37.985798]}, "servedBy": ["o-9q9-actransit"], "identifiers": [{"identifier": "f-actransit-s-9900080", "tags": {"stop_lat": "37.985798", "stop_code": "50124", "stop_lon": "-122.298111", "parent_station": "", "stop_id": "9900080", "stop_name": "Appian Way:Allview Av", "location_type": ""}}], "type": "Feature", "properties": {}}, {"onestopId": "s-9qc0128j72-valleyview~may", "name": "Valley View Rd:May Rd", "tags": {}, "geometry": {"type": "Point", "coordinates": [-122.288677, 37.972398]}, "servedBy": ["o-9q9-actransit"], "identifiers": [{"identifier": "f-actransit-s-1303800", "tags": {"stop_lat": "37.972398", "stop_code": "56154", "stop_lon": "-122.288677", "parent_station": "", "stop_id": "1303800", "stop_name": "Valley View Rd:May Rd", "location_type": ""}}], "type": "Feature", "properties": {}}, {"onestopId": "s-9qc0120zj6-valleyview~morningside", "name": "Valley View Rd:Morningside Dr", "tags": {}, "geometry": {"type": "Point", "coordinates": [-122.287553, 37.969965]}, "servedBy": ["o-9q9-actransit"], "identifiers": [{"identifier": "f-actransit-s-9902920", "tags": {"stop_lat": "37.969965", "stop_code": "51328", "stop_lon": "-122.287553", "parent_station": "", "stop_id": "9902920", "stop_name": "Valley View Rd:Morningside Dr", "location_type": ""}}], "type": "Feature", "properties": {}}, {"onestopId": "s-9qc0143zcb-manor~appian", "name": "Manor Rd:Appian Way", "tags": {}, "geometry": {"type": "Point", "coordinates": [-122.297326, 37.982444]}, "servedBy": ["o-9q9-actransit"], "identifiers": [{"identifier": "f-actransit-s-9900750", "tags": {"stop_lat": "37.982444", "stop_code": "52106", "stop_lon": "-122.297326", "parent_station": "", "stop_id": "9900750", "stop_name": "Manor Rd:Appian Way", "location_type": ""}}], "type": "Feature", "properties": {}}, {"onestopId": "s-9qc0144n5t-appian~argyle", "name": "Appian Way:Argyle Rd", "tags": {}, "geometry": {"type": "Point", "coordinates": [-122.296905, 37.980796]}, "servedBy": ["o-9q9-actransit"], "identifiers": [{"identifier": "f-actransit-s-9901520", "tags": {"stop_lat": "37.980796", "stop_code": "52241", "stop_lon": "-122.296905", "parent_station": "", "stop_id": "9901520", "stop_name": "Appian Way:Argyle Rd", "location_type": ""}}], "type": "Feature", "properties": {}}, {"onestopId": "s-9qc0113e39-appian~rincon", "name": "Appian Way:Rincon Rd", "tags": {}, "geometry": {"type": "Point", "coordinates": [-122.29768, 37.976183]}, "servedBy": ["o-9q9-actransit"], "identifiers": [{"identifier": "f-actransit-s-9900170", "tags": {"stop_lat": "37.976183", "stop_code": "57729", "stop_lon": "-122.297680", "parent_station": "", "stop_id": "9900170", "stop_name": "Appian Way:Rincon Rd", "location_type": ""}}], "type": "Feature", "properties": {}}, {"onestopId": "s-9qc011fr7f-appian~postoffice", "name": "Appian Way:Post Office", "tags": {}, "geometry": {"type": "Point", "coordinates": [-122.296549, 37.979621]}, "servedBy": ["o-9q9-actransit"], "identifiers": [{"identifier": "f-actransit-s-9900160", "tags": {"stop_lat": "37.979621", "stop_code": "54122", "stop_lon": "-122.296549", "parent_station": "", "stop_id": "9900160", "stop_name": "Appian Way:Post Office", "location_type": ""}}], "type": "Feature", "properties": {}}]}