{"prefix": "9q9m3", "type": "FeatureCollection", "properties": {}, "features": [{"onestopId": "s-9q9m35zjer-osgood~prune", "name": "Osgood Rd:Prune Av", "tags": {}, "geometry": {"type": "Point", "coordinates": [-121.938484, 37.506933]}, "servedBy": ["o-9q9-actransit"], "identifiers": [{"identifier": "f-actransit-s-0704360", "tags": {"stop_lat": "37.506933", "stop_code": "57920", "stop_lon": "-121.938484", "parent_station": "", "stop_id": "0704360", "stop_name": "Osgood Rd:Prune Av", "location_type": ""}}], "type": "Feature", "properties": {}}, {"onestopId": "s-9q9m3jh36d-osgood~automall", "name": "Osgood Rd:Auto Mall Pkwy", "tags": {}, "geometry": {"type": "Point", "coordinates": [-121.942289, 37.513047]}, "servedBy": ["o-9q9-actransit"], "identifiers": [{"identifier": "f-actransit-s-0704300", "tags": {"stop_lat": "37.513047", "stop_code": "57261", "stop_lon": "-121.942289", "parent_station": "", "stop_id": "0704300", "stop_name": "Osgood Rd:Auto Mall Pkwy", "location_type": ""}}], "type": "Feature", "properties": {}}, {"onestopId": "s-9q9m3ecgc7-sgrimmer~ishi", "name": "S Grimmer Blvd:Ishi Dr", "tags": {}, "geometry": {"type": "Point", "coordinates": [-121.923805, 37.506614]}, "servedBy": ["o-9q9-actransit"], "identifiers": [{"identifier": "f-actransit-s-0705490", "tags": {"stop_lat": "37.506614", "stop_code": "51245", "stop_lon": "-121.923805", "parent_station": "", "stop_id": "0705490", "stop_name": "S Grimmer Blvd:Ishi Dr", "location_type": ""}}], "type": "Feature", "properties": {}}, {"onestopId": "s-9q9m3097pd-landing~fremont", "name": "Landing Pkwy:Fremont Blvd", "tags": {}, "geometry": {"type": "Point", "coordinates": [-121.946201, 37.488626]}, "servedBy": ["o-9q9-actransit"], "identifiers": [{"identifier": "f-actransit-s-0703180", "tags": {"stop_lat": "37.488626", "stop_code": "54870", "stop_lon": "-121.946201", "parent_station": "", "stop_id": "0703180", "stop_name": "Landing Pkwy:Fremont Blvd", "location_type": ""}}], "type": "Feature", "properties": {}}, {"onestopId": "s-9q9m3jh8md-osgood~automall", "name": "Osgood Rd:Auto Mall Pkwy", "tags": {}, "geometry": {"type": "Point", "coordinates": [-121.941822, 37.512875]}, "servedBy": ["o-9q9-actransit"], "identifiers": [{"identifier": "f-actransit-s-0704310", "tags": {"stop_lat": "37.512875", "stop_code": "55172", "stop_lon": "-121.941822", "parent_station": "", "stop_id": "0704310", "stop_name": "Osgood Rd:Auto Mall Pkwy", "location_type": ""}}], "type": "Feature", "properties": {}}, {"onestopId": "s-9q9m33p1c9-mission~mohave", "name": "Mission Blvd:Mohave Dr", "tags": {}, "geometry": {"type": "Point", "coordinates": [-121.927571, 37.491154]}, "servedBy": ["o-9q9-actransit"], "identifiers": [{"identifier": "f-actransit-s-0703550", "tags": {"stop_lat": "37.491154", "stop_code": "55277", "stop_lon": "-121.927571", "parent_station": "", "stop_id": "0703550", "stop_name": "Mission Blvd:Mohave Dr", "location_type": ""}}], "type": "Feature", "properties": {}}, {"onestopId": "s-9q9m3j5k0e-automall~osgood", "name": "Auto Mall Pkwy:Osgood Rd", "tags": {}, "geometry": {"type": "Point", "coordinates": [-121.943749, 37.513523]}, "servedBy": ["o-9q9-actransit"], "identifiers": [{"identifier": "f-actransit-s-0700240", "tags": {"stop_lat": "37.513523", "stop_code": "53785", "stop_lon": "-121.943749", "parent_station": "", "stop_id": "0700240", "stop_name": "Auto Mall Pkwy:Osgood Rd", "location_type": ""}}], "type": "Feature", "properties": {}}, {"onestopId": "s-9q9m3je445-osgood~osgood", "name": "Osgood Rd:Osgood Ct", "tags": {}, "geometry": {"type": "Point", "coordinates": [-121.94403, 37.515924]}, "servedBy": ["o-9q9-actransit"], "identifiers": [{"identifier": "f-actransit-s-0704340", "tags": {"stop_lat": "37.515924", "stop_code": "52263", "stop_lon": "-121.944030", "parent_station": "", "stop_id": "0704340", "stop_name": "Osgood Rd:Osgood Ct", "location_type": ""}}], "type": "Feature", "properties": {}}, {"onestopId": "s-9q9m37ym7u-paseopadre~sgrimmer", "name": "Paseo Padre Pkwy:S Grimmer Blvd", "tags": {}, "geometry": {"type": "Point", "coordinates": [-121.92851, 37.506876]}, "servedBy": ["o-9q9-actransit"], "identifiers": [{"identifier": "f-actransit-s-0705010", "tags": {"stop_lat": "37.506876", "stop_code": "54943", "stop_lon": "-121.928510", "parent_station": "", "stop_id": "0705010", "stop_name": "Paseo Padre Pkwy:S Grimmer Blvd", "location_type": ""}}], "type": "Feature", "properties": {}}, {"onestopId": "s-9q9m3ru2j3-paseopadre~quema", "name": "Paseo Padre Pkwy:Quema Dr", "tags": {}, "geometry": {"type": "Point", "coordinates": [-121.931186, 37.527933]}, "servedBy": ["o-9q9-actransit"], "identifiers": [{"identifier": "f-actransit-s-0704960", "tags": {"stop_lat": "37.527933", "stop_code": "54658", "stop_lon": "-121.931186", "parent_station": "", "stop_id": "0704960", "stop_name": "Paseo Padre Pkwy:Quema Dr", "location_type": ""}}], "type": "Feature", "properties": {}}, {"onestopId": "s-9q9m3ksb9m-paseopadre~parkmeadow", "name": "Paseo Padre Pkwy:Parkmeadow Dr", "tags": {}, "geometry": {"type": "Point", "coordinates": [-121.930674, 37.510186]}, "servedBy": ["o-9q9-actransit"], "identifiers": [{"identifier": "f-actransit-s-0704900", "tags": {"stop_lat": "37.510186", "stop_code": "54143", "stop_lon": "-121.930674", "parent_station": "", "stop_id": "0704900", "stop_name": "Paseo Padre Pkwy:Parkmeadow Dr", "location_type": ""}}], "type": "Feature", "properties": {}}, {"onestopId": "s-9q9m3w2ttc-paseopadre~upland", "name": "Paseo Padre Pkwy:Upland Way", "tags": {}, "geometry": {"type": "Point", "coordinates": [-121.92533, 37.520637]}, "servedBy": ["o-9q9-actransit"], "identifiers": [{"identifier": "f-actransit-s-0705200", "tags": {"stop_lat": "37.520637", "stop_code": "56808", "stop_lon": "-121.925330", "parent_station": "", "stop_id": "0705200", "stop_name": "Paseo Padre Pkwy:Upland Way", "location_type": ""}}], "type": "Feature", "properties": {}}, {"onestopId": "s-9q9m3e2bnq-paseopadre~indianhillpl", "name": "Paseo Padre Pkwy:Indian Hill Pl", "tags": {}, "geometry": {"type": "Point", "coordinates": [-121.924961, 37.503239]}, "servedBy": ["o-9q9-actransit"], "identifiers": [{"identifier": "f-actransit-s-0704700", "tags": {"stop_lat": "37.503239", "stop_code": "51845", "stop_lon": "-121.924961", "parent_station": "", "stop_id": "0704700", "stop_name": "Paseo Padre Pkwy:Indian Hill Pl", "location_type": ""}}], "type": "Feature", "properties": {}}, {"onestopId": "s-9q9m37yt3d-paseopadre~sgrimmer", "name": "Paseo Padre Pkwy:S Grimmer Blvd", "tags": {}, "geometry": {"type": "Point", "coordinates": [-121.928257, 37.506865]}, "servedBy": ["o-9q9-actransit"], "identifiers": [{"identifier": "f-actransit-s-0705000", "tags": {"stop_lat": "37.506865", "stop_code": "50644", "stop_lon": "-121.928257", "parent_station": "", "stop_id": "0705000", "stop_name": "Paseo Padre Pkwy:S Grimmer Blvd", "location_type": ""}}], "type": "Feature", "properties": {}}, {"onestopId": "s-9q9m3xq13s-mission~pine", "name": "Mission Blvd:Pine Rd", "tags": {}, "geometry": {"type": "Point", "coordinates": [-121.917965, 37.525415]}, "servedBy": ["o-9q9-actransit"], "identifiers": [{"identifier": "f-actransit-s-9901850", "tags": {"stop_lat": "37.525415", "stop_code": "50903", "stop_lon": "-121.917965", "parent_station": "", "stop_id": "9901850", "stop_name": "Mission Blvd:Pine Rd", "location_type": ""}}], "type": "Feature", "properties": {}}, {"onestopId": "s-9q9m32nzhw-warmsprings~ewarren", "name": "Warm Springs Blvd:E Warren Av", "tags": {}, "geometry": {"type": "Point", "coordinates": [-121.927785, 37.486587]}, "servedBy": ["o-9q9-actransit"], "identifiers": [{"identifier": "f-actransit-s-0706360", "tags": {"stop_lat": "37.486587", "stop_code": "53503", "stop_lon": "-121.927785", "parent_station": "", "stop_id": "0706360", "stop_name": "Warm Springs Blvd:E Warren Av", "location_type": ""}}], "type": "Feature", "properties": {}}, {"onestopId": "s-9q9m3wqhyu-mission~hunter", "name": "Mission Blvd:Hunter Ln", "tags": {}, "geometry": {"type": "Point", "coordinates": [-121.91774, 37.520526]}, "servedBy": ["o-9q9-actransit"], "identifiers": [{"identifier": "f-actransit-s-9901870", "tags": {"stop_lat": "37.520526", "stop_code": "50906", "stop_lon": "-121.917740", "parent_station": "", "stop_id": "9901870", "stop_name": "Mission Blvd:Hunter Ln", "location_type": ""}}], "type": "Feature", "properties": {}}, {"onestopId": "s-9q9m32tveu-warmsprings~mission", "name": "Warm Springs Blvd:Mission Blvd", "tags": {}, "geometry": {"type": "Point", "coordinates": [-121.929188, 37.489066]}, "servedBy": ["o-9q9-actransit"], "identifiers": [{"identifier": "f-actransit-s-0706450", "tags": {"stop_lat": "37.489066", "stop_code": "55953", "stop_lon": "-121.929188", "parent_station": "", "stop_id": "0706450", "stop_name": "Warm Springs Blvd:Mission Blvd", "location_type": ""}}], "type": "Feature", "properties": {}}, {"onestopId": "s-9q9m3xkh1b-bryant~pine", "name": "Bryant St:Pine St", "tags": {}, "geometry": {"type": "Point", "coordinates": [-121.920699, 37.525866]}, "servedBy": ["o-9q9-actransit"], "identifiers": [{"identifier": "f-actransit-s-0700850", "tags": {"stop_lat": "37.525866", "stop_code": "57805", "stop_lon": "-121.920699", "parent_station": "", "stop_id": "0700850", "stop_name": "Bryant St:Pine St", "location_type": ""}}], "type": "Feature", "properties": {}}, {"onestopId": "s-9q9m3thcfb-mission~durham", "name": "Mission Blvd:Durham Rd", "tags": {}, "geometry": {"type": "Point", "coordinates": [-121.91962, 37.51312]}, "servedBy": ["o-9q9-actransit"], "identifiers": [{"identifier": "f-actransit-s-9901860", "tags": {"stop_lat": "37.513120", "stop_code": "50904", "stop_lon": "-121.919620", "parent_station": "", "stop_id": "9901860", "stop_name": "Mission Blvd:Durham Rd", "location_type": ""}}], "type": "Feature", "properties": {}}, {"onestopId": "s-9q9m3mhmzx-paseopadre~sioux", "name": "Paseo Padre Pkwy:Sioux Dr", "tags": {}, "geometry": {"type": "Point", "coordinates": [-121.931088, 37.513842]}, "servedBy": ["o-9q9-actransit"], "identifiers": [{"identifier": "f-actransit-s-0705070", "tags": {"stop_lat": "37.513842", "stop_code": "56860", "stop_lon": "-121.931088", "parent_station": "", "stop_id": "0705070", "stop_name": "Paseo Padre Pkwy:Sioux Dr", "location_type": ""}}], "type": "Feature", "properties": {}}, {"onestopId": "s-9q9m3tj4ey-mission~cougar", "name": "Mission Blvd:Cougar Dr", "tags": {}, "geometry": {"type": "Point", "coordinates": [-121.919241, 37.513283]}, "servedBy": ["o-9q9-actransit"], "identifiers": [{"identifier": "f-actransit-s-0703390", "tags": {"stop_lat": "37.513283", "stop_code": "53166", "stop_lon": "-121.919241", "parent_station": "", "stop_id": "0703390", "stop_name": "Mission Blvd:Cougar Dr", "location_type": ""}}], "type": "Feature", "properties": {}}, {"onestopId": "s-9q9m3xq5xd-mission~pine", "name": "Mission Blvd:Pine St", "tags": {}, "geometry": {"type": "Point", "coordinates": [-121.917704, 37.52579]}, "servedBy": ["o-9q9-actransit"], "identifiers": [{"identifier": "f-actransit-s-0703640", "tags": {"stop_lat": "37.525790", "stop_code": "59800", "stop_lon": "-121.917704", "parent_station": "", "stop_id": "0703640", "stop_name": "Mission Blvd:Pine St", "location_type": ""}}], "type": "Feature", "properties": {}}, {"onestopId": "s-9q9m3wmgxr-mission~hunter", "name": "Mission Blvd:Hunter Ln", "tags": {}, "geometry": {"type": "Point", "coordinates": [-121.918055, 37.520326]}, "servedBy": ["o-9q9-actransit"], "identifiers": [{"identifier": "f-actransit-s-0703450", "tags": {"stop_lat": "37.520326", "stop_code": "53228", "stop_lon": "-121.918055", "parent_station": "", "stop_id": "0703450", "stop_name": "Mission Blvd:Hunter Ln", "location_type": ""}}], "type": "Feature", "properties": {}}, {"onestopId": "s-9q9m3dsuf6-mission~paseopadre", "name": "Mission Blvd:Paseo Padre Pkwy", "tags": {}, "geometry": {"type": "Point", "coordinates": [-121.919647, 37.499915]}, "servedBy": ["o-9q9-actransit"], "identifiers": [{"identifier": "f-actransit-s-0703630", "tags": {"stop_lat": "37.499915", "stop_code": "55073", "stop_lon": "-121.919647", "parent_station": "", "stop_id": "0703630", "stop_name": "Mission Blvd:Paseo Padre Pkwy", "location_type": ""}}], "type": "Feature", "properties": {}}, {"onestopId": "s-9q9m3mk0g1-durham~paseopadre", "name": "Durham Rd:Paseo Padre Pkwy", "tags": {}, "geometry": {"type": "Point", "coordinates": [-121.931631, 37.514325]}, "servedBy": ["o-9q9-actransit"], "identifiers": [{"identifier": "f-actransit-s-0701600", "tags": {"stop_lat": "37.514325", "stop_code": "51970", "stop_lon": "-121.931631", "parent_station": "", "stop_id": "0701600", "stop_name": "Durham Rd:Paseo Padre Pkwy", "location_type": ""}}], "type": "Feature", "properties": {}}, {"onestopId": "s-9q9m3e28n3-paseopadre~sodaville", "name": "Paseo Padre Pkwy:Sodaville Ct", "tags": {}, "geometry": {"type": "Point", "coordinates": [-121.925307, 37.503214]}, "servedBy": ["o-9q9-actransit"], "identifiers": [{"identifier": "f-actransit-s-0705110", "tags": {"stop_lat": "37.503214", "stop_code": "54985", "stop_lon": "-121.925307", "parent_station": "", "stop_id": "0705110", "stop_name": "Paseo Padre Pkwy:Sodaville Ct", "location_type": ""}}], "type": "Feature", "properties": {}}, {"onestopId": "s-9q9m3euygg-mission~antelopesgrimmer", "name": "Mission Blvd:Antelope Dr (S Grimmer Blvd)", "tags": {}, "geometry": {"type": "Point", "coordinates": [-121.919582, 37.507127]}, "servedBy": ["o-9q9-actransit"], "identifiers": [{"identifier": "f-actransit-s-0703310", "tags": {"stop_lat": "37.507127", "stop_code": "53099", "stop_lon": "-121.919582", "parent_station": "", "stop_id": "0703310", "stop_name": "Mission Blvd:Antelope Dr (S Grimmer Blvd)", "location_type": ""}}], "type": "Feature", "properties": {}}, {"onestopId": "s-9q9m37gkzd-sgrimmer~parkmeadow", "name": "S Grimmer Blvd:Parkmeadow Dr", "tags": {}, "geometry": {"type": "Point", "coordinates": [-121.932463, 37.506778]}, "servedBy": ["o-9q9-actransit"], "identifiers": [{"identifier": "f-actransit-s-0705510", "tags": {"stop_lat": "37.506778", "stop_code": "58645", "stop_lon": "-121.932463", "parent_station": "", "stop_id": "0705510", "stop_name": "S Grimmer Blvd:Parkmeadow Dr", "location_type": ""}}], "type": "Feature", "properties": {}}, {"onestopId": "s-9q9m3kmcvy-paseopadre~kokoma", "name": "Paseo Padre Pkwy:Kokoma Rd", "tags": {}, "geometry": {"type": "Point", "coordinates": [-121.929111, 37.509031]}, "servedBy": ["o-9q9-actransit"], "identifiers": [{"identifier": "f-actransit-s-0704750", "tags": {"stop_lat": "37.509031", "stop_code": "52845", "stop_lon": "-121.929111", "parent_station": "", "stop_id": "0704750", "stop_name": "Paseo Padre Pkwy:Kokoma Rd", "location_type": ""}}], "type": "Feature", "properties": {}}, {"onestopId": "s-9q9m37yzks-sgrimmer~paseopadre", "name": "S Grimmer Blvd:Paseo Padre Pkwy", "tags": {}, "geometry": {"type": "Point", "coordinates": [-121.927786, 37.507219]}, "servedBy": ["o-9q9-actransit"], "identifiers": [{"identifier": "f-actransit-s-0705540", "tags": {"stop_lat": "37.507219", "stop_code": "51560", "stop_lon": "-121.927786", "parent_station": "", "stop_id": "0705540", "stop_name": "S Grimmer Blvd:Paseo Padre Pkwy", "location_type": ""}}], "type": "Feature", "properties": {}}, {"onestopId": "s-9q9m3mhhny-paseopadre~sioux", "name": "Paseo Padre Pkwy:Sioux Dr", "tags": {}, "geometry": {"type": "Point", "coordinates": [-121.931473, 37.513541]}, "servedBy": ["o-9q9-actransit"], "identifiers": [{"identifier": "f-actransit-s-0705080", "tags": {"stop_lat": "37.513541", "stop_code": "58560", "stop_lon": "-121.931473", "parent_station": "", "stop_id": "0705080", "stop_name": "Paseo Padre Pkwy:Sioux Dr", "location_type": ""}}], "type": "Feature", "properties": {}}, {"onestopId": "s-9q9m3kn0tj-sgrimmer~paseopadre", "name": "S Grimmer Blvd:Paseo Padre Pkwy", "tags": {}, "geometry": {"type": "Point", "coordinates": [-121.928793, 37.507438]}, "servedBy": ["o-9q9-actransit"], "identifiers": [{"identifier": "f-actransit-s-0705530", "tags": {"stop_lat": "37.507438", "stop_code": "51250", "stop_lon": "-121.928793", "parent_station": "", "stop_id": "0705530", "stop_name": "S Grimmer Blvd:Paseo Padre Pkwy", "location_type": ""}}], "type": "Feature", "properties": {}}, {"onestopId": "s-9q9m3eu9m7-mission~grimmer", "name": "Mission Blvd:Grimmer Blvd", "tags": {}, "geometry": {"type": "Point", "coordinates": [-121.919862, 37.506182]}, "servedBy": ["o-9q9-actransit"], "identifiers": [{"identifier": "f-actransit-s-9901750", "tags": {"stop_lat": "37.506182", "stop_code": "50873", "stop_lon": "-121.919862", "parent_station": "", "stop_id": "9901750", "stop_name": "Mission Blvd:Grimmer Blvd", "location_type": ""}}], "type": "Feature", "properties": {}}, {"onestopId": "s-9q9m3zc7by-ohlonecollegekeyc", "name": "Ohlone College-Key C", "tags": {}, "geometry": {"type": "Point", "coordinates": [-121.91353, 37.528604]}, "servedBy": ["o-9q9-actransit"], "identifiers": [{"identifier": "f-actransit-s-0704260", "tags": {"stop_lat": "37.528604", "stop_code": "57563", "stop_lon": "-121.913530", "parent_station": "", "stop_id": "0704260", "stop_name": "Ohlone College-Key C", "location_type": ""}}], "type": "Feature", "properties": {}}, {"onestopId": "s-9q9m3dswy1-paseopadre~mission", "name": "Paseo Padre Pkwy:Mission Blvd", "tags": {}, "geometry": {"type": "Point", "coordinates": [-121.919831, 37.500252]}, "servedBy": ["o-9q9-actransit"], "identifiers": [{"identifier": "f-actransit-s-0704790", "tags": {"stop_lat": "37.500252", "stop_code": "52370", "stop_lon": "-121.919831", "parent_station": "", "stop_id": "0704790", "stop_name": "Paseo Padre Pkwy:Mission Blvd", "location_type": ""}}], "type": "Feature", "properties": {}}, {"onestopId": "s-9q9m3zc6kp-ohlonecollegekeyc", "name": "Ohlone College-Key C", "tags": {}, "geometry": {"type": "Point", "coordinates": [-121.913386, 37.52835]}, "servedBy": ["o-9q9-actransit"], "identifiers": [{"identifier": "f-actransit-s-0704280", "tags": {"stop_lat": "37.528350", "stop_code": "55526", "stop_lon": "-121.913386", "parent_station": "", "stop_id": "0704280", "stop_name": "Ohlone College-Key C", "location_type": ""}}], "type": "Feature", "properties": {}}, {"onestopId": "s-9q9m3rmrnu-paseopadre~ocasocamino", "name": "Paseo Padre Pkwy:Ocaso Camino", "tags": {}, "geometry": {"type": "Point", "coordinates": [-121.929751, 37.526405]}, "servedBy": ["o-9q9-actransit"], "identifiers": [{"identifier": "f-actransit-s-0704850", "tags": {"stop_lat": "37.526405", "stop_code": "53845", "stop_lon": "-121.929751", "parent_station": "", "stop_id": "0704850", "stop_name": "Paseo Padre Pkwy:Ocaso Camino", "location_type": ""}}], "type": "Feature", "properties": {}}, {"onestopId": "s-9q9m37wvuh-paseopadre~onondaga", "name": "Paseo Padre Pkwy:Onondaga Way", "tags": {}, "geometry": {"type": "Point", "coordinates": [-121.927811, 37.50559]}, "servedBy": ["o-9q9-actransit"], "identifiers": [{"identifier": "f-actransit-s-0704870", "tags": {"stop_lat": "37.505590", "stop_code": "53670", "stop_lon": "-121.927811", "parent_station": "", "stop_id": "0704870", "stop_name": "Paseo Padre Pkwy:Onondaga Way", "location_type": ""}}], "type": "Feature", "properties": {}}, {"onestopId": "s-9q9m3qyrbk-paseopadre~pine", "name": "Paseo Padre Pkwy:Pine St", "tags": {}, "geometry": {"type": "Point", "coordinates": [-121.928658, 37.523783]}, "servedBy": ["o-9q9-actransit"], "identifiers": [{"identifier": "f-actransit-s-0704930", "tags": {"stop_lat": "37.523783", "stop_code": "54643", "stop_lon": "-121.928658", "parent_station": "", "stop_id": "0704930", "stop_name": "Paseo Padre Pkwy:Pine St", "location_type": ""}}], "type": "Feature", "properties": {}}, {"onestopId": "s-9q9m3du2hu-paseopadre~mission", "name": "Paseo Padre Pkwy:Mission Blvd", "tags": {}, "geometry": {"type": "Point", "coordinates": [-121.920224, 37.500482]}, "servedBy": ["o-9q9-actransit"], "identifiers": [{"identifier": "f-actransit-s-0704800", "tags": {"stop_lat": "37.500482", "stop_code": "53390", "stop_lon": "-121.920224", "parent_station": "", "stop_id": "0704800", "stop_name": "Paseo Padre Pkwy:Mission Blvd", "location_type": ""}}], "type": "Feature", "properties": {}}, {"onestopId": "s-9q9m32r08g-warmsprings~ewarren", "name": "Warm Springs Blvd:E Warren Av", "tags": {}, "geometry": {"type": "Point", "coordinates": [-121.927601, 37.486827]}, "servedBy": ["o-9q9-actransit"], "identifiers": [{"identifier": "f-actransit-s-0706350", "tags": {"stop_lat": "37.486827", "stop_code": "53153", "stop_lon": "-121.927601", "parent_station": "", "stop_id": "0706350", "stop_name": "Warm Springs Blvd:E Warren Av", "location_type": ""}}], "type": "Feature", "properties": {}}, {"onestopId": "s-9q9m30kbeh-landing46401", "name": "Landing Pkwy#46401", "tags": {}, "geometry": {"type": "Point", "coordinates": [-121.941587, 37.486835]}, "servedBy": ["o-9q9-actransit"], "identifiers": [{"identifier": "f-actransit-s-0707520", "tags": {"stop_lat": "37.486835", "stop_code": "50349", "stop_lon": "-121.941587", "parent_station": "", "stop_id": "0707520", "stop_name": "Landing Pkwy#46401", "location_type": ""}}], "type": "Feature", "properties": {}}, {"onestopId": "s-9q9m3ecfvx-sgrimmer~ishi", "name": "S Grimmer Blvd:Ishi Dr", "tags": {}, "geometry": {"type": "Point", "coordinates": [-121.92362, 37.506464]}, "servedBy": ["o-9q9-actransit"], "identifiers": [{"identifier": "f-actransit-s-0705500", "tags": {"stop_lat": "37.506464", "stop_code": "58534", "stop_lon": "-121.923620", "parent_station": "", "stop_id": "0705500", "stop_name": "S Grimmer Blvd:Ishi Dr", "location_type": ""}}], "type": "Feature", "properties": {}}, {"onestopId": "s-9q9m3kserg-paseopadre~parkmeadow", "name": "Paseo Padre Pkwy:Parkmeadow Dr", "tags": {}, "geometry": {"type": "Point", "coordinates": [-121.930739, 37.510649]}, "servedBy": ["o-9q9-actransit"], "identifiers": [{"identifier": "f-actransit-s-0704890", "tags": {"stop_lat": "37.510649", "stop_code": "52291", "stop_lon": "-121.930739", "parent_station": "", "stop_id": "0704890", "stop_name": "Paseo Padre Pkwy:Parkmeadow Dr", "location_type": ""}}], "type": "Feature", "properties": {}}, {"onestopId": "s-9q9m3hp0t0-osgood~prune", "name": "Osgood Rd:Prune Av", "tags": {}, "geometry": {"type": "Point", "coordinates": [-121.938411, 37.507415]}, "servedBy": ["o-9q9-actransit"], "identifiers": [{"identifier": "f-actransit-s-0704370", "tags": {"stop_lat": "37.507415", "stop_code": "50170", "stop_lon": "-121.938411", "parent_station": "", "stop_id": "0704370", "stop_name": "Osgood Rd:Prune Av", "location_type": ""}}], "type": "Feature", "properties": {}}, {"onestopId": "s-9q9m3dv48f-mission~paseopadre", "name": "Mission Blvd:Paseo Padre Pkwy", "tags": {}, "geometry": {"type": "Point", "coordinates": [-121.919362, 37.500898]}, "servedBy": ["o-9q9-actransit"], "identifiers": [{"identifier": "f-actransit-s-0703620", "tags": {"stop_lat": "37.500898", "stop_code": "52009", "stop_lon": "-121.919362", "parent_station": "", "stop_id": "0703620", "stop_name": "Mission Blvd:Paseo Padre Pkwy", "location_type": ""}}], "type": "Feature", "properties": {}}, {"onestopId": "s-9q9m33pjhu-mission~mohave", "name": "Mission Blvd:Mohave Dr", "tags": {}, "geometry": {"type": "Point", "coordinates": [-121.927433, 37.491729]}, "servedBy": ["o-9q9-actransit"], "identifiers": [{"identifier": "f-actransit-s-0703540", "tags": {"stop_lat": "37.491729", "stop_code": "54224", "stop_lon": "-121.927433", "parent_station": "", "stop_id": "0703540", "stop_name": "Mission Blvd:Mohave Dr", "location_type": ""}}], "type": "Feature", "properties": {}}, {"onestopId": "s-9q9m3j56df-automall~osgood", "name": "Auto Mall Pkwy:Osgood Rd", "tags": {}, "geometry": {"type": "Point", "coordinates": [-121.943656, 37.513259]}, "servedBy": ["o-9q9-actransit"], "identifiers": [{"identifier": "f-actransit-s-0700230", "tags": {"stop_lat": "37.513259", "stop_code": "52654", "stop_lon": "-121.943656", "parent_station": "", "stop_id": "0700230", "stop_name": "Auto Mall Pkwy:Osgood Rd", "location_type": ""}}], "type": "Feature", "properties": {}}, {"onestopId": "s-9q9m37gm20-sgrimmer~parkmeadow", "name": "S Grimmer Blvd:Parkmeadow Dr", "tags": {}, "geometry": {"type": "Point", "coordinates": [-121.932788, 37.506854]}, "servedBy": ["o-9q9-actransit"], "identifiers": [{"identifier": "f-actransit-s-0705520", "tags": {"stop_lat": "37.506854", "stop_code": "52296", "stop_lon": "-121.932788", "parent_station": "", "stop_id": "0705520", "stop_name": "S Grimmer Blvd:Parkmeadow Dr", "location_type": ""}}], "type": "Feature", "properties": {}}, {"onestopId": "s-9q9m3je68r-osgood~osgood", "name": "Osgood Rd:Osgood Ct", "tags": {}, "geometry": {"type": "Point", "coordinates": [-121.943762, 37.516031]}, "servedBy": ["o-9q9-actransit"], "identifiers": [{"identifier": "f-actransit-s-0704350", "tags": {"stop_lat": "37.516031", "stop_code": "55173", "stop_lon": "-121.943762", "parent_station": "", "stop_id": "0704350", "stop_name": "Osgood Rd:Osgood Ct", "location_type": ""}}], "type": "Feature", "properties": {}}, {"onestopId": "s-9q9m32wn6v-warmsprings~mission", "name": "Warm Springs Blvd:Mission Blvd", "tags": {}, "geometry": {"type": "Point", "coordinates": [-121.928888, 37.4892]}, "servedBy": ["o-9q9-actransit"], "identifiers": [{"identifier": "f-actransit-s-0706440", "tags": {"stop_lat": "37.489200", "stop_code": "56626", "stop_lon": "-121.928888", "parent_station": "", "stop_id": "0706440", "stop_name": "Warm Springs Blvd:Mission Blvd", "location_type": ""}}], "type": "Feature", "properties": {}}, {"onestopId": "s-9q9m37xm8e-paseopadre~onondaga", "name": "Paseo Padre Pkwy:Onondaga Way", "tags": {}, "geometry": {"type": "Point", "coordinates": [-121.927273, 37.505542]}, "servedBy": ["o-9q9-actransit"], "identifiers": [{"identifier": "f-actransit-s-0704880", "tags": {"stop_lat": "37.505542", "stop_code": "56170", "stop_lon": "-121.927273", "parent_station": "", "stop_id": "0704880", "stop_name": "Paseo Padre Pkwy:Onondaga Way", "location_type": ""}}], "type": "Feature", "properties": {}}, {"onestopId": "s-9q9m3kq330-paseopadre~cree", "name": "Paseo Padre Pkwy:Cree Rd", "tags": {}, "geometry": {"type": "Point", "coordinates": [-121.928626, 37.508916]}, "servedBy": ["o-9q9-actransit"], "identifiers": [{"identifier": "f-actransit-s-0704560", "tags": {"stop_lat": "37.508916", "stop_code": "50180", "stop_lon": "-121.928626", "parent_station": "", "stop_id": "0704560", "stop_name": "Paseo Padre Pkwy:Cree Rd", "location_type": ""}}], "type": "Feature", "properties": {}}, {"onestopId": "s-9q9m34011e-fremont~industrial", "name": "Fremont Blvd:Industrial Dr", "tags": {}, "geometry": {"type": "Point", "coordinates": [-121.948176, 37.496526]}, "servedBy": ["o-9q9-actransit"], "identifiers": [{"identifier": "f-actransit-s-0702450", "tags": {"stop_lat": "37.496526", "stop_code": "53445", "stop_lon": "-121.948176", "parent_station": "", "stop_id": "0702450", "stop_name": "Fremont Blvd:Industrial Dr", "location_type": ""}}], "type": "Feature", "properties": {}}, {"onestopId": "s-9q9m3xv89k-mission~cedar", "name": "Mission Blvd:Cedar St", "tags": {}, "geometry": {"type": "Point", "coordinates": [-121.918659, 37.528035]}, "servedBy": ["o-9q9-actransit"], "identifiers": [{"identifier": "f-actransit-s-0703380", "tags": {"stop_lat": "37.528035", "stop_code": "55733", "stop_lon": "-121.918659", "parent_station": "", "stop_id": "0703380", "stop_name": "Mission Blvd:Cedar St", "location_type": ""}}], "type": "Feature", "properties": {}}]}