{"prefix": "9q9ne", "type": "FeatureCollection", "properties": {}, "features": [{"onestopId": "s-9q9nemk3e9-empire~cairo", "name": "Empire Rd:Cairo Rd", "tags": {}, "geometry": {"type": "Point", "coordinates": [-122.194941, 37.734184]}, "servedBy": ["o-9q9-actransit"], "identifiers": [{"identifier": "f-actransit-s-1009890", "tags": {"stop_lat": "37.734184", "stop_code": "56648", "stop_lon": "-122.194941", "parent_station": "", "stop_id": "1009890", "stop_name": "Empire Rd:Cairo Rd", "location_type": ""}}], "type": "Feature", "properties": {}}, {"onestopId": "s-9q9neremg2-hegenberger~baldwin", "name": "Hegenberger Rd:Baldwin St", "tags": {}, "geometry": {"type": "Point", "coordinates": [-122.196318, 37.747264]}, "servedBy": ["o-9q9-actransit"], "identifiers": [{"identifier": "f-actransit-s-1012480", "tags": {"stop_lat": "37.747264", "stop_code": "51443", "stop_lon": "-122.196318", "parent_station": "", "stop_id": "1012480", "stop_name": "Hegenberger Rd:Baldwin St", "location_type": ""}}], "type": "Feature", "properties": {}}, {"onestopId": "s-9q9nebbs5q-williams~2051", "name": "Williams St:#2051", "tags": {}, "geometry": {"type": "Point", "coordinates": [-122.178126, 37.709918]}, "servedBy": ["o-9q9-actransit"], "identifiers": [{"identifier": "f-actransit-s-1504450", "tags": {"stop_lat": "37.709918", "stop_code": "50686", "stop_lon": "-122.178126", "parent_station": "", "stop_id": "1504450", "stop_name": "Williams St:#2051", "location_type": ""}}], "type": "Feature", "properties": {}}, {"onestopId": "s-9q9nemgc0x-hegenbergerlp~hegenberger", "name": "Hegenberger Lp:Hegenberger Rd", "tags": {}, "geometry": {"type": "Point", "coordinates": [-122.195756, 37.736874]}, "servedBy": ["o-9q9-actransit"], "identifiers": [{"identifier": "f-actransit-s-1012430", "tags": {"stop_lat": "37.736874", "stop_code": "58786", "stop_lon": "-122.195756", "parent_station": "", "stop_id": "1012430", "stop_name": "Hegenberger Lp:Hegenberger Rd", "location_type": ""}}], "type": "Feature", "properties": {}}, {"onestopId": "s-9q9neznmz9-98th~international", "name": "98th Av:International Blvd", "tags": {}, "geometry": {"type": "Point", "coordinates": [-122.170045, 37.744526]}, "servedBy": ["o-9q9-actransit"], "identifiers": [{"identifier": "f-actransit-s-1004410", "tags": {"stop_lat": "37.744526", "stop_code": "55030", "stop_lon": "-122.170045", "parent_station": "", "stop_id": "1004410", "stop_name": "98th Av:International Blvd", "location_type": ""}}], "type": "Feature", "properties": {}}, {"onestopId": "s-9q9negfd84-catron~bergedo", "name": "Catron Dr:Bergedo Dr", "tags": {}, "geometry": {"type": "Point", "coordinates": [-122.175516, 37.726122]}, "servedBy": ["o-9q9-actransit"], "identifiers": [{"identifier": "f-actransit-s-1007110", "tags": {"stop_lat": "37.726122", "stop_code": "52558", "stop_lon": "-122.175516", "parent_station": "", "stop_id": "1007110", "stop_name": "Catron Dr:Bergedo Dr", "location_type": ""}}], "type": "Feature", "properties": {}}, {"onestopId": "s-9q9nem628d-hegenberger~hegenbergerlpsouthjctn", "name": "Hegenberger Rd:Hegenberger Lp (South Jctn)", "tags": {}, "geometry": {"type": "Point", "coordinates": [-122.197807, 37.734014]}, "servedBy": ["o-9q9-actransit"], "identifiers": [{"identifier": "f-actransit-s-1012530", "tags": {"stop_lat": "37.734014", "stop_code": "59945", "stop_lon": "-122.197807", "parent_station": "", "stop_id": "1012530", "stop_name": "Hegenberger Rd:Hegenberger Lp (South Jctn)", "location_type": ""}}], "type": "Feature", "properties": {}}, {"onestopId": "s-9q9negp9h8-davis~preda", "name": "Davis St:Preda St", "tags": {}, "geometry": {"type": "Point", "coordinates": [-122.168461, 37.721732]}, "servedBy": ["o-9q9-actransit"], "identifiers": [{"identifier": "f-actransit-s-1500900", "tags": {"stop_lat": "37.721732", "stop_code": "50620", "stop_lon": "-122.168461", "parent_station": "", "stop_id": "1500900", "stop_name": "Davis St:Preda St", "location_type": ""}}], "type": "Feature", "properties": {}}, {"onestopId": "s-9q9nezsv07-international~94th", "name": "International Blvd:94th Av", "tags": {}, "geometry": {"type": "Point", "coordinates": [-122.172412, 37.747156]}, "servedBy": ["o-9q9-actransit"], "identifiers": [{"identifier": "f-actransit-s-1008850", "tags": {"stop_lat": "37.747156", "stop_code": "59533", "stop_lon": "-122.172412", "parent_station": "", "stop_id": "1008850", "stop_name": "International Blvd:94th Av", "location_type": ""}}], "type": "Feature", "properties": {}}, {"onestopId": "s-9q9neqp9ek-edes~phelps", "name": "Edes Av:Phelps St", "tags": {}, "geometry": {"type": "Point", "coordinates": [-122.190486, 37.738317]}, "servedBy": ["o-9q9-actransit"], "identifiers": [{"identifier": "f-actransit-s-1009630", "tags": {"stop_lat": "37.738317", "stop_code": "55786", "stop_lon": "-122.190486", "parent_station": "", "stop_id": "1009630", "stop_name": "Edes Av:Phelps St", "location_type": ""}}], "type": "Feature", "properties": {}}, {"onestopId": "s-9q9netsefn-98th~edes", "name": "98th Av:Edes Av", "tags": {}, "geometry": {"type": "Point", "coordinates": [-122.183673, 37.735971]}, "servedBy": ["o-9q9-actransit"], "identifiers": [{"identifier": "f-actransit-s-1004450", "tags": {"stop_lat": "37.735971", "stop_code": "59833", "stop_lon": "-122.183673", "parent_station": "", "stop_id": "1004450", "stop_name": "98th Av:Edes Av", "location_type": ""}}], "type": "Feature", "properties": {}}, {"onestopId": "s-9q9ner7m7f-hegenberger~collins", "name": "Hegenberger Rd:Collins Dr", "tags": {}, "geometry": {"type": "Point", "coordinates": [-122.196295, 37.745819]}, "servedBy": ["o-9q9-actransit"], "identifiers": [{"identifier": "f-actransit-s-1012490", "tags": {"stop_lat": "37.745819", "stop_code": "53899", "stop_lon": "-122.196295", "parent_station": "", "stop_id": "1012490", "stop_name": "Hegenberger Rd:Collins Dr", "location_type": ""}}], "type": "Feature", "properties": {}}, {"onestopId": "s-9q9ne87us9-williams~nome", "name": "Williams St:Nome St", "tags": {}, "geometry": {"type": "Point", "coordinates": [-122.184588, 37.707232]}, "servedBy": ["o-9q9-actransit"], "identifiers": [{"identifier": "f-actransit-s-1503660", "tags": {"stop_lat": "37.707232", "stop_code": "58798", "stop_lon": "-122.184588", "parent_station": "", "stop_id": "1503660", "stop_name": "Williams St:Nome St", "location_type": ""}}], "type": "Feature", "properties": {}}, {"onestopId": "s-9q9nep7gmn-edgewater~7303", "name": "Edgewater Dr:#7303", "tags": {}, "geometry": {"type": "Point", "coordinates": [-122.206549, 37.745494]}, "servedBy": ["o-9q9-actransit"], "identifiers": [{"identifier": "f-actransit-s-1009660", "tags": {"stop_lat": "37.745494", "stop_code": "56062", "stop_lon": "-122.206549", "parent_station": "", "stop_id": "1009660", "stop_name": "Edgewater Dr:#7303", "location_type": ""}}], "type": "Feature", "properties": {}}, {"onestopId": "s-9q9nemk4rz-cairo~empire", "name": "Cairo Rd:Empire Rd", "tags": {}, "geometry": {"type": "Point", "coordinates": [-122.195092, 37.734345]}, "servedBy": ["o-9q9-actransit"], "identifiers": [{"identifier": "f-actransit-s-1006960", "tags": {"stop_lat": "37.734345", "stop_code": "51885", "stop_lon": "-122.195092", "parent_station": "", "stop_id": "1006960", "stop_name": "Cairo Rd:Empire Rd", "location_type": ""}}], "type": "Feature", "properties": {}}, {"onestopId": "s-9q9nevstbn-105th~e", "name": "105th Av:E St", "tags": {}, "geometry": {"type": "Point", "coordinates": [-122.172765, 37.736314]}, "servedBy": ["o-9q9-actransit"], "identifiers": [{"identifier": "f-actransit-s-1000080", "tags": {"stop_lat": "37.736314", "stop_code": "51451", "stop_lon": "-122.172765", "parent_station": "", "stop_id": "1000080", "stop_name": "105th Av:E St", "location_type": ""}}], "type": "Feature", "properties": {}}, {"onestopId": "s-9q9neu8q48-capistrano~almanza", "name": "Capistrano Dr:Almanza Dr", "tags": {}, "geometry": {"type": "Point", "coordinates": [-122.178495, 37.730828]}, "servedBy": ["o-9q9-actransit"], "identifiers": [{"identifier": "f-actransit-s-1007080", "tags": {"stop_lat": "37.730828", "stop_code": "57221", "stop_lon": "-122.178495", "parent_station": "", "stop_id": "1007080", "stop_name": "Capistrano Dr:Almanza Dr", "location_type": ""}}], "type": "Feature", "properties": {}}, {"onestopId": "s-9q9nepv92e-hassler~oakport", "name": "Hassler Way:Oakport St", "tags": {}, "geometry": {"type": "Point", "coordinates": [-122.204333, 37.747883]}, "servedBy": ["o-9q9-actransit"], "identifiers": [{"identifier": "f-actransit-s-1012350", "tags": {"stop_lat": "37.747883", "stop_code": "51750", "stop_lon": "-122.204333", "parent_station": "", "stop_id": "1012350", "stop_name": "Hassler Way:Oakport St", "location_type": ""}}], "type": "Feature", "properties": {}}, {"onestopId": "s-9q9ne8t11p-williams~doolittle", "name": "Williams St:Doolittle Dr", "tags": {}, "geometry": {"type": "Point", "coordinates": [-122.183029, 37.708039]}, "servedBy": ["o-9q9-actransit"], "identifiers": [{"identifier": "f-actransit-s-1504260", "tags": {"stop_lat": "37.708039", "stop_code": "53804", "stop_lon": "-122.183029", "parent_station": "", "stop_id": "1504260", "stop_name": "Williams St:Doolittle Dr", "location_type": ""}}], "type": "Feature", "properties": {}}, {"onestopId": "s-9q9netkk9q-98th~maddux", "name": "98th Av:Maddux Dr", "tags": {}, "geometry": {"type": "Point", "coordinates": [-122.184046, 37.734724]}, "servedBy": ["o-9q9-actransit"], "identifiers": [{"identifier": "f-actransit-s-1004510", "tags": {"stop_lat": "37.734724", "stop_code": "56685", "stop_lon": "-122.184046", "parent_station": "", "stop_id": "1004510", "stop_name": "98th Av:Maddux Dr", "location_type": ""}}], "type": "Feature", "properties": {}}, {"onestopId": "s-9q9neyz5jd-international~100th", "name": "International Blvd:100th Av", "tags": {}, "geometry": {"type": "Point", "coordinates": [-122.169096, 37.742684]}, "servedBy": ["o-9q9-actransit"], "identifiers": [{"identifier": "f-actransit-s-1008240", "tags": {"stop_lat": "37.742684", "stop_code": "51445", "stop_lon": "-122.169096", "parent_station": "", "stop_id": "1008240", "stop_name": "International Blvd:100th Av", "location_type": ""}}], "type": "Feature", "properties": {}}, {"onestopId": "s-9q9neudj8h-acalanes~colorados", "name": "Acalanes Dr:Colorados Dr", "tags": {}, "geometry": {"type": "Point", "coordinates": [-122.176201, 37.730764]}, "servedBy": ["o-9q9-actransit"], "identifiers": [{"identifier": "f-actransit-s-1004740", "tags": {"stop_lat": "37.730764", "stop_code": "51337", "stop_lon": "-122.176201", "parent_station": "", "stop_id": "1004740", "stop_name": "Acalanes Dr:Colorados Dr", "location_type": ""}}], "type": "Feature", "properties": {}}, {"onestopId": "s-9q9nebv8nb-merced~marina", "name": "Merced St:Marina Blvd", "tags": {}, "geometry": {"type": "Point", "coordinates": [-122.171103, 37.709203]}, "servedBy": ["o-9q9-actransit"], "identifiers": [{"identifier": "f-actransit-s-1504410", "tags": {"stop_lat": "37.709203", "stop_code": "50673", "stop_lon": "-122.171103", "parent_station": "", "stop_id": "1504410", "stop_name": "Merced St:Marina Blvd", "location_type": ""}}], "type": "Feature", "properties": {}}, {"onestopId": "s-9q9nec4vp0-williams~westgate", "name": "Williams St:Westgate Pkwy", "tags": {}, "geometry": {"type": "Point", "coordinates": [-122.174877, 37.71143]}, "servedBy": ["o-9q9-actransit"], "identifiers": [{"identifier": "f-actransit-s-1504430", "tags": {"stop_lat": "37.711430", "stop_code": "50679", "stop_lon": "-122.174877", "parent_station": "", "stop_id": "1504430", "stop_name": "Williams St:Westgate Pkwy", "location_type": ""}}], "type": "Feature", "properties": {}}, {"onestopId": "s-9q9nec9y1t-westgate~walmart", "name": "Westgate Pkwy:#Walmart", "tags": {}, "geometry": {"type": "Point", "coordinates": [-122.176482, 37.714379]}, "servedBy": ["o-9q9-actransit"], "identifiers": [{"identifier": "f-actransit-s-1504350", "tags": {"stop_lat": "37.714379", "stop_code": "50424", "stop_lon": "-122.176482", "parent_station": "", "stop_id": "1504350", "stop_name": "Westgate Pkwy:#Walmart", "location_type": ""}}], "type": "Feature", "properties": {}}, {"onestopId": "s-9q9nenwkt9-edgewater~roland", "name": "Edgewater Dr:Roland Way", "tags": {}, "geometry": {"type": "Point", "coordinates": [-122.203092, 37.741562]}, "servedBy": ["o-9q9-actransit"], "identifiers": [{"identifier": "f-actransit-s-1009750", "tags": {"stop_lat": "37.741562", "stop_code": "53882", "stop_lon": "-122.203092", "parent_station": "", "stop_id": "1009750", "stop_name": "Edgewater Dr:Roland Way", "location_type": ""}}], "type": "Feature", "properties": {}}, {"onestopId": "s-9q9neyp6jf-105th~graffian", "name": "105th Av:Graffian St", "tags": {}, "geometry": {"type": "Point", "coordinates": [-122.168751, 37.738394]}, "servedBy": ["o-9q9-actransit"], "identifiers": [{"identifier": "f-actransit-s-1000110", "tags": {"stop_lat": "37.738394", "stop_code": "57996", "stop_lon": "-122.168751", "parent_station": "", "stop_id": "1000110", "stop_name": "105th Av:Graffian St", "location_type": ""}}], "type": "Feature", "properties": {}}, {"onestopId": "s-9q9nettjeu-edes~98th", "name": "Edes Av:98th Av", "tags": {}, "geometry": {"type": "Point", "coordinates": [-122.182907, 37.736261]}, "servedBy": ["o-9q9-actransit"], "identifiers": [{"identifier": "f-actransit-s-1009560", "tags": {"stop_lat": "37.736261", "stop_code": "59669", "stop_lon": "-122.182907", "parent_station": "", "stop_id": "1009560", "stop_name": "Edes Av:98th Av", "location_type": ""}}], "type": "Feature", "properties": {}}, {"onestopId": "s-9q9nemh8dt-empire~tunis", "name": "Empire Rd:Tunis Rd", "tags": {}, "geometry": {"type": "Point", "coordinates": [-122.194634, 37.73266]}, "servedBy": ["o-9q9-actransit"], "identifiers": [{"identifier": "f-actransit-s-1009930", "tags": {"stop_lat": "37.732660", "stop_code": "53886", "stop_lon": "-122.194634", "parent_station": "", "stop_id": "1009930", "stop_name": "Empire Rd:Tunis Rd", "location_type": ""}}], "type": "Feature", "properties": {}}, {"onestopId": "s-9q9nekveh3-empire~wistar", "name": "Empire Rd:Wistar Rd", "tags": {}, "geometry": {"type": "Point", "coordinates": [-122.193192, 37.731694]}, "servedBy": ["o-9q9-actransit"], "identifiers": [{"identifier": "f-actransit-s-1009940", "tags": {"stop_lat": "37.731694", "stop_code": "55137", "stop_lon": "-122.193192", "parent_station": "", "stop_id": "1009940", "stop_name": "Empire Rd:Wistar Rd", "location_type": ""}}], "type": "Feature", "properties": {}}, {"onestopId": "s-9q9nenrd1x-edgewater~8001", "name": "Edgewater Dr:#8001", "tags": {}, "geometry": {"type": "Point", "coordinates": [-122.201543, 37.739796]}, "servedBy": ["o-9q9-actransit"], "identifiers": [{"identifier": "f-actransit-s-1009680", "tags": {"stop_lat": "37.739796", "stop_code": "53881", "stop_lon": "-122.201543", "parent_station": "", "stop_id": "1009680", "stop_name": "Edgewater Dr:#8001", "location_type": ""}}], "type": "Feature", "properties": {}}, {"onestopId": "s-9q9nemcgd9-edgewater~pendleton", "name": "Edgewater Dr:Pendleton Way", "tags": {}, "geometry": {"type": "Point", "coordinates": [-122.198413, 37.737272]}, "servedBy": ["o-9q9-actransit"], "identifiers": [{"identifier": "f-actransit-s-1009740", "tags": {"stop_lat": "37.737272", "stop_code": "52858", "stop_lon": "-122.198413", "parent_station": "", "stop_id": "1009740", "stop_name": "Edgewater Dr:Pendleton Way", "location_type": ""}}], "type": "Feature", "properties": {}}, {"onestopId": "s-9q9netcnm2-edes~jones", "name": "Edes Av:Jones Av", "tags": {}, "geometry": {"type": "Point", "coordinates": [-122.188338, 37.73774]}, "servedBy": ["o-9q9-actransit"], "identifiers": [{"identifier": "f-actransit-s-1009610", "tags": {"stop_lat": "37.737740", "stop_code": "56005", "stop_lon": "-122.188338", "parent_station": "", "stop_id": "1009610", "stop_name": "Edes Av:Jones Av", "location_type": ""}}], "type": "Feature", "properties": {}}, {"onestopId": "s-9q9neyz40q-international~100th", "name": "International Blvd:100th Av", "tags": {}, "geometry": {"type": "Point", "coordinates": [-122.169329, 37.742534]}, "servedBy": ["o-9q9-actransit"], "identifiers": [{"identifier": "f-actransit-s-1008230", "tags": {"stop_lat": "37.742534", "stop_code": "59795", "stop_lon": "-122.169329", "parent_station": "", "stop_id": "1008230", "stop_name": "International Blvd:100th Av", "location_type": ""}}], "type": "Feature", "properties": {}}, {"onestopId": "s-9q9necx7uk-william~castro", "name": "William St:Castro St", "tags": {}, "geometry": {"type": "Point", "coordinates": [-122.168807, 37.713984]}, "servedBy": ["o-9q9-actransit"], "identifiers": [{"identifier": "f-actransit-s-1504270", "tags": {"stop_lat": "37.713984", "stop_code": "58525", "stop_lon": "-122.168807", "parent_station": "", "stop_id": "1504270", "stop_name": "William St:Castro St", "location_type": ""}}], "type": "Feature", "properties": {}}, {"onestopId": "s-9q9nev0t0p-105th~edes", "name": "105th Av:Edes Av", "tags": {}, "geometry": {"type": "Point", "coordinates": [-122.178264, 37.733442]}, "servedBy": ["o-9q9-actransit"], "identifiers": [{"identifier": "f-actransit-s-1000090", "tags": {"stop_lat": "37.733442", "stop_code": "54020", "stop_lon": "-122.178264", "parent_station": "", "stop_id": "1000090", "stop_name": "105th Av:Edes Av", "location_type": ""}}], "type": "Feature", "properties": {}}, {"onestopId": "s-9q9nebw2s9-merced~marina", "name": "Merced St:Marina Blvd", "tags": {}, "geometry": {"type": "Point", "coordinates": [-122.170176, 37.707917]}, "servedBy": ["o-9q9-actransit"], "identifiers": [{"identifier": "f-actransit-s-1502600", "tags": {"stop_lat": "37.707917", "stop_code": "53122", "stop_lon": "-122.170176", "parent_station": "", "stop_id": "1502600", "stop_name": "Merced St:Marina Blvd", "location_type": ""}}], "type": "Feature", "properties": {}}, {"onestopId": "s-9q9netff9y-edes~maddux", "name": "Edes Av:Maddux Dr", "tags": {}, "geometry": {"type": "Point", "coordinates": [-122.186087, 37.737128]}, "servedBy": ["o-9q9-actransit"], "identifiers": [{"identifier": "f-actransit-s-1009620", "tags": {"stop_lat": "37.737128", "stop_code": "55684", "stop_lon": "-122.186087", "parent_station": "", "stop_id": "1009620", "stop_name": "Edes Av:Maddux Dr", "location_type": ""}}], "type": "Feature", "properties": {}}, {"onestopId": "s-9q9nezsmrw-international~94th", "name": "International Blvd:94th Av", "tags": {}, "geometry": {"type": "Point", "coordinates": [-122.172793, 37.747214]}, "servedBy": ["o-9q9-actransit"], "identifiers": [{"identifier": "f-actransit-s-1008840", "tags": {"stop_lat": "37.747214", "stop_code": "53385", "stop_lon": "-122.172793", "parent_station": "", "stop_id": "1008840", "stop_name": "International Blvd:94th Av", "location_type": ""}}], "type": "Feature", "properties": {}}, {"onestopId": "s-9q9nemg346-hegenbergerlp~hegenberger", "name": "Hegenberger Lp:Hegenberger Rd", "tags": {}, "geometry": {"type": "Point", "coordinates": [-122.196361, 37.73685]}, "servedBy": ["o-9q9-actransit"], "identifiers": [{"identifier": "f-actransit-s-1012440", "tags": {"stop_lat": "37.736850", "stop_code": "55025", "stop_lon": "-122.196361", "parent_station": "", "stop_id": "1012440", "stop_name": "Hegenberger Lp:Hegenberger Rd", "location_type": ""}}], "type": "Feature", "properties": {}}, {"onestopId": "s-9q9ne8tgh7-williams~doolittle", "name": "Williams St:Doolittle Dr", "tags": {}, "geometry": {"type": "Point", "coordinates": [-122.18186, 37.708359]}, "servedBy": ["o-9q9-actransit"], "identifiers": [{"identifier": "f-actransit-s-1504460", "tags": {"stop_lat": "37.708359", "stop_code": "50687", "stop_lon": "-122.181860", "parent_station": "", "stop_id": "1504460", "stop_name": "Williams St:Doolittle Dr", "location_type": ""}}], "type": "Feature", "properties": {}}, {"onestopId": "s-9q9nek2q4p-hegenberger~pardee", "name": "Hegenberger Rd:Pardee Dr", "tags": {}, "geometry": {"type": "Point", "coordinates": [-122.200492, 37.729494]}, "servedBy": ["o-9q9-actransit"], "identifiers": [{"identifier": "f-actransit-s-1012580", "tags": {"stop_lat": "37.729494", "stop_code": "55428", "stop_lon": "-122.200492", "parent_station": "", "stop_id": "1012580", "stop_name": "Hegenberger Rd:Pardee Dr", "location_type": ""}}], "type": "Feature", "properties": {}}, {"onestopId": "s-9q9nezrdm0-98th~walnut", "name": "98th Av:Walnut St", "tags": {}, "geometry": {"type": "Point", "coordinates": [-122.16844, 37.745292]}, "servedBy": ["o-9q9-actransit"], "identifiers": [{"identifier": "f-actransit-s-1004620", "tags": {"stop_lat": "37.745292", "stop_code": "51137", "stop_lon": "-122.168440", "parent_station": "", "stop_id": "1004620", "stop_name": "98th Av:Walnut St", "location_type": ""}}], "type": "Feature", "properties": {}}, {"onestopId": "s-9q9neqjtv9-edes~85th", "name": "Edes Av:85th Av", "tags": {}, "geometry": {"type": "Point", "coordinates": [-122.193129, 37.73903]}, "servedBy": ["o-9q9-actransit"], "identifiers": [{"identifier": "f-actransit-s-1031490", "tags": {"stop_lat": "37.739030", "stop_code": "50231", "stop_lon": "-122.193129", "parent_station": "", "stop_id": "1031490", "stop_name": "Edes Av:85th Av", "location_type": ""}}], "type": "Feature", "properties": {}}, {"onestopId": "s-9q9nemdz29-hegenberger~edgewater", "name": "Hegenberger Rd:Edgewater Dr", "tags": {}, "geometry": {"type": "Point", "coordinates": [-122.197121, 37.736543]}, "servedBy": ["o-9q9-actransit"], "identifiers": [{"identifier": "f-actransit-s-1012520", "tags": {"stop_lat": "37.736543", "stop_code": "58556", "stop_lon": "-122.197121", "parent_station": "", "stop_id": "1012520", "stop_name": "Hegenberger Rd:Edgewater Dr", "location_type": ""}}], "type": "Feature", "properties": {}}, {"onestopId": "s-9q9neu5889-catron~reposo", "name": "Catron Dr:Reposo Dr", "tags": {}, "geometry": {"type": "Point", "coordinates": [-122.174122, 37.727146]}, "servedBy": ["o-9q9-actransit"], "identifiers": [{"identifier": "f-actransit-s-1007120", "tags": {"stop_lat": "37.727146", "stop_code": "51366", "stop_lon": "-122.174122", "parent_station": "", "stop_id": "1007120", "stop_name": "Catron Dr:Reposo Dr", "location_type": ""}}], "type": "Feature", "properties": {}}, {"onestopId": "s-9q9nezjspt-98th~international", "name": "98th Av:International Blvd", "tags": {}, "geometry": {"type": "Point", "coordinates": [-122.171073, 37.744244]}, "servedBy": ["o-9q9-actransit"], "identifiers": [{"identifier": "f-actransit-s-1004420", "tags": {"stop_lat": "37.744244", "stop_code": "54411", "stop_lon": "-122.171073", "parent_station": "", "stop_id": "1004420", "stop_name": "98th Av:International Blvd", "location_type": ""}}], "type": "Feature", "properties": {}}, {"onestopId": "s-9q9neve0vx-105th~sanleandro", "name": "105th Av:San Leandro St", "tags": {}, "geometry": {"type": "Point", "coordinates": [-122.174597, 37.735462]}, "servedBy": ["o-9q9-actransit"], "identifiers": [{"identifier": "f-actransit-s-1000150", "tags": {"stop_lat": "37.735462", "stop_code": "59195", "stop_lon": "-122.174597", "parent_station": "", "stop_id": "1000150", "stop_name": "105th Av:San Leandro St", "location_type": ""}}], "type": "Feature", "properties": {}}, {"onestopId": "s-9q9neyxekb-international~102nd", "name": "International Blvd:102nd Av", "tags": {}, "geometry": {"type": "Point", "coordinates": [-122.168442, 37.741344]}, "servedBy": ["o-9q9-actransit"], "identifiers": [{"identifier": "f-actransit-s-1008250", "tags": {"stop_lat": "37.741344", "stop_code": "55689", "stop_lon": "-122.168442", "parent_station": "", "stop_id": "1008250", "stop_name": "International Blvd:102nd Av", "location_type": ""}}], "type": "Feature", "properties": {}}, {"onestopId": "s-9q9neu63r3-estepa~bergedo", "name": "Estepa Dr:Bergedo Dr", "tags": {}, "geometry": {"type": "Point", "coordinates": [-122.175547, 37.728649]}, "servedBy": ["o-9q9-actransit"], "identifiers": [{"identifier": "f-actransit-s-1009960", "tags": {"stop_lat": "37.728649", "stop_code": "50488", "stop_lon": "-122.175547", "parent_station": "", "stop_id": "1009960", "stop_name": "Estepa Dr:Bergedo Dr", "location_type": ""}}], "type": "Feature", "properties": {}}, {"onestopId": "s-9q9nenvr03-edgewater~pardee", "name": "Edgewater Dr:Pardee Ln", "tags": {}, "geometry": {"type": "Point", "coordinates": [-122.204685, 37.743369]}, "servedBy": ["o-9q9-actransit"], "identifiers": [{"identifier": "f-actransit-s-1009720", "tags": {"stop_lat": "37.743369", "stop_code": "57422", "stop_lon": "-122.204685", "parent_station": "", "stop_id": "1009720", "stop_name": "Edgewater Dr:Pardee Ln", "location_type": ""}}], "type": "Feature", "properties": {}}, {"onestopId": "s-9q9netcqqu-edes~clara", "name": "Edes Av:Clara St", "tags": {}, "geometry": {"type": "Point", "coordinates": [-122.187925, 37.737759]}, "servedBy": ["o-9q9-actransit"], "identifiers": [{"identifier": "f-actransit-s-1009580", "tags": {"stop_lat": "37.737759", "stop_code": "57667", "stop_lon": "-122.187925", "parent_station": "", "stop_id": "1009580", "stop_name": "Edes Av:Clara St", "location_type": ""}}], "type": "Feature", "properties": {}}, {"onestopId": "s-9q9nebphj7-merced~republic", "name": "Merced St:Republic Av", "tags": {}, "geometry": {"type": "Point", "coordinates": [-122.169114, 37.705782]}, "servedBy": ["o-9q9-actransit"], "identifiers": [{"identifier": "f-actransit-s-1502620", "tags": {"stop_lat": "37.705782", "stop_code": "56326", "stop_lon": "-122.169114", "parent_station": "", "stop_id": "1502620", "stop_name": "Merced St:Republic Av", "location_type": ""}}], "type": "Feature", "properties": {}}, {"onestopId": "s-9q9nezn4yj-international~98th", "name": "International Blvd:98th Av", "tags": {}, "geometry": {"type": "Point", "coordinates": [-122.170454, 37.744034]}, "servedBy": ["o-9q9-actransit"], "identifiers": [{"identifier": "f-actransit-s-1030770", "tags": {"stop_lat": "37.744034", "stop_code": "55572", "stop_lon": "-122.170454", "parent_station": "", "stop_id": "1030770", "stop_name": "International Blvd:98th Av", "location_type": ""}}], "type": "Feature", "properties": {}}, {"onestopId": "s-9q9nerghpq-hegenberger~675", "name": "Hegenberger Rd:#675", "tags": {}, "geometry": {"type": "Point", "coordinates": [-122.196488, 37.748369]}, "servedBy": ["o-9q9-actransit"], "identifiers": [{"identifier": "f-actransit-s-1012450", "tags": {"stop_lat": "37.748369", "stop_code": "59336", "stop_lon": "-122.196488", "parent_station": "", "stop_id": "1012450", "stop_name": "Hegenberger Rd:#675", "location_type": ""}}], "type": "Feature", "properties": {}}, {"onestopId": "s-9q9nevsx7r-105th~e", "name": "105th Av:E St", "tags": {}, "geometry": {"type": "Point", "coordinates": [-122.172634, 37.736573]}, "servedBy": ["o-9q9-actransit"], "identifiers": [{"identifier": "f-actransit-s-1000070", "tags": {"stop_lat": "37.736573", "stop_code": "59159", "stop_lon": "-122.172634", "parent_station": "", "stop_id": "1000070", "stop_name": "105th Av:E St", "location_type": ""}}], "type": "Feature", "properties": {}}, {"onestopId": "s-9q9nebbt47-williams~2020", "name": "Williams St:#2020", "tags": {}, "geometry": {"type": "Point", "coordinates": [-122.178166, 37.710074]}, "servedBy": ["o-9q9-actransit"], "identifiers": [{"identifier": "f-actransit-s-1504580", "tags": {"stop_lat": "37.710074", "stop_code": "50732", "stop_lon": "-122.178166", "parent_station": "", "stop_id": "1504580", "stop_name": "Williams St:#2020", "location_type": ""}}], "type": "Feature", "properties": {}}, {"onestopId": "s-9q9neve4h6-105th~sanleandro", "name": "105th Av:San Leandro St", "tags": {}, "geometry": {"type": "Point", "coordinates": [-122.174649, 37.735645]}, "servedBy": ["o-9q9-actransit"], "identifiers": [{"identifier": "f-actransit-s-1000140", "tags": {"stop_lat": "37.735645", "stop_code": "59022", "stop_lon": "-122.174649", "parent_station": "", "stop_id": "1000140", "stop_name": "105th Av:San Leandro St", "location_type": ""}}], "type": "Feature", "properties": {}}, {"onestopId": "s-9q9neqnjdn-edes~85th", "name": "Edes Av:85th Av", "tags": {}, "geometry": {"type": "Point", "coordinates": [-122.1926, 37.739017]}, "servedBy": ["o-9q9-actransit"], "identifiers": [{"identifier": "f-actransit-s-1031480", "tags": {"stop_lat": "37.739017", "stop_code": "50219", "stop_lon": "-122.192600", "parent_station": "", "stop_id": "1031480", "stop_name": "Edes Av:85th Av", "location_type": ""}}], "type": "Feature", "properties": {}}, {"onestopId": "s-9q9neznp82-international~98th", "name": "International Blvd:98th Av", "tags": {}, "geometry": {"type": "Point", "coordinates": [-122.170701, 37.744818]}, "servedBy": ["o-9q9-actransit"], "identifiers": [{"identifier": "f-actransit-s-1008860", "tags": {"stop_lat": "37.744818", "stop_code": "55588", "stop_lon": "-122.170701", "parent_station": "", "stop_id": "1008860", "stop_name": "International Blvd:98th Av", "location_type": ""}}], "type": "Feature", "properties": {}}, {"onestopId": "s-9q9newr9rm-98th~sanleandro", "name": "98th Av:San Leandro St", "tags": {}, "geometry": {"type": "Point", "coordinates": [-122.179328, 37.739655]}, "servedBy": ["o-9q9-actransit"], "identifiers": [{"identifier": "f-actransit-s-1004580", "tags": {"stop_lat": "37.739655", "stop_code": "57873", "stop_lon": "-122.179328", "parent_station": "", "stop_id": "1004580", "stop_name": "98th Av:San Leandro St", "location_type": ""}}], "type": "Feature", "properties": {}}, {"onestopId": "s-9q9nepv2jt-hassler~oakport", "name": "Hassler Way:Oakport St", "tags": {}, "geometry": {"type": "Point", "coordinates": [-122.204459, 37.747682]}, "servedBy": ["o-9q9-actransit"], "identifiers": [{"identifier": "f-actransit-s-1012360", "tags": {"stop_lat": "37.747682", "stop_code": "58834", "stop_lon": "-122.204459", "parent_station": "", "stop_id": "1012360", "stop_name": "Hassler Way:Oakport St", "location_type": ""}}], "type": "Feature", "properties": {}}, {"onestopId": "s-9q9nek8fhj-hegenberger~airport", "name": "Hegenberger Rd:Airport Dr", "tags": {}, "geometry": {"type": "Point", "coordinates": [-122.199724, 37.730172]}, "servedBy": ["o-9q9-actransit"], "identifiers": [{"identifier": "f-actransit-s-1012460", "tags": {"stop_lat": "37.730172", "stop_code": "54335", "stop_lon": "-122.199724", "parent_station": "", "stop_id": "1012460", "stop_name": "Hegenberger Rd:Airport Dr", "location_type": ""}}], "type": "Feature", "properties": {}}, {"onestopId": "s-9q9ne8454k-aurora~sitka", "name": "Aurora Dr:Sitka St", "tags": {}, "geometry": {"type": "Point", "coordinates": [-122.187095, 37.705617]}, "servedBy": ["o-9q9-actransit"], "identifiers": [{"identifier": "f-actransit-s-1500210", "tags": {"stop_lat": "37.705617", "stop_code": "57210", "stop_lon": "-122.187095", "parent_station": "", "stop_id": "1500210", "stop_name": "Aurora Dr:Sitka St", "location_type": ""}}], "type": "Feature", "properties": {}}, {"onestopId": "s-9q9nehpshn-hegenberger~doolittle", "name": "Hegenberger Rd:Doolittle Dr", "tags": {}, "geometry": {"type": "Point", "coordinates": [-122.20144, 37.727774]}, "servedBy": ["o-9q9-actransit"], "identifiers": [{"identifier": "f-actransit-s-1012560", "tags": {"stop_lat": "37.727774", "stop_code": "50117", "stop_lon": "-122.201440", "parent_station": "", "stop_id": "1012560", "stop_name": "Hegenberger Rd:Doolittle Dr", "location_type": ""}}], "type": "Feature", "properties": {}}, {"onestopId": "s-9q9net5j5p-98th~denslowe", "name": "98th Av:Denslowe St", "tags": {}, "geometry": {"type": "Point", "coordinates": [-122.185689, 37.733443]}, "servedBy": ["o-9q9-actransit"], "identifiers": [{"identifier": "f-actransit-s-1004400", "tags": {"stop_lat": "37.733443", "stop_code": "59822", "stop_lon": "-122.185689", "parent_station": "", "stop_id": "1004400", "stop_name": "98th Av:Denslowe St", "location_type": ""}}], "type": "Feature", "properties": {}}, {"onestopId": "s-9q9ney9gcp-98th~e", "name": "98th Av:E St", "tags": {}, "geometry": {"type": "Point", "coordinates": [-122.1765, 37.741468]}, "servedBy": ["o-9q9-actransit"], "identifiers": [{"identifier": "f-actransit-s-1004430", "tags": {"stop_lat": "37.741468", "stop_code": "59923", "stop_lon": "-122.176500", "parent_station": "", "stop_id": "1004430", "stop_name": "98th Av:E St", "location_type": ""}}], "type": "Feature", "properties": {}}, {"onestopId": "s-9q9netrk14-edes~hale", "name": "Edes Av:Hale Av", "tags": {}, "geometry": {"type": "Point", "coordinates": [-122.17994, 37.734618]}, "servedBy": ["o-9q9-actransit"], "identifiers": [{"identifier": "f-actransit-s-1009600", "tags": {"stop_lat": "37.734618", "stop_code": "55648", "stop_lon": "-122.179940", "parent_station": "", "stop_id": "1009600", "stop_name": "Edes Av:Hale Av", "location_type": ""}}], "type": "Feature", "properties": {}}, {"onestopId": "s-9q9nep7zc0-edgewater~hassler", "name": "Edgewater Dr:Hassler Way", "tags": {}, "geometry": {"type": "Point", "coordinates": [-122.206714, 37.746234]}, "servedBy": ["o-9q9-actransit"], "identifiers": [{"identifier": "f-actransit-s-1009690", "tags": {"stop_lat": "37.746234", "stop_code": "57892", "stop_lon": "-122.206714", "parent_station": "", "stop_id": "1009690", "stop_name": "Edgewater Dr:Hassler Way", "location_type": ""}}], "type": "Feature", "properties": {}}, {"onestopId": "s-9q9neqp59v-edes~phelps", "name": "Edes Av:Phelps St", "tags": {}, "geometry": {"type": "Point", "coordinates": [-122.191238, 37.73867]}, "servedBy": ["o-9q9-actransit"], "identifiers": [{"identifier": "f-actransit-s-1009640", "tags": {"stop_lat": "37.738670", "stop_code": "55931", "stop_lon": "-122.191238", "parent_station": "", "stop_id": "1009640", "stop_name": "Edes Av:Phelps St", "location_type": ""}}], "type": "Feature", "properties": {}}, {"onestopId": "s-9q9neyg7qc-98th~b", "name": "98th Av:B St", "tags": {}, "geometry": {"type": "Point", "coordinates": [-122.174194, 37.742721]}, "servedBy": ["o-9q9-actransit"], "identifiers": [{"identifier": "f-actransit-s-1004330", "tags": {"stop_lat": "37.742721", "stop_code": "59622", "stop_lon": "-122.174194", "parent_station": "", "stop_id": "1004330", "stop_name": "98th Av:B St", "location_type": ""}}], "type": "Feature", "properties": {}}, {"onestopId": "s-9q9nem1ez1-hegenberger~leet", "name": "Hegenberger Rd:Leet Dr", "tags": {}, "geometry": {"type": "Point", "coordinates": [-122.198558, 37.733197]}, "servedBy": ["o-9q9-actransit"], "identifiers": [{"identifier": "f-actransit-s-1012570", "tags": {"stop_lat": "37.733197", "stop_code": "58832", "stop_lon": "-122.198558", "parent_station": "", "stop_id": "1012570", "stop_name": "Hegenberger Rd:Leet Dr", "location_type": ""}}], "type": "Feature", "properties": {}}, {"onestopId": "s-9q9neuhvb6-acalanes~catron", "name": "Acalanes Dr:Catron Dr", "tags": {}, "geometry": {"type": "Point", "coordinates": [-122.172419, 37.728053]}, "servedBy": ["o-9q9-actransit"], "identifiers": [{"identifier": "f-actransit-s-1004730", "tags": {"stop_lat": "37.728053", "stop_code": "51288", "stop_lon": "-122.172419", "parent_station": "", "stop_id": "1004730", "stop_name": "Acalanes Dr:Catron Dr", "location_type": ""}}], "type": "Feature", "properties": {}}, {"onestopId": "s-9q9netyp4y-98th~railroad", "name": "98th Av:Railroad Av", "tags": {}, "geometry": {"type": "Point", "coordinates": [-122.181577, 37.737899]}, "servedBy": ["o-9q9-actransit"], "identifiers": [{"identifier": "f-actransit-s-1004570", "tags": {"stop_lat": "37.737899", "stop_code": "54341", "stop_lon": "-122.181577", "parent_station": "", "stop_id": "1004570", "stop_name": "98th Av:Railroad Av", "location_type": ""}}], "type": "Feature", "properties": {}}, {"onestopId": "s-9q9ne875rc-williams~nome", "name": "Williams St:Nome St", "tags": {}, "geometry": {"type": "Point", "coordinates": [-122.185481, 37.707016]}, "servedBy": ["o-9q9-actransit"], "identifiers": [{"identifier": "f-actransit-s-1503800", "tags": {"stop_lat": "37.707016", "stop_code": "52950", "stop_lon": "-122.185481", "parent_station": "", "stop_id": "1503800", "stop_name": "Williams St:Nome St", "location_type": ""}}], "type": "Feature", "properties": {}}, {"onestopId": "s-9q9neygduj-98th~b", "name": "98th Av:B St", "tags": {}, "geometry": {"type": "Point", "coordinates": [-122.173973, 37.742661]}, "servedBy": ["o-9q9-actransit"], "identifiers": [{"identifier": "f-actransit-s-1004320", "tags": {"stop_lat": "37.742661", "stop_code": "55276", "stop_lon": "-122.173973", "parent_station": "", "stop_id": "1004320", "stop_name": "98th Av:B St", "location_type": ""}}], "type": "Feature", "properties": {}}, {"onestopId": "s-9q9nechq64-merced~williams", "name": "Merced St:Williams St", "tags": {}, "geometry": {"type": "Point", "coordinates": [-122.173031, 37.711658]}, "servedBy": ["o-9q9-actransit"], "identifiers": [{"identifier": "f-actransit-s-1502640", "tags": {"stop_lat": "37.711658", "stop_code": "51950", "stop_lon": "-122.173031", "parent_station": "", "stop_id": "1502640", "stop_name": "Merced St:Williams St", "location_type": ""}}], "type": "Feature", "properties": {}}, {"onestopId": "s-9q9nekwmxw-empire~coralnear98th", "name": "Empire Rd:Coral Rd (Near 98th Av)", "tags": {}, "geometry": {"type": "Point", "coordinates": [-122.192018, 37.730777]}, "servedBy": ["o-9q9-actransit"], "identifiers": [{"identifier": "f-actransit-s-1009910", "tags": {"stop_lat": "37.730777", "stop_code": "59696", "stop_lon": "-122.192018", "parent_station": "", "stop_id": "1009910", "stop_name": "Empire Rd:Coral Rd (Near 98th Av)", "location_type": ""}}], "type": "Feature", "properties": {}}, {"onestopId": "s-9q9newpkcg-98th~sanleandro", "name": "98th Av:San Leandro St", "tags": {}, "geometry": {"type": "Point", "coordinates": [-122.1799, 37.738873]}, "servedBy": ["o-9q9-actransit"], "identifiers": [{"identifier": "f-actransit-s-1004590", "tags": {"stop_lat": "37.738873", "stop_code": "57879", "stop_lon": "-122.179900", "parent_station": "", "stop_id": "1004590", "stop_name": "98th Av:San Leandro St", "location_type": ""}}], "type": "Feature", "properties": {}}, {"onestopId": "s-9q9nedrsrb-westgate~davis", "name": "Westgate Pkwy:Davis St", "tags": {}, "geometry": {"type": "Point", "coordinates": [-122.179304, 37.718168]}, "servedBy": ["o-9q9-actransit"], "identifiers": [{"identifier": "f-actransit-s-1504360", "tags": {"stop_lat": "37.718168", "stop_code": "50425", "stop_lon": "-122.179304", "parent_station": "", "stop_id": "1504360", "stop_name": "Westgate Pkwy:Davis St", "location_type": ""}}], "type": "Feature", "properties": {}}, {"onestopId": "s-9q9netkr1n-98th~maddux", "name": "98th Av:Maddux Dr", "tags": {}, "geometry": {"type": "Point", "coordinates": [-122.184054, 37.735155]}, "servedBy": ["o-9q9-actransit"], "identifiers": [{"identifier": "f-actransit-s-1004520", "tags": {"stop_lat": "37.735155", "stop_code": "55369", "stop_lon": "-122.184054", "parent_station": "", "stop_id": "1004520", "stop_name": "98th Av:Maddux Dr", "location_type": ""}}], "type": "Feature", "properties": {}}, {"onestopId": "s-9q9neck9v2-williams~merced", "name": "Williams St:Merced St", "tags": {}, "geometry": {"type": "Point", "coordinates": [-122.172549, 37.712248]}, "servedBy": ["o-9q9-actransit"], "identifiers": [{"identifier": "f-actransit-s-1503650", "tags": {"stop_lat": "37.712248", "stop_code": "52620", "stop_lon": "-122.172549", "parent_station": "", "stop_id": "1503650", "stop_name": "Williams St:Merced St", "location_type": ""}}], "type": "Feature", "properties": {}}, {"onestopId": "s-9q9net5phy-98th~denslowe", "name": "98th Av:Denslowe St", "tags": {}, "geometry": {"type": "Point", "coordinates": [-122.185614, 37.733781]}, "servedBy": ["o-9q9-actransit"], "identifiers": [{"identifier": "f-actransit-s-1004390", "tags": {"stop_lat": "37.733781", "stop_code": "50886", "stop_lon": "-122.185614", "parent_station": "", "stop_id": "1004390", "stop_name": "98th Av:Denslowe St", "location_type": ""}}], "type": "Feature", "properties": {}}, {"onestopId": "s-9q9nettnkn-edes~98th", "name": "Edes Av:98th Av", "tags": {}, "geometry": {"type": "Point", "coordinates": [-122.182896, 37.736398]}, "servedBy": ["o-9q9-actransit"], "identifiers": [{"identifier": "f-actransit-s-1009570", "tags": {"stop_lat": "37.736398", "stop_code": "53993", "stop_lon": "-122.182896", "parent_station": "", "stop_id": "1009570", "stop_name": "Edes Av:98th Av", "location_type": ""}}], "type": "Feature", "properties": {}}, {"onestopId": "s-9q9nef250u-westgate~davis", "name": "Westgate Pkwy:Davis St", "tags": {}, "geometry": {"type": "Point", "coordinates": [-122.178919, 37.717976]}, "servedBy": ["o-9q9-actransit"], "identifiers": [{"identifier": "f-actransit-s-1504330", "tags": {"stop_lat": "37.717976", "stop_code": "50421", "stop_lon": "-122.178919", "parent_station": "", "stop_id": "1504330", "stop_name": "Westgate Pkwy:Davis St", "location_type": ""}}], "type": "Feature", "properties": {}}, {"onestopId": "s-9q9netv205-98th~edes", "name": "98th Av:Edes Av", "tags": {}, "geometry": {"type": "Point", "coordinates": [-122.182723, 37.736684]}, "servedBy": ["o-9q9-actransit"], "identifiers": [{"identifier": "f-actransit-s-1031650", "tags": {"stop_lat": "37.736684", "stop_code": "50167", "stop_lon": "-122.182723", "parent_station": "", "stop_id": "1031650", "stop_name": "98th Av:Edes Av", "location_type": ""}}], "type": "Feature", "properties": {}}, {"onestopId": "s-9q9nec5pkv-westgate~williams", "name": "Westgate Pkwy:Williams St", "tags": {}, "geometry": {"type": "Point", "coordinates": [-122.174627, 37.711846]}, "servedBy": ["o-9q9-actransit"], "identifiers": [{"identifier": "f-actransit-s-1504420", "tags": {"stop_lat": "37.711846", "stop_code": "50674", "stop_lon": "-122.174627", "parent_station": "", "stop_id": "1504420", "stop_name": "Westgate Pkwy:Williams St", "location_type": ""}}], "type": "Feature", "properties": {}}, {"onestopId": "s-9q9nefymj9-davis~piercedouglas", "name": "Davis St:Pierce Av (Douglas Dr)", "tags": {}, "geometry": {"type": "Point", "coordinates": [-122.170134, 37.721052]}, "servedBy": ["o-9q9-actransit"], "identifiers": [{"identifier": "f-actransit-s-1500890", "tags": {"stop_lat": "37.721052", "stop_code": "55713", "stop_lon": "-122.170134", "parent_station": "", "stop_id": "1500890", "stop_name": "Davis St:Pierce Av (Douglas Dr)", "location_type": ""}}], "type": "Feature", "properties": {}}, {"onestopId": "s-9q9nev06j5-acalanes~105th", "name": "Acalanes Dr:105th Av", "tags": {}, "geometry": {"type": "Point", "coordinates": [-122.178389, 37.732904]}, "servedBy": ["o-9q9-actransit"], "identifiers": [{"identifier": "f-actransit-s-1004700", "tags": {"stop_lat": "37.732904", "stop_code": "58288", "stop_lon": "-122.178389", "parent_station": "", "stop_id": "1004700", "stop_name": "Acalanes Dr:105th Av", "location_type": ""}}], "type": "Feature", "properties": {}}, {"onestopId": "s-9q9ney9ub1-98th~e", "name": "98th Av:E St", "tags": {}, "geometry": {"type": "Point", "coordinates": [-122.176542, 37.741609]}, "servedBy": ["o-9q9-actransit"], "identifiers": [{"identifier": "f-actransit-s-1004440", "tags": {"stop_lat": "37.741609", "stop_code": "55431", "stop_lon": "-122.176542", "parent_station": "", "stop_id": "1004440", "stop_name": "98th Av:E St", "location_type": ""}}], "type": "Feature", "properties": {}}, {"onestopId": "s-9q9neubvcb-acalanes~capistrano", "name": "Acalanes Dr:Capistrano Dr", "tags": {}, "geometry": {"type": "Point", "coordinates": [-122.177845, 37.732163]}, "servedBy": ["o-9q9-actransit"], "identifiers": [{"identifier": "f-actransit-s-1004720", "tags": {"stop_lat": "37.732163", "stop_code": "57579", "stop_lon": "-122.177845", "parent_station": "", "stop_id": "1004720", "stop_name": "Acalanes Dr:Capistrano Dr", "location_type": ""}}], "type": "Feature", "properties": {}}, {"onestopId": "s-9q9nenrsm3-edgewater~8000", "name": "Edgewater Dr:#8000", "tags": {}, "geometry": {"type": "Point", "coordinates": [-122.201385, 37.740146]}, "servedBy": ["o-9q9-actransit"], "identifiers": [{"identifier": "f-actransit-s-1009670", "tags": {"stop_lat": "37.740146", "stop_code": "52886", "stop_lon": "-122.201385", "parent_station": "", "stop_id": "1009670", "stop_name": "Edgewater Dr:#8000", "location_type": ""}}], "type": "Feature", "properties": {}}, {"onestopId": "s-9q9neu31tx-estepa~elpaseo", "name": "Estepa Dr:El Paseo Dr", "tags": {}, "geometry": {"type": "Point", "coordinates": [-122.177345, 37.728722]}, "servedBy": ["o-9q9-actransit"], "identifiers": [{"identifier": "f-actransit-s-1009970", "tags": {"stop_lat": "37.728722", "stop_code": "59445", "stop_lon": "-122.177345", "parent_station": "", "stop_id": "1009970", "stop_name": "Estepa Dr:El Paseo Dr", "location_type": ""}}], "type": "Feature", "properties": {}}, {"onestopId": "s-9q9neyp2d8-105th~graffian", "name": "105th Av:Graffian St", "tags": {}, "geometry": {"type": "Point", "coordinates": [-122.16889, 37.738125]}, "servedBy": ["o-9q9-actransit"], "identifiers": [{"identifier": "f-actransit-s-1000100", "tags": {"stop_lat": "37.738125", "stop_code": "57993", "stop_lon": "-122.168890", "parent_station": "", "stop_id": "1000100", "stop_name": "105th Av:Graffian St", "location_type": ""}}], "type": "Feature", "properties": {}}, {"onestopId": "s-9q9netrm0g-edes~hale", "name": "Edes Av:Hale Av", "tags": {}, "geometry": {"type": "Point", "coordinates": [-122.179943, 37.734797]}, "servedBy": ["o-9q9-actransit"], "identifiers": [{"identifier": "f-actransit-s-1009590", "tags": {"stop_lat": "37.734797", "stop_code": "55348", "stop_lon": "-122.179943", "parent_station": "", "stop_id": "1009590", "stop_name": "Edes Av:Hale Av", "location_type": ""}}], "type": "Feature", "properties": {}}, {"onestopId": "s-9q9nemf7yr-edgewater~hegenberger", "name": "Edgewater Dr:Hegenberger Rd", "tags": {}, "geometry": {"type": "Point", "coordinates": [-122.197563, 37.737346]}, "servedBy": ["o-9q9-actransit"], "identifiers": [{"identifier": "f-actransit-s-1009700", "tags": {"stop_lat": "37.737346", "stop_code": "51191", "stop_lon": "-122.197563", "parent_station": "", "stop_id": "1009700", "stop_name": "Edgewater Dr:Hegenberger Rd", "location_type": ""}}], "type": "Feature", "properties": {}}, {"onestopId": "s-9q9nespzjd-topanga~capistranojamesmadisonmidsch", "name": "Topanga Dr:Capistrano Dr (James Madison Mid. Sch.)", "tags": {}, "geometry": {"type": "Point", "coordinates": [-122.179059, 37.728266]}, "servedBy": ["o-9q9-actransit"], "identifiers": [{"identifier": "f-actransit-s-1020720", "tags": {"stop_lat": "37.728266", "stop_code": "55334", "stop_lon": "-122.179059", "parent_station": "", "stop_id": "1020720", "stop_name": "Topanga Dr:Capistrano Dr (James Madison Mid. Sch.)", "location_type": ""}}], "type": "Feature", "properties": {}}, {"onestopId": "s-9q9ner78yr-hegenberger~edes", "name": "Hegenberger Rd:Edes Av", "tags": {}, "geometry": {"type": "Point", "coordinates": [-122.195849, 37.745073]}, "servedBy": ["o-9q9-actransit"], "identifiers": [{"identifier": "f-actransit-s-1012510", "tags": {"stop_lat": "37.745073", "stop_code": "56782", "stop_lon": "-122.195849", "parent_station": "", "stop_id": "1012510", "stop_name": "Hegenberger Rd:Edes Av", "location_type": ""}}], "type": "Feature", "properties": {}}, {"onestopId": "s-9q9nefyq22-davis~douglas", "name": "Davis St:Douglas Dr", "tags": {}, "geometry": {"type": "Point", "coordinates": [-122.170361, 37.721259]}, "servedBy": ["o-9q9-actransit"], "identifiers": [{"identifier": "f-actransit-s-1500820", "tags": {"stop_lat": "37.721259", "stop_code": "55419", "stop_lon": "-122.170361", "parent_station": "", "stop_id": "1500820", "stop_name": "Davis St:Douglas Dr", "location_type": ""}}], "type": "Feature", "properties": {}}, {"onestopId": "s-9q9nekv7qh-empire~wistar", "name": "Empire Rd:Wistar Rd", "tags": {}, "geometry": {"type": "Point", "coordinates": [-122.19346, 37.731753]}, "servedBy": ["o-9q9-actransit"], "identifiers": [{"identifier": "f-actransit-s-1009950", "tags": {"stop_lat": "37.731753", "stop_code": "58802", "stop_lon": "-122.193460", "parent_station": "", "stop_id": "1009950", "stop_name": "Empire Rd:Wistar Rd", "location_type": ""}}], "type": "Feature", "properties": {}}, {"onestopId": "s-9q9neudc31-acalanes~bergedo", "name": "Acalanes Dr:Bergedo Dr", "tags": {}, "geometry": {"type": "Point", "coordinates": [-122.175125, 37.730021]}, "servedBy": ["o-9q9-actransit"], "identifiers": [{"identifier": "f-actransit-s-1004710", "tags": {"stop_lat": "37.730021", "stop_code": "53939", "stop_lon": "-122.175125", "parent_station": "", "stop_id": "1004710", "stop_name": "Acalanes Dr:Bergedo Dr", "location_type": ""}}], "type": "Feature", "properties": {}}, {"onestopId": "s-9q9nex9jcv-85th~sanleandropastrailroadcrossing", "name": "85th Av:San Leandro St (Past Railroad Crossing)", "tags": {}, "geometry": {"type": "Point", "coordinates": [-122.188486, 37.747291]}, "servedBy": ["o-9q9-actransit"], "identifiers": [{"identifier": "f-actransit-s-1004010", "tags": {"stop_lat": "37.747291", "stop_code": "54640", "stop_lon": "-122.188486", "parent_station": "", "stop_id": "1004010", "stop_name": "85th Av:San Leandro St (Past Railroad Crossing)", "location_type": ""}}], "type": "Feature", "properties": {}}, {"onestopId": "s-9q9nenww95-edgewater~roland", "name": "Edgewater Dr:Roland Way", "tags": {}, "geometry": {"type": "Point", "coordinates": [-122.202943, 37.741918]}, "servedBy": ["o-9q9-actransit"], "identifiers": [{"identifier": "f-actransit-s-1009760", "tags": {"stop_lat": "37.741918", "stop_code": "55894", "stop_lon": "-122.202943", "parent_station": "", "stop_id": "1009760", "stop_name": "Edgewater Dr:Roland Way", "location_type": ""}}], "type": "Feature", "properties": {}}, {"onestopId": "s-9q9nefu3gx-davis~frederick", "name": "Davis St:Frederick Rd", "tags": {}, "geometry": {"type": "Point", "coordinates": [-122.172958, 37.720525]}, "servedBy": ["o-9q9-actransit"], "identifiers": [{"identifier": "f-actransit-s-1500840", "tags": {"stop_lat": "37.720525", "stop_code": "52126", "stop_lon": "-122.172958", "parent_station": "", "stop_id": "1500840", "stop_name": "Davis St:Frederick Rd", "location_type": ""}}], "type": "Feature", "properties": {}}, {"onestopId": "s-9q9newrbfb-98th~pastrailroadcrossingnrsanleandro", "name": "98th Av:Past Railroad Crossing (Nr San Leandro St)", "tags": {}, "geometry": {"type": "Point", "coordinates": [-122.179174, 37.739543]}, "servedBy": ["o-9q9-actransit"], "identifiers": [{"identifier": "f-actransit-s-1004550", "tags": {"stop_lat": "37.739543", "stop_code": "51345", "stop_lon": "-122.179174", "parent_station": "", "stop_id": "1004550", "stop_name": "98th Av:Past Railroad Crossing (Nr San Leandro St)", "location_type": ""}}], "type": "Feature", "properties": {}}, {"onestopId": "s-9q9nekcs6r-hegenberger~hegenbergerpl", "name": "Hegenberger Rd:Hegenberger Pl", "tags": {}, "geometry": {"type": "Point", "coordinates": [-122.198761, 37.73194]}, "servedBy": ["o-9q9-actransit"], "identifiers": [{"identifier": "f-actransit-s-1012550", "tags": {"stop_lat": "37.731940", "stop_code": "52166", "stop_lon": "-122.198761", "parent_station": "", "stop_id": "1012550", "stop_name": "Hegenberger Rd:Hegenberger Pl", "location_type": ""}}], "type": "Feature", "properties": {}}, {"onestopId": "s-9q9nerewts-hegenberger~baldwin", "name": "Hegenberger Rd:Baldwin St", "tags": {}, "geometry": {"type": "Point", "coordinates": [-122.195885, 37.747417]}, "servedBy": ["o-9q9-actransit"], "identifiers": [{"identifier": "f-actransit-s-1012470", "tags": {"stop_lat": "37.747417", "stop_code": "52855", "stop_lon": "-122.195885", "parent_station": "", "stop_id": "1012470", "stop_name": "Hegenberger Rd:Baldwin St", "location_type": ""}}], "type": "Feature", "properties": {}}, {"onestopId": "s-9q9nekwqut-empire~coralnear98th", "name": "Empire Rd:Coral Rd (Near 98th Av)", "tags": {}, "geometry": {"type": "Point", "coordinates": [-122.192144, 37.730984]}, "servedBy": ["o-9q9-actransit"], "identifiers": [{"identifier": "f-actransit-s-1009900", "tags": {"stop_lat": "37.730984", "stop_code": "57499", "stop_lon": "-122.192144", "parent_station": "", "stop_id": "1009900", "stop_name": "Empire Rd:Coral Rd (Near 98th Av)", "location_type": ""}}], "type": "Feature", "properties": {}}, {"onestopId": "s-9q9nemh35g-empire~tunis", "name": "Empire Rd:Tunis Rd", "tags": {}, "geometry": {"type": "Point", "coordinates": [-122.194928, 37.732733]}, "servedBy": ["o-9q9-actransit"], "identifiers": [{"identifier": "f-actransit-s-1009920", "tags": {"stop_lat": "37.732733", "stop_code": "57672", "stop_lon": "-122.194928", "parent_station": "", "stop_id": "1009920", "stop_name": "Empire Rd:Tunis Rd", "location_type": ""}}], "type": "Feature", "properties": {}}, {"onestopId": "s-9q9nex8y1y-85th~sanleandro", "name": "85th Av:San Leandro St", "tags": {}, "geometry": {"type": "Point", "coordinates": [-122.188828, 37.747342]}, "servedBy": ["o-9q9-actransit"], "identifiers": [{"identifier": "f-actransit-s-1004030", "tags": {"stop_lat": "37.747342", "stop_code": "57871", "stop_lon": "-122.188828", "parent_station": "", "stop_id": "1004030", "stop_name": "85th Av:San Leandro St", "location_type": ""}}], "type": "Feature", "properties": {}}, {"onestopId": "s-9q9nezrg90-98th~walnut", "name": "98th Av:Walnut St", "tags": {}, "geometry": {"type": "Point", "coordinates": [-122.168265, 37.745508]}, "servedBy": ["o-9q9-actransit"], "identifiers": [{"identifier": "f-actransit-s-1004610", "tags": {"stop_lat": "37.745508", "stop_code": "55391", "stop_lon": "-122.168265", "parent_station": "", "stop_id": "1004610", "stop_name": "98th Av:Walnut St", "location_type": ""}}], "type": "Feature", "properties": {}}, {"onestopId": "s-9q9necc6xu-westgate~walmart", "name": "Westgate Pkwy:#Walmart", "tags": {}, "geometry": {"type": "Point", "coordinates": [-122.176904, 37.715143]}, "servedBy": ["o-9q9-actransit"], "identifiers": [{"identifier": "f-actransit-s-1504340", "tags": {"stop_lat": "37.715143", "stop_code": "50423", "stop_lon": "-122.176904", "parent_station": "", "stop_id": "1504340", "stop_name": "Westgate Pkwy:#Walmart", "location_type": ""}}], "type": "Feature", "properties": {}}, {"onestopId": "s-9q9nemdvp1-hegenberger~hegenbergerlpnorthjctn", "name": "Hegenberger Rd:Hegenberger Lp (North Jctn)", "tags": {}, "geometry": {"type": "Point", "coordinates": [-122.19685, 37.736157]}, "servedBy": ["o-9q9-actransit"], "identifiers": [{"identifier": "f-actransit-s-1012540", "tags": {"stop_lat": "37.736157", "stop_code": "59333", "stop_lon": "-122.196850", "parent_station": "", "stop_id": "1012540", "stop_name": "Hegenberger Rd:Hegenberger Lp (North Jctn)", "location_type": ""}}], "type": "Feature", "properties": {}}, {"onestopId": "s-9q9nepj2r0-edgewater~pardee", "name": "Edgewater Dr:Pardee Ln", "tags": {}, "geometry": {"type": "Point", "coordinates": [-122.204395, 37.743575]}, "servedBy": ["o-9q9-actransit"], "identifiers": [{"identifier": "f-actransit-s-1009730", "tags": {"stop_lat": "37.743575", "stop_code": "51554", "stop_lon": "-122.204395", "parent_station": "", "stop_id": "1009730", "stop_name": "Edgewater Dr:Pardee Ln", "location_type": ""}}], "type": "Feature", "properties": {}}, {"onestopId": "s-9q9nebw1b5-merced~marina", "name": "Merced St:Marina Blvd", "tags": {}, "geometry": {"type": "Point", "coordinates": [-122.170708, 37.708142]}, "servedBy": ["o-9q9-actransit"], "identifiers": [{"identifier": "f-actransit-s-1502590", "tags": {"stop_lat": "37.708142", "stop_code": "55469", "stop_lon": "-122.170708", "parent_station": "", "stop_id": "1502590", "stop_name": "Merced St:Marina Blvd", "location_type": ""}}], "type": "Feature", "properties": {}}, {"onestopId": "s-9q9necxeev-williams~castro", "name": "Williams St:Castro St", "tags": {}, "geometry": {"type": "Point", "coordinates": [-122.168493, 37.71395]}, "servedBy": ["o-9q9-actransit"], "identifiers": [{"identifier": "f-actransit-s-1503620", "tags": {"stop_lat": "37.713950", "stop_code": "52657", "stop_lon": "-122.168493", "parent_station": "", "stop_id": "1503620", "stop_name": "Williams St:Castro St", "location_type": ""}}], "type": "Feature", "properties": {}}, {"onestopId": "s-9q9netg4xb-edes~tyler", "name": "Edes Av:Tyler St", "tags": {}, "geometry": {"type": "Point", "coordinates": [-122.185479, 37.737093]}, "servedBy": ["o-9q9-actransit"], "identifiers": [{"identifier": "f-actransit-s-1009650", "tags": {"stop_lat": "37.737093", "stop_code": "51899", "stop_lon": "-122.185479", "parent_station": "", "stop_id": "1009650", "stop_name": "Edes Av:Tyler St", "location_type": ""}}], "type": "Feature", "properties": {}}, {"onestopId": "s-9q9nehpg45-hegenberger~doolittle", "name": "Hegenberger Rd:Doolittle Dr", "tags": {}, "geometry": {"type": "Point", "coordinates": [-122.201175, 37.727586]}, "servedBy": ["o-9q9-actransit"], "identifiers": [{"identifier": "f-actransit-s-1012500", "tags": {"stop_lat": "37.727586", "stop_code": "55035", "stop_lon": "-122.201175", "parent_station": "", "stop_id": "1012500", "stop_name": "Hegenberger Rd:Doolittle Dr", "location_type": ""}}], "type": "Feature", "properties": {}}, {"onestopId": "s-9q9neubtdt-capistrano~acalanes", "name": "Capistrano Dr:Acalanes Dr", "tags": {}, "geometry": {"type": "Point", "coordinates": [-122.178153, 37.732143]}, "servedBy": ["o-9q9-actransit"], "identifiers": [{"identifier": "f-actransit-s-1007070", "tags": {"stop_lat": "37.732143", "stop_code": "56576", "stop_lon": "-122.178153", "parent_station": "", "stop_id": "1007070", "stop_name": "Capistrano Dr:Acalanes Dr", "location_type": ""}}], "type": "Feature", "properties": {}}]}