{"prefix": "9q9n7", "type": "FeatureCollection", "properties": {}, "features": [{"onestopId": "s-9q9n7yd8xb-bermuda~doolittle", "name": "Bermuda Way:Doolittle Dr", "tags": {}, "geometry": {"type": "Point", "coordinates": [-122.175181, 37.696925]}, "servedBy": ["o-9q9-actransit"], "identifiers": [{"identifier": "f-actransit-s-1504040", "tags": {"stop_lat": "37.696925", "stop_code": "54033", "stop_lon": "-122.175181", "parent_station": "", "stop_id": "1504040", "stop_name": "Bermuda Way:Doolittle Dr", "location_type": ""}}], "type": "Feature", "properties": {}}, {"onestopId": "s-9q9n7xfs1h-aurora~w130", "name": "Aurora Dr:W Av 130", "tags": {}, "geometry": {"type": "Point", "coordinates": [-122.18646, 37.704417]}, "servedBy": ["o-9q9-actransit"], "identifiers": [{"identifier": "f-actransit-s-1503900", "tags": {"stop_lat": "37.704417", "stop_code": "53020", "stop_lon": "-122.186460", "parent_station": "", "stop_id": "1503900", "stop_name": "Aurora Dr:W Av 130", "location_type": ""}}], "type": "Feature", "properties": {}}, {"onestopId": "s-9q9n7vvnk2-farallon~catalina", "name": "Farallon Dr:Catalina St", "tags": {}, "geometry": {"type": "Point", "coordinates": [-122.171902, 37.693793]}, "servedBy": ["o-9q9-actransit"], "identifiers": [{"identifier": "f-actransit-s-1504480", "tags": {"stop_lat": "37.693793", "stop_code": "50695", "stop_lon": "-122.171902", "parent_station": "", "stop_id": "1504480", "stop_name": "Farallon Dr:Catalina St", "location_type": ""}}], "type": "Feature", "properties": {}}, {"onestopId": "s-9q9n7wtgk8-aurora~fairway", "name": "Aurora Dr:Fairway Dr", "tags": {}, "geometry": {"type": "Point", "coordinates": [-122.18185, 37.697399]}, "servedBy": ["o-9q9-actransit"], "identifiers": [{"identifier": "f-actransit-s-1504020", "tags": {"stop_lat": "37.697399", "stop_code": "51148", "stop_lon": "-122.181850", "parent_station": "", "stop_id": "1504020", "stop_name": "Aurora Dr:Fairway Dr", "location_type": ""}}], "type": "Feature", "properties": {}}, {"onestopId": "s-9q9n7wpjxs-bermuda~aurora", "name": "Bermuda Av:Aurora Dr", "tags": {}, "geometry": {"type": "Point", "coordinates": [-122.179997, 37.695059]}, "servedBy": ["o-9q9-actransit"], "identifiers": [{"identifier": "f-actransit-s-1500750", "tags": {"stop_lat": "37.695059", "stop_code": "58210", "stop_lon": "-122.179997", "parent_station": "", "stop_id": "1500750", "stop_name": "Bermuda Av:Aurora Dr", "location_type": ""}}], "type": "Feature", "properties": {}}, {"onestopId": "s-9q9n7xehzw-aurora~marina", "name": "Aurora Dr:Marina Blvd", "tags": {}, "geometry": {"type": "Point", "coordinates": [-122.185493, 37.703184]}, "servedBy": ["o-9q9-actransit"], "identifiers": [{"identifier": "f-actransit-s-1500200", "tags": {"stop_lat": "37.703184", "stop_code": "55484", "stop_lon": "-122.185493", "parent_station": "", "stop_id": "1500200", "stop_name": "Aurora Dr:Marina Blvd", "location_type": ""}}], "type": "Feature", "properties": {}}, {"onestopId": "s-9q9n7y3kds-bermuda~santiago", "name": "Bermuda Av:Santiago Rd", "tags": {}, "geometry": {"type": "Point", "coordinates": [-122.177121, 37.696264]}, "servedBy": ["o-9q9-actransit"], "identifiers": [{"identifier": "f-actransit-s-1500760", "tags": {"stop_lat": "37.696264", "stop_code": "57448", "stop_lon": "-122.177121", "parent_station": "", "stop_id": "1500760", "stop_name": "Bermuda Av:Santiago Rd", "location_type": ""}}], "type": "Feature", "properties": {}}, {"onestopId": "s-9q9n7wbsvf-monarchbay~mulfordpoint", "name": "Monarch Bay Dr:Mulford Point Dr", "tags": {}, "geometry": {"type": "Point", "coordinates": [-122.189007, 37.699041]}, "servedBy": ["o-9q9-actransit"], "identifiers": [{"identifier": "f-actransit-s-1502730", "tags": {"stop_lat": "37.699041", "stop_code": "56509", "stop_lon": "-122.189007", "parent_station": "", "stop_id": "1502730", "stop_name": "Monarch Bay Dr:Mulford Point Dr", "location_type": ""}}], "type": "Feature", "properties": {}}, {"onestopId": "s-9q9n7xe4ng-marina~aurora", "name": "Marina Blvd:Aurora Dr", "tags": {}, "geometry": {"type": "Point", "coordinates": [-122.185525, 37.702695]}, "servedBy": ["o-9q9-actransit"], "identifiers": [{"identifier": "f-actransit-s-1504000", "tags": {"stop_lat": "37.702695", "stop_code": "55318", "stop_lon": "-122.185525", "parent_station": "", "stop_id": "1504000", "stop_name": "Marina Blvd:Aurora Dr", "location_type": ""}}], "type": "Feature", "properties": {}}, {"onestopId": "s-9q9n7wbtvy-monarchbay~mulfordpoint", "name": "Monarch Bay Dr:Mulford Point Dr", "tags": {}, "geometry": {"type": "Point", "coordinates": [-122.189003, 37.699236]}, "servedBy": ["o-9q9-actransit"], "identifiers": [{"identifier": "f-actransit-s-1502720", "tags": {"stop_lat": "37.699236", "stop_code": "56503", "stop_lon": "-122.189003", "parent_station": "", "stop_id": "1502720", "stop_name": "Monarch Bay Dr:Mulford Point Dr", "location_type": ""}}], "type": "Feature", "properties": {}}, {"onestopId": "s-9q9n7wtuny-aurora~fairway", "name": "Aurora Dr:Fairway Dr", "tags": {}, "geometry": {"type": "Point", "coordinates": [-122.181749, 37.697558]}, "servedBy": ["o-9q9-actransit"], "identifiers": [{"identifier": "f-actransit-s-1500190", "tags": {"stop_lat": "37.697558", "stop_code": "55083", "stop_lon": "-122.181749", "parent_station": "", "stop_id": "1500190", "stop_name": "Aurora Dr:Fairway Dr", "location_type": ""}}], "type": "Feature", "properties": {}}, {"onestopId": "s-9q9n7x0wcq-monarchbay~neptune", "name": "Monarch Bay Dr:Neptune Dr", "tags": {}, "geometry": {"type": "Point", "coordinates": [-122.189195, 37.70078]}, "servedBy": ["o-9q9-actransit"], "identifiers": [{"identifier": "f-actransit-s-1502700", "tags": {"stop_lat": "37.700780", "stop_code": "55491", "stop_lon": "-122.189195", "parent_station": "", "stop_id": "1502700", "stop_name": "Monarch Bay Dr:Neptune Dr", "location_type": ""}}], "type": "Feature", "properties": {}}, {"onestopId": "s-9q9n7vvth6-farallon~catalina", "name": "Farallon Dr:Catalina St", "tags": {}, "geometry": {"type": "Point", "coordinates": [-122.171216, 37.69359]}, "servedBy": ["o-9q9-actransit"], "identifiers": [{"identifier": "f-actransit-s-1504470", "tags": {"stop_lat": "37.693590", "stop_code": "50689", "stop_lon": "-122.171216", "parent_station": "", "stop_id": "1504470", "stop_name": "Farallon Dr:Catalina St", "location_type": ""}}], "type": "Feature", "properties": {}}, {"onestopId": "s-9q9n7wpmqp-bermuda~acapulco", "name": "Bermuda Way:Acapulco Rd", "tags": {}, "geometry": {"type": "Point", "coordinates": [-122.179722, 37.695031]}, "servedBy": ["o-9q9-actransit"], "identifiers": [{"identifier": "f-actransit-s-1504030", "tags": {"stop_lat": "37.695031", "stop_code": "53060", "stop_lon": "-122.179722", "parent_station": "", "stop_id": "1504030", "stop_name": "Bermuda Way:Acapulco Rd", "location_type": ""}}], "type": "Feature", "properties": {}}, {"onestopId": "s-9q9n7w6fnv-fairway~monarchbay", "name": "Fairway Dr:Monarch Bay Dr", "tags": {}, "geometry": {"type": "Point", "coordinates": [-122.185874, 37.69584]}, "servedBy": ["o-9q9-actransit"], "identifiers": [{"identifier": "f-actransit-s-1504010", "tags": {"stop_lat": "37.695840", "stop_code": "54270", "stop_lon": "-122.185874", "parent_station": "", "stop_id": "1504010", "stop_name": "Fairway Dr:Monarch Bay Dr", "location_type": ""}}], "type": "Feature", "properties": {}}, {"onestopId": "s-9q9n7x2f5p-marina~neptune", "name": "Marina Blvd:Neptune Dr", "tags": {}, "geometry": {"type": "Point", "coordinates": [-122.188776, 37.701342]}, "servedBy": ["o-9q9-actransit"], "identifiers": [{"identifier": "f-actransit-s-1502490", "tags": {"stop_lat": "37.701342", "stop_code": "55281", "stop_lon": "-122.188776", "parent_station": "", "stop_id": "1502490", "stop_name": "Marina Blvd:Neptune Dr", "location_type": ""}}], "type": "Feature", "properties": {}}]}