{"prefix": "9q8zx", "type": "FeatureCollection", "properties": {}, "features": [{"onestopId": "s-9q8zxzvh3h-s23rd~potrero", "name": "S 23rd St:Potrero Av", "tags": {}, "geometry": {"type": "Point", "coordinates": [-122.347819, 37.924183]}, "servedBy": ["o-9q9-actransit"], "identifiers": [{"identifier": "f-actransit-s-1303280", "tags": {"stop_lat": "37.924183", "stop_code": "51254", "stop_lon": "-122.347819", "parent_station": "", "stop_id": "1303280", "stop_name": "S 23rd St:Potrero Av", "location_type": ""}}], "type": "Feature", "properties": {}}, {"onestopId": "s-9q8zxwx537-marinas~regatta", "name": "Marina Way S:Regatta Blvd", "tags": {}, "geometry": {"type": "Point", "coordinates": [-122.35605, 37.917142]}, "servedBy": ["o-9q9-actransit"], "identifiers": [{"identifier": "f-actransit-s-1304310", "tags": {"stop_lat": "37.917142", "stop_code": "59532", "stop_lon": "-122.356050", "parent_station": "", "stop_id": "1304310", "stop_name": "Marina Way S:Regatta Blvd", "location_type": ""}}], "type": "Feature", "properties": {}}, {"onestopId": "s-9q8zxy97v9-regatta~northshore", "name": "Regatta Blvd:Northshore Dr", "tags": {}, "geometry": {"type": "Point", "coordinates": [-122.352774, 37.917218]}, "servedBy": ["o-9q9-actransit"], "identifiers": [{"identifier": "f-actransit-s-1304290", "tags": {"stop_lat": "37.917218", "stop_code": "54884", "stop_lon": "-122.352774", "parent_station": "", "stop_id": "1304290", "stop_name": "Regatta Blvd:Northshore Dr", "location_type": ""}}], "type": "Feature", "properties": {}}, {"onestopId": "s-9q8zxtyxyx-hall~marinas", "name": "Hall Av:Marina Way S", "tags": {}, "geometry": {"type": "Point", "coordinates": [-122.356515, 37.913817]}, "servedBy": ["o-9q9-actransit"], "identifiers": [{"identifier": "f-actransit-s-1304350", "tags": {"stop_lat": "37.913817", "stop_code": "57898", "stop_lon": "-122.356515", "parent_station": "", "stop_id": "1304350", "stop_name": "Hall Av:Marina Way S", "location_type": ""}}], "type": "Feature", "properties": {}}, {"onestopId": "s-9q8zxwp1ye-marinas~hall", "name": "Marina Way S:Hall Av", "tags": {}, "geometry": {"type": "Point", "coordinates": [-122.355822, 37.91414]}, "servedBy": ["o-9q9-actransit"], "identifiers": [{"identifier": "f-actransit-s-1301690", "tags": {"stop_lat": "37.914140", "stop_code": "55205", "stop_lon": "-122.355822", "parent_station": "", "stop_id": "1301690", "stop_name": "Marina Way S:Hall Av", "location_type": ""}}], "type": "Feature", "properties": {}}, {"onestopId": "s-9q8zxwx5wv-marinas~regatta", "name": "Marina Way S:Regatta Blvd", "tags": {}, "geometry": {"type": "Point", "coordinates": [-122.355819, 37.917195]}, "servedBy": ["o-9q9-actransit"], "identifiers": [{"identifier": "f-actransit-s-1304330", "tags": {"stop_lat": "37.917195", "stop_code": "57687", "stop_lon": "-122.355819", "parent_station": "", "stop_id": "1304330", "stop_name": "Marina Way S:Regatta Blvd", "location_type": ""}}], "type": "Feature", "properties": {}}, {"onestopId": "s-9q8zxy8v4f-regatta~northshore", "name": "Regatta Blvd:Northshore Dr", "tags": {}, "geometry": {"type": "Point", "coordinates": [-122.353579, 37.917438]}, "servedBy": ["o-9q9-actransit"], "identifiers": [{"identifier": "f-actransit-s-1302980", "tags": {"stop_lat": "37.917438", "stop_code": "53521", "stop_lon": "-122.353579", "parent_station": "", "stop_id": "1302980", "stop_name": "Regatta Blvd:Northshore Dr", "location_type": ""}}], "type": "Feature", "properties": {}}, {"onestopId": "s-9q8zxtkcdh-harbours~fordpoint", "name": "Harbour Way S:Ford Point", "tags": {}, "geometry": {"type": "Point", "coordinates": [-122.359104, 37.909982]}, "servedBy": ["o-9q9-actransit"], "identifiers": [{"identifier": "f-actransit-s-1304300", "tags": {"stop_lat": "37.909982", "stop_code": "54541", "stop_lon": "-122.359104", "parent_station": "", "stop_id": "1304300", "stop_name": "Harbour Way S:Ford Point", "location_type": ""}}], "type": "Feature", "properties": {}}, {"onestopId": "s-9q8zxyms79-regatta~melvillesquare", "name": "Regatta Blvd:Melville Square Dr", "tags": {}, "geometry": {"type": "Point", "coordinates": [-122.347032, 37.915927]}, "servedBy": ["o-9q9-actransit"], "identifiers": [{"identifier": "f-actransit-s-1302960", "tags": {"stop_lat": "37.915927", "stop_code": "51433", "stop_lon": "-122.347032", "parent_station": "", "stop_id": "1302960", "stop_name": "Regatta Blvd:Melville Square Dr", "location_type": ""}}], "type": "Feature", "properties": {}}, {"onestopId": "s-9q8zxymmm1-regatta~seadrift", "name": "Regatta Blvd:Seadrift Dr", "tags": {}, "geometry": {"type": "Point", "coordinates": [-122.34731, 37.916099]}, "servedBy": ["o-9q9-actransit"], "identifiers": [{"identifier": "f-actransit-s-1302990", "tags": {"stop_lat": "37.916099", "stop_code": "53632", "stop_lon": "-122.347310", "parent_station": "", "stop_id": "1302990", "stop_name": "Regatta Blvd:Seadrift Dr", "location_type": ""}}], "type": "Feature", "properties": {}}]}