{"prefix": "9q9pd", "type": "FeatureCollection", "properties": {}, "features": [{"onestopId": "s-9q9pd0uu91-grizzlypeak~hill", "name": "Grizzly Peak Blvd:Hill Rd", "tags": {}, "geometry": {"type": "Point", "coordinates": [-122.249285, 37.885762]}, "servedBy": ["o-9q9-actransit"], "identifiers": [{"identifier": "f-actransit-s-0302920", "tags": {"stop_lat": "37.885762", "stop_code": "51231", "stop_lon": "-122.249285", "parent_station": "", "stop_id": "0302920", "stop_name": "Grizzly Peak Blvd:Hill Rd", "location_type": ""}}], "type": "Feature", "properties": {}}, {"onestopId": "s-9q9pd0bux6-campus~glendale", "name": "Campus Dr:Glendale Av", "tags": {}, "geometry": {"type": "Point", "coordinates": [-122.254512, 37.885766]}, "servedBy": ["o-9q9-actransit"], "identifiers": [{"identifier": "f-actransit-s-0301230", "tags": {"stop_lat": "37.885766", "stop_code": "57651", "stop_lon": "-122.254512", "parent_station": "", "stop_id": "0301230", "stop_name": "Campus Dr:Glendale Av", "location_type": ""}}], "type": "Feature", "properties": {}}, {"onestopId": "s-9q9pd1f2hs-grizzlypeak~shasta", "name": "Grizzly Peak Blvd:Shasta Rd", "tags": {}, "geometry": {"type": "Point", "coordinates": [-122.252576, 37.890497]}, "servedBy": ["o-9q9-actransit"], "identifiers": [{"identifier": "f-actransit-s-0303020", "tags": {"stop_lat": "37.890497", "stop_code": "54358", "stop_lon": "-122.252576", "parent_station": "", "stop_id": "0303020", "stop_name": "Grizzly Peak Blvd:Shasta Rd", "location_type": ""}}], "type": "Feature", "properties": {}}, {"onestopId": "s-9q9pd0d11t-campus~delmar", "name": "Campus Dr:Del Mar Av", "tags": {}, "geometry": {"type": "Point", "coordinates": [-122.253042, 37.883805]}, "servedBy": ["o-9q9-actransit"], "identifiers": [{"identifier": "f-actransit-s-0301220", "tags": {"stop_lat": "37.883805", "stop_code": "55194", "stop_lon": "-122.253042", "parent_station": "", "stop_id": "0301220", "stop_name": "Campus Dr:Del Mar Av", "location_type": ""}}], "type": "Feature", "properties": {}}, {"onestopId": "s-9q9pd0tw7t-grizzlypeak~1411", "name": "Grizzly Peak Blvd:#1411", "tags": {}, "geometry": {"type": "Point", "coordinates": [-122.248154, 37.884709]}, "servedBy": ["o-9q9-actransit"], "identifiers": [{"identifier": "f-actransit-s-0302820", "tags": {"stop_lat": "37.884709", "stop_code": "52502", "stop_lon": "-122.248154", "parent_station": "", "stop_id": "0302820", "stop_name": "Grizzly Peak Blvd:#1411", "location_type": ""}}], "type": "Feature", "properties": {}}, {"onestopId": "s-9q9pd4b116-centralpark~wildcatcanyon", "name": "Central Park Dr:Wildcat Canyon Rd", "tags": {}, "geometry": {"type": "Point", "coordinates": [-122.255805, 37.896148]}, "servedBy": ["o-9q9-actransit"], "identifiers": [{"identifier": "f-actransit-s-0301550", "tags": {"stop_lat": "37.896148", "stop_code": "59213", "stop_lon": "-122.255805", "parent_station": "", "stop_id": "0301550", "stop_name": "Central Park Dr:Wildcat Canyon Rd", "location_type": ""}}], "type": "Feature", "properties": {}}, {"onestopId": "s-9q9pd0p1kv-centennial~parkinglot", "name": "Centennial Dr:Parking Lot", "tags": {}, "geometry": {"type": "Point", "coordinates": [-122.246038, 37.881104]}, "servedBy": ["o-9q9-actransit"], "identifiers": [{"identifier": "f-actransit-s-0306520", "tags": {"stop_lat": "37.881104", "stop_code": "50991", "stop_lon": "-122.246038", "parent_station": "", "stop_id": "0306520", "stop_name": "Centennial Dr:Parking Lot", "location_type": ""}}], "type": "Feature", "properties": {}}, {"onestopId": "s-9q9pd0kh1s-senior~fairlawn", "name": "Senior Av:Fairlawn Dr", "tags": {}, "geometry": {"type": "Point", "coordinates": [-122.2503, 37.882944]}, "servedBy": ["o-9q9-actransit"], "identifiers": [{"identifier": "f-actransit-s-0304740", "tags": {"stop_lat": "37.882944", "stop_code": "53589", "stop_lon": "-122.250300", "parent_station": "", "stop_id": "0304740", "stop_name": "Senior Av:Fairlawn Dr", "location_type": ""}}], "type": "Feature", "properties": {}}, {"onestopId": "s-9q9pd06e55-avenida~campus", "name": "Avenida Dr:Campus Dr", "tags": {}, "geometry": {"type": "Point", "coordinates": [-122.252289, 37.882765]}, "servedBy": ["o-9q9-actransit"], "identifiers": [{"identifier": "f-actransit-s-0301090", "tags": {"stop_lat": "37.882765", "stop_code": "55827", "stop_lon": "-122.252289", "parent_station": "", "stop_id": "0301090", "stop_name": "Avenida Dr:Campus Dr", "location_type": ""}}], "type": "Feature", "properties": {}}, {"onestopId": "s-9q9pd0mh8v-grizzlypeak~senior", "name": "Grizzly Peak Blvd:Senior Av", "tags": {}, "geometry": {"type": "Point", "coordinates": [-122.248959, 37.883035]}, "servedBy": ["o-9q9-actransit"], "identifiers": [{"identifier": "f-actransit-s-0303000", "tags": {"stop_lat": "37.883035", "stop_code": "53077", "stop_lon": "-122.248959", "parent_station": "", "stop_id": "0303000", "stop_name": "Grizzly Peak Blvd:Senior Av", "location_type": ""}}], "type": "Feature", "properties": {}}, {"onestopId": "s-9q9pd1bw5t-grizzlypeak~stevenson", "name": "Grizzly Peak Blvd:Stevenson Av", "tags": {}, "geometry": {"type": "Point", "coordinates": [-122.255019, 37.891532]}, "servedBy": ["o-9q9-actransit"], "identifiers": [{"identifier": "f-actransit-s-0303030", "tags": {"stop_lat": "37.891532", "stop_code": "54383", "stop_lon": "-122.255019", "parent_station": "", "stop_id": "0303030", "stop_name": "Grizzly Peak Blvd:Stevenson Av", "location_type": ""}}], "type": "Feature", "properties": {}}, {"onestopId": "s-9q9pd19gph-shasta~miller", "name": "Shasta Rd:Miller Av", "tags": {}, "geometry": {"type": "Point", "coordinates": [-122.253155, 37.88964]}, "servedBy": ["o-9q9-actransit"], "identifiers": [{"identifier": "f-actransit-s-0304760", "tags": {"stop_lat": "37.889640", "stop_code": "50669", "stop_lon": "-122.253155", "parent_station": "", "stop_id": "0304760", "stop_name": "Shasta Rd:Miller Av", "location_type": ""}}], "type": "Feature", "properties": {}}, {"onestopId": "s-9q9pd52n1c-centralpark~lakeanza", "name": "Central Park Dr:Lake Anza", "tags": {}, "geometry": {"type": "Point", "coordinates": [-122.255777, 37.89975]}, "servedBy": ["o-9q9-actransit"], "identifiers": [{"identifier": "f-actransit-s-9900560", "tags": {"stop_lat": "37.899750", "stop_code": "50429", "stop_lon": "-122.255777", "parent_station": "", "stop_id": "9900560", "stop_name": "Central Park Dr:Lake Anza", "location_type": ""}}], "type": "Feature", "properties": {}}, {"onestopId": "s-9q9pd11p2p-campus~shasta", "name": "Campus Dr:Shasta Rd", "tags": {}, "geometry": {"type": "Point", "coordinates": [-122.254486, 37.887638]}, "servedBy": ["o-9q9-actransit"], "identifiers": [{"identifier": "f-actransit-s-0301250", "tags": {"stop_lat": "37.887638", "stop_code": "57653", "stop_lon": "-122.254486", "parent_station": "", "stop_id": "0301250", "stop_name": "Campus Dr:Shasta Rd", "location_type": ""}}], "type": "Feature", "properties": {}}, {"onestopId": "s-9q9pd1ds9y-shasta~grizzlypeak", "name": "Shasta Rd:Grizzly Peak Blvd", "tags": {}, "geometry": {"type": "Point", "coordinates": [-122.252345, 37.889904]}, "servedBy": ["o-9q9-actransit"], "identifiers": [{"identifier": "f-actransit-s-0304750", "tags": {"stop_lat": "37.889904", "stop_code": "59895", "stop_lon": "-122.252345", "parent_station": "", "stop_id": "0304750", "stop_name": "Shasta Rd:Grizzly Peak Blvd", "location_type": ""}}], "type": "Feature", "properties": {}}, {"onestopId": "s-9q9pd157pr-grizzlypeak~arcade", "name": "Grizzly Peak Blvd:Arcade Av", "tags": {}, "geometry": {"type": "Point", "coordinates": [-122.251084, 37.88691]}, "servedBy": ["o-9q9-actransit"], "identifiers": [{"identifier": "f-actransit-s-0302830", "tags": {"stop_lat": "37.886910", "stop_code": "58189", "stop_lon": "-122.251084", "parent_station": "", "stop_id": "0302830", "stop_name": "Grizzly Peak Blvd:Arcade Av", "location_type": ""}}], "type": "Feature", "properties": {}}, {"onestopId": "s-9q9pd15hqp-grizzlypeak~arcade", "name": "Grizzly Peak Blvd:Arcade Av", "tags": {}, "geometry": {"type": "Point", "coordinates": [-122.251474, 37.887124]}, "servedBy": ["o-9q9-actransit"], "identifiers": [{"identifier": "f-actransit-s-0302840", "tags": {"stop_lat": "37.887124", "stop_code": "58710", "stop_lon": "-122.251474", "parent_station": "", "stop_id": "0302840", "stop_name": "Grizzly Peak Blvd:Arcade Av", "location_type": ""}}], "type": "Feature", "properties": {}}, {"onestopId": "s-9q9pd4r3n4-wildcatcanyon~brazillianbuilding", "name": "Wildcat Canyon Rd:Brazillian Building", "tags": {}, "geometry": {"type": "Point", "coordinates": [-122.245637, 37.893405]}, "servedBy": ["o-9q9-actransit"], "identifiers": [{"identifier": "f-actransit-s-9901470", "tags": {"stop_lat": "37.893405", "stop_code": "50493", "stop_lon": "-122.245637", "parent_station": "", "stop_id": "9901470", "stop_name": "Wildcat Canyon Rd:Brazillian Building", "location_type": ""}}], "type": "Feature", "properties": {}}, {"onestopId": "s-9q9pd0uvh4-grizzlypeak~hill", "name": "Grizzly Peak Blvd:Hill Rd", "tags": {}, "geometry": {"type": "Point", "coordinates": [-122.249161, 37.885852]}, "servedBy": ["o-9q9-actransit"], "identifiers": [{"identifier": "f-actransit-s-0302930", "tags": {"stop_lat": "37.885852", "stop_code": "59854", "stop_lon": "-122.249161", "parent_station": "", "stop_id": "0302930", "stop_name": "Grizzly Peak Blvd:Hill Rd", "location_type": ""}}], "type": "Feature", "properties": {}}, {"onestopId": "s-9q9pd0kpmr-fairlawn~avenida", "name": "Fairlawn Dr:Avenida Dr", "tags": {}, "geometry": {"type": "Point", "coordinates": [-122.250139, 37.883519]}, "servedBy": ["o-9q9-actransit"], "identifiers": [{"identifier": "f-actransit-s-0302630", "tags": {"stop_lat": "37.883519", "stop_code": "57478", "stop_lon": "-122.250139", "parent_station": "", "stop_id": "0302630", "stop_name": "Fairlawn Dr:Avenida Dr", "location_type": ""}}], "type": "Feature", "properties": {}}, {"onestopId": "s-9q9pd109zq-campus~quail", "name": "Campus Dr:Quail Av", "tags": {}, "geometry": {"type": "Point", "coordinates": [-122.254852, 37.886689]}, "servedBy": ["o-9q9-actransit"], "identifiers": [{"identifier": "f-actransit-s-0301240", "tags": {"stop_lat": "37.886689", "stop_code": "57652", "stop_lon": "-122.254852", "parent_station": "", "stop_id": "0301240", "stop_name": "Campus Dr:Quail Av", "location_type": ""}}], "type": "Feature", "properties": {}}, {"onestopId": "s-9q9pd1bwu5-grizzlypeak~muir", "name": "Grizzly Peak Blvd:Muir Way", "tags": {}, "geometry": {"type": "Point", "coordinates": [-122.255, 37.891648]}, "servedBy": ["o-9q9-actransit"], "identifiers": [{"identifier": "f-actransit-s-0302990", "tags": {"stop_lat": "37.891648", "stop_code": "57662", "stop_lon": "-122.255000", "parent_station": "", "stop_id": "0302990", "stop_name": "Grizzly Peak Blvd:Muir Way", "location_type": ""}}], "type": "Feature", "properties": {}}, {"onestopId": "s-9q9pd1dx5z-grizzlypeak~shasta", "name": "Grizzly Peak Blvd:Shasta Rd", "tags": {}, "geometry": {"type": "Point", "coordinates": [-122.252263, 37.890339]}, "servedBy": ["o-9q9-actransit"], "identifiers": [{"identifier": "f-actransit-s-0303010", "tags": {"stop_lat": "37.890339", "stop_code": "50226", "stop_lon": "-122.252263", "parent_station": "", "stop_id": "0303010", "stop_name": "Grizzly Peak Blvd:Shasta Rd", "location_type": ""}}], "type": "Feature", "properties": {}}, {"onestopId": "s-9q9pd13dz0-shasta~queens", "name": "Shasta Rd:Queens Rd", "tags": {}, "geometry": {"type": "Point", "coordinates": [-122.253495, 37.888201]}, "servedBy": ["o-9q9-actransit"], "identifiers": [{"identifier": "f-actransit-s-0304770", "tags": {"stop_lat": "37.888201", "stop_code": "59765", "stop_lon": "-122.253495", "parent_station": "", "stop_id": "0304770", "stop_name": "Shasta Rd:Queens Rd", "location_type": ""}}], "type": "Feature", "properties": {}}, {"onestopId": "s-9q9pd0tquq-grizzlypeak~avenida", "name": "Grizzly Peak Blvd:Avenida Dr", "tags": {}, "geometry": {"type": "Point", "coordinates": [-122.248462, 37.884802]}, "servedBy": ["o-9q9-actransit"], "identifiers": [{"identifier": "f-actransit-s-0302850", "tags": {"stop_lat": "37.884802", "stop_code": "57610", "stop_lon": "-122.248462", "parent_station": "", "stop_id": "0302850", "stop_name": "Grizzly Peak Blvd:Avenida Dr", "location_type": ""}}], "type": "Feature", "properties": {}}, {"onestopId": "s-9q9pd06zxm-avenida~queens", "name": "Avenida Dr:Queens Rd", "tags": {}, "geometry": {"type": "Point", "coordinates": [-122.251761, 37.883547]}, "servedBy": ["o-9q9-actransit"], "identifiers": [{"identifier": "f-actransit-s-0301100", "tags": {"stop_lat": "37.883547", "stop_code": "51138", "stop_lon": "-122.251761", "parent_station": "", "stop_id": "0301100", "stop_name": "Avenida Dr:Queens Rd", "location_type": ""}}], "type": "Feature", "properties": {}}]}