{"prefix": "9qbbf", "type": "FeatureCollection", "properties": {}, "features": [{"onestopId": "s-9qbbfeb6gw-sanmarin~simmons", "name": "San Marin Dr & Simmons Ln", "tags": {}, "geometry": {"type": "Point", "coordinates": [-122.584953, 38.121693]}, "servedBy": ["o-9qb-goldengatetransit"], "identifiers": [{"identifier": "f-goldengatetransit-s-40657", "tags": {"stop_lat": "  38.121693", "stop_code": "40657", "stop_lon": "-122.584953", "stop_id": "40657", "stop_desc": "", "stop_name": "San Marin Dr & Simmons Ln", "zone_id": "4"}}], "type": "Feature", "properties": {}}, {"onestopId": "s-9qbbfcgvwj-redwood~olive", "name": "Redwood Blvd & Olive Av", "tags": {}, "geometry": {"type": "Point", "coordinates": [-122.569046, 38.111172]}, "servedBy": ["o-9qb-goldengatetransit"], "identifiers": [{"identifier": "f-goldengatetransit-s-40694", "tags": {"stop_lat": "  38.111172", "stop_code": "40694", "stop_lon": "-122.569046", "stop_id": "40694", "stop_desc": "", "stop_name": "Redwood Blvd & Olive Av", "zone_id": "4"}}], "type": "Feature", "properties": {}}, {"onestopId": "s-9qbbffv1sh-redwood~escallonia", "name": "Redwood Blvd & Escallonia Dr", "tags": {}, "geometry": {"type": "Point", "coordinates": [-122.567421, 38.115974]}, "servedBy": ["o-9qb-goldengatetransit"], "identifiers": [{"identifier": "f-goldengatetransit-s-41046", "tags": {"stop_lat": "  38.115974", "stop_code": "41046", "stop_lon": "-122.567421", "stop_id": "41046", "stop_desc": "", "stop_name": "Redwood Blvd & Escallonia Dr", "zone_id": "4"}}], "type": "Feature", "properties": {}}, {"onestopId": "s-9qbbf3wv9q-novato~mcclay", "name": "Novato Blvd & Mcclay Rd", "tags": {}, "geometry": {"type": "Point", "coordinates": [-122.587112, 38.109806]}, "servedBy": ["o-9qb-goldengatetransit"], "identifiers": [{"identifier": "f-goldengatetransit-s-40681", "tags": {"stop_lat": "  38.109806", "stop_code": "40681", "stop_lon": "-122.587112", "stop_id": "40681", "stop_desc": "", "stop_name": "Novato Blvd & Mcclay Rd", "zone_id": "4"}}], "type": "Feature", "properties": {}}, {"onestopId": "s-9qbbfkq90m-sanmarin~sereno", "name": "San Marin Dr & Sereno Way", "tags": {}, "geometry": {"type": "Point", "coordinates": [-122.587494, 38.124134]}, "servedBy": ["o-9qb-goldengatetransit"], "identifiers": [{"identifier": "f-goldengatetransit-s-40660", "tags": {"stop_lat": "  38.124134", "stop_code": "40660", "stop_lon": "-122.587494", "stop_id": "40660", "stop_desc": "", "stop_name": "San Marin Dr & Sereno Way", "zone_id": "4"}}], "type": "Feature", "properties": {}}, {"onestopId": "s-9qbbfb97m8-diablo~george", "name": "Diablo Av & George St", "tags": {}, "geometry": {"type": "Point", "coordinates": [-122.57251, 38.103893]}, "servedBy": ["o-9qb-goldengatetransit"], "identifiers": [{"identifier": "f-goldengatetransit-s-40700", "tags": {"stop_lat": "  38.103893", "stop_code": "40700", "stop_lon": "-122.572510", "stop_id": "40700", "stop_desc": "", "stop_name": "Diablo Av & George St", "zone_id": "4"}}], "type": "Feature", "properties": {}}, {"onestopId": "s-9qbbfk5t95-sancarlos~sanmarin", "name": "San Carlos Way & San Marin Dr", "tags": {}, "geometry": {"type": "Point", "coordinates": [-122.591576, 38.12352]}, "servedBy": ["o-9qb-goldengatetransit"], "identifiers": [{"identifier": "f-goldengatetransit-s-40662", "tags": {"stop_lat": "  38.123520", "stop_code": "40662", "stop_lon": "-122.591576", "stop_id": "40662", "stop_desc": "", "stop_name": "San Carlos Way & San Marin Dr", "zone_id": "4"}}], "type": "Feature", "properties": {}}, {"onestopId": "s-9qbbf70pgq-sancarlos~clemente", "name": "San Carlos Way & Clemente Ct", "tags": {}, "geometry": {"type": "Point", "coordinates": [-122.596291, 38.118431]}, "servedBy": ["o-9qb-goldengatetransit"], "identifiers": [{"identifier": "f-goldengatetransit-s-40668", "tags": {"stop_lat": "  38.118431", "stop_code": "40668", "stop_lon": "-122.596291", "stop_id": "40668", "stop_desc": "", "stop_name": "San Carlos Way & Clemente Ct", "zone_id": "4"}}], "type": "Feature", "properties": {}}, {"onestopId": "s-9qbbfgn371-athertonsanmarinbuspad", "name": "Atherton San Marin Dr Bus Pad", "tags": {}, "geometry": {"type": "Point", "coordinates": [-122.56575, 38.11729]}, "servedBy": ["o-9qb-goldengatetransit"], "identifiers": [{"identifier": "f-goldengatetransit-s-41045", "tags": {"stop_lat": "  38.117290", "stop_code": "41045", "stop_lon": "-122.565750", "stop_id": "41045", "stop_desc": "", "stop_name": "Atherton San Marin Dr Bus Pad", "zone_id": "4"}}], "type": "Feature", "properties": {}}, {"onestopId": "s-9qbbf76whv-sancarlos~sanluis", "name": "San Carlos Way & San Luis Way", "tags": {}, "geometry": {"type": "Point", "coordinates": [-122.592789, 38.119499]}, "servedBy": ["o-9qb-goldengatetransit"], "identifiers": [{"identifier": "f-goldengatetransit-s-41003", "tags": {"stop_lat": "  38.119499", "stop_code": "41003", "stop_lon": "-122.592789", "stop_id": "41003", "stop_desc": "", "stop_name": "San Carlos Way & San Luis Way", "zone_id": "4"}}], "type": "Feature", "properties": {}}, {"onestopId": "s-9qbbf5f5ec-sanmarin~sanramon", "name": "San Marin Dr & San Ramon Way", "tags": {}, "geometry": {"type": "Point", "coordinates": [-122.604507, 38.121792]}, "servedBy": ["o-9qb-goldengatetransit"], "identifiers": [{"identifier": "f-goldengatetransit-s-40671", "tags": {"stop_lat": "  38.121792", "stop_code": "40671", "stop_lon": "-122.604507", "stop_id": "40671", "stop_desc": "", "stop_name": "San Marin Dr & San Ramon Way", "zone_id": "4"}}], "type": "Feature", "properties": {}}, {"onestopId": "s-9qbbfbvvqw-delong~reichert", "name": "DeLong Av & Reichert Av", "tags": {}, "geometry": {"type": "Point", "coordinates": [-122.566277, 38.10564]}, "servedBy": ["o-9qb-goldengatetransit"], "identifiers": [{"identifier": "f-goldengatetransit-s-40699", "tags": {"stop_lat": "  38.105640", "stop_code": "40699", "stop_lon": "-122.566277", "stop_id": "40699", "stop_desc": "", "stop_name": "DeLong Av & Reichert Av", "zone_id": "4"}}], "type": "Feature", "properties": {}}, {"onestopId": "s-9qbbf46zx1-novato~eucalyptus", "name": "Novato Blvd & Eucalyptus Av", "tags": {}, "geometry": {"type": "Point", "coordinates": [-122.60334, 38.114239]}, "servedBy": ["o-9qb-goldengatetransit"], "identifiers": [{"identifier": "f-goldengatetransit-s-40675", "tags": {"stop_lat": "  38.114239", "stop_code": "40675", "stop_lon": "-122.603340", "stop_id": "40675", "stop_desc": "", "stop_name": "Novato Blvd & Eucalyptus Av", "zone_id": "4"}}], "type": "Feature", "properties": {}}, {"onestopId": "s-9qbbfeb9ew-sanmarin~simmons", "name": "San Marin Dr & Simmons Ln", "tags": {}, "geometry": {"type": "Point", "coordinates": [-122.58461, 38.121479]}, "servedBy": ["o-9qb-goldengatetransit"], "identifiers": [{"identifier": "f-goldengatetransit-s-40658", "tags": {"stop_lat": "  38.121479", "stop_code": "40658", "stop_lon": "-122.584610", "stop_id": "40658", "stop_desc": "", "stop_name": "San Marin Dr & Simmons Ln", "zone_id": "4"}}], "type": "Feature", "properties": {}}, {"onestopId": "s-9qbbf65bgw-novato~wilson", "name": "Novato Blvd & Wilson Ct", "tags": {}, "geometry": {"type": "Point", "coordinates": [-122.591133, 38.111736]}, "servedBy": ["o-9qb-goldengatetransit"], "identifiers": [{"identifier": "f-goldengatetransit-s-40680", "tags": {"stop_lat": "  38.111736", "stop_code": "40680", "stop_lon": "-122.591133", "stop_id": "40680", "stop_desc": "", "stop_name": "Novato Blvd & Wilson Ct", "zone_id": "4"}}], "type": "Feature", "properties": {}}, {"onestopId": "s-9qbbf7e9jv-sancarlos~sanluis", "name": "San Carlos Way & San Luis Way", "tags": {}, "geometry": {"type": "Point", "coordinates": [-122.591377, 38.120014]}, "servedBy": ["o-9qb-goldengatetransit"], "identifiers": [{"identifier": "f-goldengatetransit-s-40663", "tags": {"stop_lat": "  38.120014", "stop_code": "40663", "stop_lon": "-122.591377", "stop_id": "40663", "stop_desc": "", "stop_name": "San Carlos Way & San Luis Way", "zone_id": "4"}}], "type": "Feature", "properties": {}}, {"onestopId": "s-9qbbfgeksm-sanmarin~santolina", "name": "San Marin Dr & Santolina Dr", "tags": {}, "geometry": {"type": "Point", "coordinates": [-122.569817, 38.120613]}, "servedBy": ["o-9qb-goldengatetransit"], "identifiers": [{"identifier": "f-goldengatetransit-s-41049", "tags": {"stop_lat": "  38.120613", "stop_code": "41049", "stop_lon": "-122.569817", "stop_id": "41049", "stop_desc": "", "stop_name": "San Marin Dr & Santolina Dr", "zone_id": "4"}}], "type": "Feature", "properties": {}}, {"onestopId": "s-9qbbfc4dzz-redwood~grant", "name": "Redwood Blvd & Grant Av", "tags": {}, "geometry": {"type": "Point", "coordinates": [-122.570694, 38.10659]}, "servedBy": ["o-9qb-goldengatetransit"], "identifiers": [{"identifier": "f-goldengatetransit-s-40696", "tags": {"stop_lat": "  38.106590", "stop_code": "40696", "stop_lon": "-122.570694", "stop_id": "40696", "stop_desc": "", "stop_name": "Redwood Blvd & Grant Av", "zone_id": "4"}}], "type": "Feature", "properties": {}}, {"onestopId": "s-9qbbfgm2ct-sanmarin~redwood", "name": "San Marin Dr & Redwood Blvd", "tags": {}, "geometry": {"type": "Point", "coordinates": [-122.567184, 38.118595]}, "servedBy": ["o-9qb-goldengatetransit"], "identifiers": [{"identifier": "f-goldengatetransit-s-40655", "tags": {"stop_lat": "  38.118595", "stop_code": "40655", "stop_lon": "-122.567184", "stop_id": "40655", "stop_desc": "", "stop_name": "San Marin Dr & Redwood Blvd", "zone_id": "4"}}], "type": "Feature", "properties": {}}, {"onestopId": "s-9qbbfesten-sanmarin~somerset", "name": "San Marin Dr & Somerset Dr", "tags": {}, "geometry": {"type": "Point", "coordinates": [-122.57914, 38.120789]}, "servedBy": ["o-9qb-goldengatetransit"], "identifiers": [{"identifier": "f-goldengatetransit-s-41075", "tags": {"stop_lat": "  38.120789", "stop_code": "41075", "stop_lon": "-122.579140", "stop_id": "41075", "stop_desc": "", "stop_name": "San Marin Dr & Somerset Dr", "zone_id": "4"}}], "type": "Feature", "properties": {}}, {"onestopId": "s-9qbbf730yp-sancarlos~corona", "name": "San Carlos Way & Corona Ct", "tags": {}, "geometry": {"type": "Point", "coordinates": [-122.594795, 38.11861]}, "servedBy": ["o-9qb-goldengatetransit"], "identifiers": [{"identifier": "f-goldengatetransit-s-40666", "tags": {"stop_lat": "  38.118610", "stop_code": "40666", "stop_lon": "-122.594795", "stop_id": "40666", "stop_desc": "", "stop_name": "San Carlos Way & Corona Ct", "zone_id": "4"}}], "type": "Feature", "properties": {}}, {"onestopId": "s-9qbbf76t1t-sancarlos~sanluis", "name": "San Carlos Way & San Luis Way", "tags": {}, "geometry": {"type": "Point", "coordinates": [-122.592934, 38.119324]}, "servedBy": ["o-9qb-goldengatetransit"], "identifiers": [{"identifier": "f-goldengatetransit-s-41002", "tags": {"stop_lat": "  38.119324", "stop_code": "41002", "stop_lon": "-122.592934", "stop_id": "41002", "stop_desc": "", "stop_name": "San Carlos Way & San Luis Way", "zone_id": "4"}}], "type": "Feature", "properties": {}}, {"onestopId": "s-9qbbffqeff-goldengateplace~railroad", "name": "Golden Gate Place & Railroad Av", "tags": {}, "geometry": {"type": "Point", "coordinates": [-122.565414, 38.113605]}, "servedBy": ["o-9qb-goldengatetransit"], "identifiers": [{"identifier": "f-goldengatetransit-s-41051", "tags": {"stop_lat": "  38.113605", "stop_code": "41051", "stop_lon": "-122.565414", "stop_id": "41051", "stop_desc": "", "stop_name": "Golden Gate Place & Railroad Av", "zone_id": "4"}}], "type": "Feature", "properties": {}}, {"onestopId": "s-9qbbf5nzgv-sancarlos~sanandreas", "name": "San Carlos Way & San Andreas Dr", "tags": {}, "geometry": {"type": "Point", "coordinates": [-122.597984, 38.118427]}, "servedBy": ["o-9qb-goldengatetransit"], "identifiers": [{"identifier": "f-goldengatetransit-s-40667", "tags": {"stop_lat": "  38.118427", "stop_code": "40667", "stop_lon": "-122.597984", "stop_id": "40667", "stop_desc": "", "stop_name": "San Carlos Way & San Andreas Dr", "zone_id": "4"}}], "type": "Feature", "properties": {}}, {"onestopId": "s-9qbbf4pd3n-novato~oliva", "name": "Novato Blvd & Oliva Dr", "tags": {}, "geometry": {"type": "Point", "coordinates": [-122.597076, 38.111996]}, "servedBy": ["o-9qb-goldengatetransit"], "identifiers": [{"identifier": "f-goldengatetransit-s-40677", "tags": {"stop_lat": "  38.111996", "stop_code": "40677", "stop_lon": "-122.597076", "stop_id": "40677", "stop_desc": "", "stop_name": "Novato Blvd & Oliva Dr", "zone_id": "4"}}], "type": "Feature", "properties": {}}, {"onestopId": "s-9qbbfb31wj-snovato~diablo", "name": "S Novato Blvd & Diablo Av", "tags": {}, "geometry": {"type": "Point", "coordinates": [-122.572823, 38.102245]}, "servedBy": ["o-9qb-goldengatetransit"], "identifiers": [{"identifier": "f-goldengatetransit-s-40702", "tags": {"stop_lat": "  38.102245", "stop_code": "40702", "stop_lon": "-122.572823", "stop_id": "40702", "stop_desc": "", "stop_name": "S Novato Blvd & Diablo Av", "zone_id": "4"}}], "type": "Feature", "properties": {}}, {"onestopId": "s-9qbbf9h6bj-novato~seventh", "name": "Novato Blvd & Seventh St", "tags": {}, "geometry": {"type": "Point", "coordinates": [-122.579605, 38.106583]}, "servedBy": ["o-9qb-goldengatetransit"], "identifiers": [{"identifier": "f-goldengatetransit-s-40687", "tags": {"stop_lat": "  38.106583", "stop_code": "40687", "stop_lon": "-122.579605", "stop_id": "40687", "stop_desc": "", "stop_name": "Novato Blvd & Seventh St", "zone_id": "4"}}], "type": "Feature", "properties": {}}, {"onestopId": "s-9qbbf4pe0j-novato~oliva", "name": "Novato Blvd & Oliva Dr", "tags": {}, "geometry": {"type": "Point", "coordinates": [-122.597122, 38.112118]}, "servedBy": ["o-9qb-goldengatetransit"], "identifiers": [{"identifier": "f-goldengatetransit-s-40678", "tags": {"stop_lat": "  38.112118", "stop_code": "40678", "stop_lon": "-122.597122", "stop_id": "40678", "stop_desc": "", "stop_name": "Novato Blvd & Oliva Dr", "zone_id": "4"}}], "type": "Feature", "properties": {}}, {"onestopId": "s-9qbbf3wy2z-novato~mcclay", "name": "Novato Blvd & McClay Rd", "tags": {}, "geometry": {"type": "Point", "coordinates": [-122.587128, 38.10994]}, "servedBy": ["o-9qb-goldengatetransit"], "identifiers": [{"identifier": "f-goldengatetransit-s-40682", "tags": {"stop_lat": "  38.109940", "stop_code": "40682", "stop_lon": "-122.587128", "stop_id": "40682", "stop_desc": "", "stop_name": "Novato Blvd & McClay Rd", "zone_id": "4"}}], "type": "Feature", "properties": {}}, {"onestopId": "s-9qbbf93m5u-novato~grant", "name": "Novato Blvd & Grant Av", "tags": {}, "geometry": {"type": "Point", "coordinates": [-122.583565, 38.108337]}, "servedBy": ["o-9qb-goldengatetransit"], "identifiers": [{"identifier": "f-goldengatetransit-s-40684", "tags": {"stop_lat": "  38.108337", "stop_code": "40684", "stop_lon": "-122.583565", "stop_id": "40684", "stop_desc": "", "stop_name": "Novato Blvd & Grant Av", "zone_id": "4"}}], "type": "Feature", "properties": {}}, {"onestopId": "s-9qbbf9h4qu-novato~tamalpais", "name": "Novato Blvd & Tamalpais Av", "tags": {}, "geometry": {"type": "Point", "coordinates": [-122.579666, 38.106491]}, "servedBy": ["o-9qb-goldengatetransit"], "identifiers": [{"identifier": "f-goldengatetransit-s-40685", "tags": {"stop_lat": "  38.106491", "stop_code": "40685", "stop_lon": "-122.579666", "stop_id": "40685", "stop_desc": "", "stop_name": "Novato Blvd & Tamalpais Av", "zone_id": "4"}}], "type": "Feature", "properties": {}}, {"onestopId": "s-9qbbfgjr25-sanmarin~redwood", "name": "San Marin Dr & Redwood Blvd", "tags": {}, "geometry": {"type": "Point", "coordinates": [-122.567245, 38.118328]}, "servedBy": ["o-9qb-goldengatetransit"], "identifiers": [{"identifier": "f-goldengatetransit-s-40656", "tags": {"stop_lat": "  38.118328", "stop_code": "40656", "stop_lon": "-122.567245", "stop_id": "40656", "stop_desc": "", "stop_name": "San Marin Dr & Redwood Blvd", "zone_id": "4"}}], "type": "Feature", "properties": {}}, {"onestopId": "s-9qbbffv7ky-redwood~rushcreekplace", "name": "Redwood Blvd & Rush Creek Place", "tags": {}, "geometry": {"type": "Point", "coordinates": [-122.567039, 38.116283]}, "servedBy": ["o-9qb-goldengatetransit"], "identifiers": [{"identifier": "f-goldengatetransit-s-41047", "tags": {"stop_lat": "  38.116283", "stop_code": "41047", "stop_lon": "-122.567039", "stop_id": "41047", "stop_desc": "", "stop_name": "Redwood Blvd & Rush Creek Place", "zone_id": "4"}}], "type": "Feature", "properties": {}}, {"onestopId": "s-9qbbfgeuv8-sanmarin~eastcampus", "name": "San Marin Dr & East Campus Dr", "tags": {}, "geometry": {"type": "Point", "coordinates": [-122.569077, 38.120632]}, "servedBy": ["o-9qb-goldengatetransit"], "identifiers": [{"identifier": "f-goldengatetransit-s-41048", "tags": {"stop_lat": "  38.120632", "stop_code": "41048", "stop_lon": "-122.569077", "stop_id": "41048", "stop_desc": "", "stop_name": "San Marin Dr & East Campus Dr", "zone_id": "4"}}], "type": "Feature", "properties": {}}, {"onestopId": "s-9qbbfez8fs-sanmarin~westcampus", "name": "San Marin Dr & West Campus Dr", "tags": {}, "geometry": {"type": "Point", "coordinates": [-122.575035, 38.121338]}, "servedBy": ["o-9qb-goldengatetransit"], "identifiers": [{"identifier": "f-goldengatetransit-s-41074", "tags": {"stop_lat": "  38.121338", "stop_code": "41074", "stop_lon": "-122.575035", "stop_id": "41074", "stop_desc": "", "stop_name": "San Marin Dr & West Campus Dr", "zone_id": "4"}}], "type": "Feature", "properties": {}}, {"onestopId": "s-9qbbf7ebc6-sancarlos~sanluis", "name": "San Carlos Way & San Luis Ct", "tags": {}, "geometry": {"type": "Point", "coordinates": [-122.591232, 38.119953]}, "servedBy": ["o-9qb-goldengatetransit"], "identifiers": [{"identifier": "f-goldengatetransit-s-40664", "tags": {"stop_lat": "  38.119953", "stop_code": "40664", "stop_lon": "-122.591232", "stop_id": "40664", "stop_desc": "", "stop_name": "San Carlos Way & San Luis Ct", "zone_id": "4"}}], "type": "Feature", "properties": {}}, {"onestopId": "s-9qbbfcuqcx-redwood~olive", "name": "Redwood Blvd & Olive Av", "tags": {}, "geometry": {"type": "Point", "coordinates": [-122.568558, 38.111397]}, "servedBy": ["o-9qb-goldengatetransit"], "identifiers": [{"identifier": "f-goldengatetransit-s-40695", "tags": {"stop_lat": "  38.111397", "stop_code": "40695", "stop_lon": "-122.568558", "stop_id": "40695", "stop_desc": "", "stop_name": "Redwood Blvd & Olive Av", "zone_id": "4"}}], "type": "Feature", "properties": {}}, {"onestopId": "s-9qbbf7310h-sancarlos~corona", "name": "San Carlos Way & Corona Ct", "tags": {}, "geometry": {"type": "Point", "coordinates": [-122.595055, 38.118633]}, "servedBy": ["o-9qb-goldengatetransit"], "identifiers": [{"identifier": "f-goldengatetransit-s-40665", "tags": {"stop_lat": "  38.118633", "stop_code": "40665", "stop_lon": "-122.595055", "stop_id": "40665", "stop_desc": "", "stop_name": "San Carlos Way & Corona Ct", "zone_id": "4"}}], "type": "Feature", "properties": {}}, {"onestopId": "s-9qbbffzqtt-athertonsanmarinbuspad", "name": "Atherton San Marin Dr Bus Pad", "tags": {}, "geometry": {"type": "Point", "coordinates": [-122.56427, 38.116837]}, "servedBy": ["o-9qb-goldengatetransit"], "identifiers": [{"identifier": "f-goldengatetransit-s-41044", "tags": {"stop_lat": "  38.116837", "stop_code": "41044", "stop_lon": "-122.564270", "stop_id": "41044", "stop_desc": "", "stop_name": "Atherton San Marin Dr Bus Pad", "zone_id": "4"}}], "type": "Feature", "properties": {}}, {"onestopId": "s-9qbbfb36e1-snovato~diablo", "name": "S Novato Blvd & Diablo Av", "tags": {}, "geometry": {"type": "Point", "coordinates": [-122.572617, 38.102394]}, "servedBy": ["o-9qb-goldengatetransit"], "identifiers": [{"identifier": "f-goldengatetransit-s-40703", "tags": {"stop_lat": "  38.102394", "stop_code": "40703", "stop_lon": "-122.572617", "stop_id": "40703", "stop_desc": "", "stop_name": "S Novato Blvd & Diablo Av", "zone_id": "4"}}], "type": "Feature", "properties": {}}, {"onestopId": "s-9qbbfkqd3y-sanmarin~sereno", "name": "San Marin Dr & Sereno Way", "tags": {}, "geometry": {"type": "Point", "coordinates": [-122.587425, 38.124352]}, "servedBy": ["o-9qb-goldengatetransit"], "identifiers": [{"identifier": "f-goldengatetransit-s-40659", "tags": {"stop_lat": "  38.124352", "stop_code": "40659", "stop_lon": "-122.587425", "stop_id": "40659", "stop_desc": "", "stop_name": "San Marin Dr & Sereno Way", "zone_id": "4"}}], "type": "Feature", "properties": {}}, {"onestopId": "s-9qbbf5gunp-sanmarin~sanandreas", "name": "San Marin Dr & San Andreas Dr", "tags": {}, "geometry": {"type": "Point", "coordinates": [-122.602013, 38.12191]}, "servedBy": ["o-9qb-goldengatetransit"], "identifiers": [{"identifier": "f-goldengatetransit-s-40670", "tags": {"stop_lat": "  38.121910", "stop_code": "40670", "stop_lon": "-122.602013", "stop_id": "40670", "stop_desc": "", "stop_name": "San Marin Dr & San Andreas Dr", "zone_id": "4"}}], "type": "Feature", "properties": {}}, {"onestopId": "s-9qbbf4dc15-novato~eucalyptus", "name": "Novato Blvd & Eucalyptus Av", "tags": {}, "geometry": {"type": "Point", "coordinates": [-122.6036, 38.11451]}, "servedBy": ["o-9qb-goldengatetransit"], "identifiers": [{"identifier": "f-goldengatetransit-s-40676", "tags": {"stop_lat": "  38.114510", "stop_code": "40676", "stop_lon": "-122.603600", "stop_id": "40676", "stop_desc": "", "stop_name": "Novato Blvd & Eucalyptus Av", "zone_id": "4"}}], "type": "Feature", "properties": {}}, {"onestopId": "s-9qbbf646gt-novato~wilson", "name": "Novato Blvd & Wilson Ct", "tags": {}, "geometry": {"type": "Point", "coordinates": [-122.593193, 38.112076]}, "servedBy": ["o-9qb-goldengatetransit"], "identifiers": [{"identifier": "f-goldengatetransit-s-40679", "tags": {"stop_lat": "  38.112076", "stop_code": "40679", "stop_lon": "-122.593193", "stop_id": "40679", "stop_desc": "", "stop_name": "Novato Blvd & Wilson Ct", "zone_id": "4"}}], "type": "Feature", "properties": {}}, {"onestopId": "s-9qbbfc4f5h-redwood~grant", "name": "Redwood Blvd & Grant Av", "tags": {}, "geometry": {"type": "Point", "coordinates": [-122.570549, 38.106445]}, "servedBy": ["o-9qb-goldengatetransit"], "identifiers": [{"identifier": "f-goldengatetransit-s-40697", "tags": {"stop_lat": "  38.106445", "stop_code": "40697", "stop_lon": "-122.570549", "stop_id": "40697", "stop_desc": "", "stop_name": "Redwood Blvd & Grant Av", "zone_id": "4"}}], "type": "Feature", "properties": {}}, {"onestopId": "s-9qbbf5f6we-sanmarin~sanramon", "name": "San Marin Dr & San Ramon Way", "tags": {}, "geometry": {"type": "Point", "coordinates": [-122.60405, 38.121635]}, "servedBy": ["o-9qb-goldengatetransit"], "identifiers": [{"identifier": "f-goldengatetransit-s-40672", "tags": {"stop_lat": "  38.121635", "stop_code": "40672", "stop_lon": "-122.604050", "stop_id": "40672", "stop_desc": "", "stop_name": "San Marin Dr & San Ramon Way", "zone_id": "4"}}], "type": "Feature", "properties": {}}, {"onestopId": "s-9qbbfk5qgb-sancarlos~sanmarin", "name": "San Carlos Way & San Marin Dr", "tags": {}, "geometry": {"type": "Point", "coordinates": [-122.591805, 38.123718]}, "servedBy": ["o-9qb-goldengatetransit"], "identifiers": [{"identifier": "f-goldengatetransit-s-40661", "tags": {"stop_lat": "  38.123718", "stop_code": "40661", "stop_lon": "-122.591805", "stop_id": "40661", "stop_desc": "", "stop_name": "San Carlos Way & San Marin Dr", "zone_id": "4"}}], "type": "Feature", "properties": {}}, {"onestopId": "s-9qbbf5gv7t-sanmarin~sanandreas", "name": "San Marin Dr & San Andreas Dr", "tags": {}, "geometry": {"type": "Point", "coordinates": [-122.602119, 38.122116]}, "servedBy": ["o-9qb-goldengatetransit"], "identifiers": [{"identifier": "f-goldengatetransit-s-40669", "tags": {"stop_lat": "  38.122116", "stop_code": "40669", "stop_lon": "-122.602119", "stop_id": "40669", "stop_desc": "", "stop_name": "San Marin Dr & San Andreas Dr", "zone_id": "4"}}], "type": "Feature", "properties": {}}, {"onestopId": "s-9qbbf93kkk-novato~grant", "name": "Novato Blvd & Grant Av", "tags": {}, "geometry": {"type": "Point", "coordinates": [-122.583549, 38.108204]}, "servedBy": ["o-9qb-goldengatetransit"], "identifiers": [{"identifier": "f-goldengatetransit-s-40683", "tags": {"stop_lat": "  38.108204", "stop_code": "40683", "stop_lon": "-122.583549", "stop_id": "40683", "stop_desc": "", "stop_name": "Novato Blvd & Grant Av", "zone_id": "4"}}], "type": "Feature", "properties": {}}, {"onestopId": "s-9qbbfbvud2-delong~reichert", "name": "DeLong Av & Reichert Av", "tags": {}, "geometry": {"type": "Point", "coordinates": [-122.566467, 38.10548]}, "servedBy": ["o-9qb-goldengatetransit"], "identifiers": [{"identifier": "f-goldengatetransit-s-40698", "tags": {"stop_lat": "  38.105480", "stop_code": "40698", "stop_lon": "-122.566467", "stop_id": "40698", "stop_desc": "", "stop_name": "DeLong Av & Reichert Av", "zone_id": "4"}}], "type": "Feature", "properties": {}}]}