{"prefix": "9q9p6", "type": "FeatureCollection", "properties": {}, "features": [{"onestopId": "s-9q9p68z2vh-broadwayter~glenwoodgladenorthjctn", "name": "Broadway Ter:Glenwood Glade (North Jctn)", "tags": {}, "geometry": {"type": "Point", "coordinates": [-122.223708, 37.841185]}, "servedBy": ["o-9q9-actransit"], "identifiers": [{"identifier": "f-actransit-s-1006050", "tags": {"stop_lat": "37.841185", "stop_code": "55976", "stop_lon": "-122.223708", "parent_station": "", "stop_id": "1006050", "stop_name": "Broadway Ter:Glenwood Glade (North Jctn)", "location_type": ""}}], "type": "Feature", "properties": {}}, {"onestopId": "s-9q9p6btx2c-broadwayter~uranus", "name": "Broadway Ter:Uranus Av", "tags": {}, "geometry": {"type": "Point", "coordinates": [-122.215306, 37.840915]}, "servedBy": ["o-9q9-actransit"], "identifiers": [{"identifier": "f-actransit-s-1020870", "tags": {"stop_lat": "37.840915", "stop_code": "50108", "stop_lon": "-122.215306", "parent_station": "", "stop_id": "1020870", "stop_name": "Broadway Ter:Uranus Av", "location_type": ""}}], "type": "Feature", "properties": {}}, {"onestopId": "s-9q9p68j9xb-harbord~florence", "name": "Harbord Dr:Florence Av", "tags": {}, "geometry": {"type": "Point", "coordinates": [-122.225992, 37.837173]}, "servedBy": ["o-9q9-actransit"], "identifiers": [{"identifier": "f-actransit-s-1012160", "tags": {"stop_lat": "37.837173", "stop_code": "58443", "stop_lon": "-122.225992", "parent_station": "", "stop_id": "1012160", "stop_name": "Harbord Dr:Florence Av", "location_type": ""}}], "type": "Feature", "properties": {}}, {"onestopId": "s-9q9p656pm7-college~webster", "name": "College Av:Webster St", "tags": {}, "geometry": {"type": "Point", "coordinates": [-122.252886, 37.856032]}, "servedBy": ["o-9q9-actransit"], "identifiers": [{"identifier": "f-actransit-s-0301800", "tags": {"stop_lat": "37.856032", "stop_code": "52922", "stop_lon": "-122.252886", "parent_station": "", "stop_id": "0301800", "stop_name": "College Av:Webster St", "location_type": ""}}], "type": "Feature", "properties": {}}, {"onestopId": "s-9q9p6b8f9h-duncan~broadwayter", "name": "Duncan Way:Broadway Ter", "tags": {}, "geometry": {"type": "Point", "coordinates": [-122.22182, 37.840112]}, "servedBy": ["o-9q9-actransit"], "identifiers": [{"identifier": "f-actransit-s-1007950", "tags": {"stop_lat": "37.840112", "stop_code": "56210", "stop_lon": "-122.221820", "parent_station": "", "stop_id": "1007950", "stop_name": "Duncan Way:Broadway Ter", "location_type": ""}}], "type": "Feature", "properties": {}}, {"onestopId": "s-9q9p644xvf-college~claremont", "name": "College Av:Claremont Av", "tags": {}, "geometry": {"type": "Point", "coordinates": [-122.252175, 37.849246]}, "servedBy": ["o-9q9-actransit"], "identifiers": [{"identifier": "f-actransit-s-1007480", "tags": {"stop_lat": "37.849246", "stop_code": "50123", "stop_lon": "-122.252175", "parent_station": "", "stop_id": "1007480", "stop_name": "College Av:Claremont Av", "location_type": ""}}], "type": "Feature", "properties": {}}, {"onestopId": "s-9q9p656jds-college~webster", "name": "College Av:Webster St", "tags": {}, "geometry": {"type": "Point", "coordinates": [-122.252999, 37.855734]}, "servedBy": ["o-9q9-actransit"], "identifiers": [{"identifier": "f-actransit-s-0301790", "tags": {"stop_lat": "37.855734", "stop_code": "52929", "stop_lon": "-122.252999", "parent_station": "", "stop_id": "0301790", "stop_name": "College Av:Webster St", "location_type": ""}}], "type": "Feature", "properties": {}}, {"onestopId": "s-9q9p6908bt-broadwayter~6133", "name": "Broadway Ter:#6133", "tags": {}, "geometry": {"type": "Point", "coordinates": [-122.233173, 37.842566]}, "servedBy": ["o-9q9-actransit"], "identifiers": [{"identifier": "f-actransit-s-1005940", "tags": {"stop_lat": "37.842566", "stop_code": "51259", "stop_lon": "-122.233173", "parent_station": "", "stop_id": "1005940", "stop_name": "Broadway Ter:#6133", "location_type": ""}}], "type": "Feature", "properties": {}}, {"onestopId": "s-9q9p623zxx-broadwayter~countryclub", "name": "Broadway Ter:Country Club Dr", "tags": {}, "geometry": {"type": "Point", "coordinates": [-122.242146, 37.839613]}, "servedBy": ["o-9q9-actransit"], "identifiers": [{"identifier": "f-actransit-s-1006040", "tags": {"stop_lat": "37.839613", "stop_code": "51291", "stop_lon": "-122.242146", "parent_station": "", "stop_id": "1006040", "stop_name": "Broadway Ter:Country Club Dr", "location_type": ""}}], "type": "Feature", "properties": {}}, {"onestopId": "s-9q9p6h99s8-college~derby", "name": "College Av:Derby St", "tags": {}, "geometry": {"type": "Point", "coordinates": [-122.253597, 37.861896]}, "servedBy": ["o-9q9-actransit"], "identifiers": [{"identifier": "f-actransit-s-0301690", "tags": {"stop_lat": "37.861896", "stop_code": "50600", "stop_lon": "-122.253597", "parent_station": "", "stop_id": "0301690", "stop_name": "College Av:Derby St", "location_type": ""}}], "type": "Feature", "properties": {}}, {"onestopId": "s-9q9p6b8fm5-duncan~broadwayter", "name": "Duncan Way:Broadway Ter", "tags": {}, "geometry": {"type": "Point", "coordinates": [-122.221655, 37.840068]}, "servedBy": ["o-9q9-actransit"], "identifiers": [{"identifier": "f-actransit-s-1007960", "tags": {"stop_lat": "37.840068", "stop_code": "56036", "stop_lon": "-122.221655", "parent_station": "", "stop_id": "1007960", "stop_name": "Duncan Way:Broadway Ter", "location_type": ""}}], "type": "Feature", "properties": {}}, {"onestopId": "s-9q9p6fngq6-broadwayter~woodlandpl", "name": "Broadway Ter:Woodland Pl", "tags": {}, "geometry": {"type": "Point", "coordinates": [-122.213352, 37.84847]}, "servedBy": ["o-9q9-actransit"], "identifiers": [{"identifier": "f-actransit-s-1006260", "tags": {"stop_lat": "37.848470", "stop_code": "51930", "stop_lon": "-122.213352", "parent_station": "", "stop_id": "1006260", "stop_name": "Broadway Ter:Woodland Pl", "location_type": ""}}], "type": "Feature", "properties": {}}, {"onestopId": "s-9q9p67n6wg-tunnel~vicente", "name": "Tunnel Rd:Vicente Rd", "tags": {}, "geometry": {"type": "Point", "coordinates": [-122.235995, 37.853842]}, "servedBy": ["o-9q9-actransit"], "identifiers": [{"identifier": "f-actransit-s-0305730", "tags": {"stop_lat": "37.853842", "stop_code": "57817", "stop_lon": "-122.235995", "parent_station": "", "stop_id": "0305730", "stop_name": "Tunnel Rd:Vicente Rd", "location_type": ""}}], "type": "Feature", "properties": {}}, {"onestopId": "s-9q9p6jdvqj-piedmont~channing", "name": "Piedmont Av:Channing Way", "tags": {}, "geometry": {"type": "Point", "coordinates": [-122.251816, 37.868058]}, "servedBy": ["o-9q9-actransit"], "identifiers": [{"identifier": "f-actransit-s-0304020", "tags": {"stop_lat": "37.868058", "stop_code": "53677", "stop_lon": "-122.251816", "parent_station": "", "stop_id": "0304020", "stop_name": "Piedmont Av:Channing Way", "location_type": ""}}], "type": "Feature", "properties": {}}, {"onestopId": "s-9q9p68dvw6-florence~hermosa", "name": "Florence Av:Hermosa Av", "tags": {}, "geometry": {"type": "Point", "coordinates": [-122.229836, 37.840617]}, "servedBy": ["o-9q9-actransit"], "identifiers": [{"identifier": "f-actransit-s-1010020", "tags": {"stop_lat": "37.840617", "stop_code": "50127", "stop_lon": "-122.229836", "parent_station": "", "stop_id": "1010020", "stop_name": "Florence Av:Hermosa Av", "location_type": ""}}], "type": "Feature", "properties": {}}, {"onestopId": "s-9q9p69586w-broadwayter~proctor", "name": "Broadway Ter:Proctor Av", "tags": {}, "geometry": {"type": "Point", "coordinates": [-122.22897, 37.842484]}, "servedBy": ["o-9q9-actransit"], "identifiers": [{"identifier": "f-actransit-s-1006160", "tags": {"stop_lat": "37.842484", "stop_code": "59310", "stop_lon": "-122.228970", "parent_station": "", "stop_id": "1006160", "stop_name": "Broadway Ter:Proctor Av", "location_type": ""}}], "type": "Feature", "properties": {}}, {"onestopId": "s-9q9p6gqrwx-tunnel~skyline", "name": "Tunnel Rd:Skyline Blvd", "tags": {}, "geometry": {"type": "Point", "coordinates": [-122.214035, 37.856096]}, "servedBy": ["o-9q9-actransit"], "identifiers": [{"identifier": "f-actransit-s-1020820", "tags": {"stop_lat": "37.856096", "stop_code": "58954", "stop_lon": "-122.214035", "parent_station": "", "stop_id": "1020820", "stop_name": "Tunnel Rd:Skyline Blvd", "location_type": ""}}], "type": "Feature", "properties": {}}, {"onestopId": "s-9q9p6b4ecq-duncan~glenwoodglade", "name": "Duncan Way:Glenwood Glade", "tags": {}, "geometry": {"type": "Point", "coordinates": [-122.219404, 37.837592]}, "servedBy": ["o-9q9-actransit"], "identifiers": [{"identifier": "f-actransit-s-1007970", "tags": {"stop_lat": "37.837592", "stop_code": "56051", "stop_lon": "-122.219404", "parent_station": "", "stop_id": "1007970", "stop_name": "Duncan Way:Glenwood Glade", "location_type": ""}}], "type": "Feature", "properties": {}}, {"onestopId": "s-9q9p6fr6fu-broadwayter~balsam", "name": "Broadway Ter:Balsam Way", "tags": {}, "geometry": {"type": "Point", "coordinates": [-122.212821, 37.84977]}, "servedBy": ["o-9q9-actransit"], "identifiers": [{"identifier": "f-actransit-s-1005980", "tags": {"stop_lat": "37.849770", "stop_code": "51261", "stop_lon": "-122.212821", "parent_station": "", "stop_id": "1005980", "stop_name": "Broadway Ter:Balsam Way", "location_type": ""}}], "type": "Feature", "properties": {}}, {"onestopId": "s-9q9p64dkhm-college~alcatraz", "name": "College Av:Alcatraz Av", "tags": {}, "geometry": {"type": "Point", "coordinates": [-122.252583, 37.851362]}, "servedBy": ["o-9q9-actransit"], "identifiers": [{"identifier": "f-actransit-s-0301650", "tags": {"stop_lat": "37.851362", "stop_code": "52622", "stop_lon": "-122.252583", "parent_station": "", "stop_id": "0301650", "stop_name": "College Av:Alcatraz Av", "location_type": ""}}], "type": "Feature", "properties": {}}, {"onestopId": "s-9q9p6hwmhn-derby~claremont", "name": "Derby St:Claremont Blvd", "tags": {}, "geometry": {"type": "Point", "coordinates": [-122.247097, 37.862529]}, "servedBy": ["o-9q9-actransit"], "identifiers": [{"identifier": "f-actransit-s-0301950", "tags": {"stop_lat": "37.862529", "stop_code": "51510", "stop_lon": "-122.247097", "parent_station": "", "stop_id": "0301950", "stop_name": "Derby St:Claremont Blvd", "location_type": ""}}], "type": "Feature", "properties": {}}, {"onestopId": "s-9q9p654k3x-college~woolsey", "name": "College Av:Woolsey St", "tags": {}, "geometry": {"type": "Point", "coordinates": [-122.252703, 37.854163]}, "servedBy": ["o-9q9-actransit"], "identifiers": [{"identifier": "f-actransit-s-0301820", "tags": {"stop_lat": "37.854163", "stop_code": "52323", "stop_lon": "-122.252703", "parent_station": "", "stop_id": "0301820", "stop_name": "College Av:Woolsey St", "location_type": ""}}], "type": "Feature", "properties": {}}, {"onestopId": "s-9q9p68grq0-florence~broadwayter", "name": "Florence Av:Broadway Ter", "tags": {}, "geometry": {"type": "Point", "coordinates": [-122.229157, 37.842281]}, "servedBy": ["o-9q9-actransit"], "identifiers": [{"identifier": "f-actransit-s-1010010", "tags": {"stop_lat": "37.842281", "stop_code": "57896", "stop_lon": "-122.229157", "parent_station": "", "stop_id": "1010010", "stop_name": "Florence Av:Broadway Ter", "location_type": ""}}], "type": "Feature", "properties": {}}, {"onestopId": "s-9q9p62d08n-broadwayter~countryclub", "name": "Broadway Ter:Country Club Dr", "tags": {}, "geometry": {"type": "Point", "coordinates": [-122.242116, 37.839781]}, "servedBy": ["o-9q9-actransit"], "identifiers": [{"identifier": "f-actransit-s-1006030", "tags": {"stop_lat": "37.839781", "stop_code": "57370", "stop_lon": "-122.242116", "parent_station": "", "stop_id": "1006030", "stop_name": "Broadway Ter:Country Club Dr", "location_type": ""}}], "type": "Feature", "properties": {}}, {"onestopId": "s-9q9p6jh0fm-warring~parker", "name": "Warring St:Parker St", "tags": {}, "geometry": {"type": "Point", "coordinates": [-122.250266, 37.864538]}, "servedBy": ["o-9q9-actransit"], "identifiers": [{"identifier": "f-actransit-s-0306140", "tags": {"stop_lat": "37.864538", "stop_code": "55664", "stop_lon": "-122.250266", "parent_station": "", "stop_id": "0306140", "stop_name": "Warring St:Parker St", "location_type": ""}}], "type": "Feature", "properties": {}}, {"onestopId": "s-9q9p61d8nn-miles~college", "name": "Miles Av:College Av", "tags": {}, "geometry": {"type": "Point", "coordinates": [-122.252162, 37.845187]}, "servedBy": ["o-9q9-actransit"], "identifiers": [{"identifier": "f-actransit-s-1031880", "tags": {"stop_lat": "37.845187", "stop_code": "50478", "stop_lon": "-122.252162", "parent_station": "", "stop_id": "1031880", "stop_name": "Miles Av:College Av", "location_type": ""}}], "type": "Feature", "properties": {}}, {"onestopId": "s-9q9p6154hx-college~lawton", "name": "College Av:Lawton Av", "tags": {}, "geometry": {"type": "Point", "coordinates": [-122.251538, 37.842791]}, "servedBy": ["o-9q9-actransit"], "identifiers": [{"identifier": "f-actransit-s-1007500", "tags": {"stop_lat": "37.842791", "stop_code": "56969", "stop_lon": "-122.251538", "parent_station": "", "stop_id": "1007500", "stop_name": "College Av:Lawton Av", "location_type": ""}}], "type": "Feature", "properties": {}}, {"onestopId": "s-9q9p6cyqgu-broadwayter~pineneedlesouthjctn", "name": "Broadway Ter:Pineneedle Dr (South Jctn)", "tags": {}, "geometry": {"type": "Point", "coordinates": [-122.21415, 37.84771]}, "servedBy": ["o-9q9-actransit"], "identifiers": [{"identifier": "f-actransit-s-1006140", "tags": {"stop_lat": "37.847710", "stop_code": "54436", "stop_lon": "-122.214150", "parent_station": "", "stop_id": "1006140", "stop_name": "Broadway Ter:Pineneedle Dr (South Jctn)", "location_type": ""}}], "type": "Feature", "properties": {}}, {"onestopId": "s-9q9p60h9vs-broadwayter~thomasartsjrhighsch~farwh", "name": "Broadway Ter:Thomas Av (Arts Jr High Sch./Far W H)", "tags": {}, "geometry": {"type": "Point", "coordinates": [-122.249438, 37.837239]}, "servedBy": ["o-9q9-actransit"], "identifiers": [{"identifier": "f-actransit-s-1006230", "tags": {"stop_lat": "37.837239", "stop_code": "54881", "stop_lon": "-122.249438", "parent_station": "", "stop_id": "1006230", "stop_name": "Broadway Ter:Thomas Av (Arts Jr High Sch./Far W H)", "location_type": ""}}], "type": "Feature", "properties": {}}, {"onestopId": "s-9q9p65czx4-college~russell", "name": "College Av:Russell St", "tags": {}, "geometry": {"type": "Point", "coordinates": [-122.253145, 37.858815]}, "servedBy": ["o-9q9-actransit"], "identifiers": [{"identifier": "f-actransit-s-0301770", "tags": {"stop_lat": "37.858815", "stop_code": "51199", "stop_lon": "-122.253145", "parent_station": "", "stop_id": "0301770", "stop_name": "College Av:Russell St", "location_type": ""}}], "type": "Feature", "properties": {}}, {"onestopId": "s-9q9p67k6cp-tunnel~theuplands", "name": "Tunnel Rd:The Uplands", "tags": {}, "geometry": {"type": "Point", "coordinates": [-122.238985, 37.855281]}, "servedBy": ["o-9q9-actransit"], "identifiers": [{"identifier": "f-actransit-s-0305720", "tags": {"stop_lat": "37.855281", "stop_code": "53452", "stop_lon": "-122.238985", "parent_station": "", "stop_id": "0305720", "stop_name": "Tunnel Rd:The Uplands", "location_type": ""}}], "type": "Feature", "properties": {}}, {"onestopId": "s-9q9p6150d5-college~forest", "name": "College Av:Forest St", "tags": {}, "geometry": {"type": "Point", "coordinates": [-122.251649, 37.84251]}, "servedBy": ["o-9q9-actransit"], "identifiers": [{"identifier": "f-actransit-s-1007490", "tags": {"stop_lat": "37.842510", "stop_code": "51811", "stop_lon": "-122.251649", "parent_station": "", "stop_id": "1007490", "stop_name": "College Av:Forest St", "location_type": ""}}], "type": "Feature", "properties": {}}, {"onestopId": "s-9q9p6b6qes-mountain~broadwayter", "name": "Mountain Blvd:Broadway Ter", "tags": {}, "geometry": {"type": "Point", "coordinates": [-122.219653, 37.839429]}, "servedBy": ["o-9q9-actransit"], "identifiers": [{"identifier": "f-actransit-s-1016830", "tags": {"stop_lat": "37.839429", "stop_code": "59740", "stop_lon": "-122.219653", "parent_station": "", "stop_id": "1016830", "stop_name": "Mountain Blvd:Broadway Ter", "location_type": ""}}], "type": "Feature", "properties": {}}, {"onestopId": "s-9q9p691f4c-broadwayter~hermosa", "name": "Broadway Ter:Hermosa Av", "tags": {}, "geometry": {"type": "Point", "coordinates": [-122.231359, 37.842761]}, "servedBy": ["o-9q9-actransit"], "identifiers": [{"identifier": "f-actransit-s-1006070", "tags": {"stop_lat": "37.842761", "stop_code": "59519", "stop_lon": "-122.231359", "parent_station": "", "stop_id": "1006070", "stop_name": "Broadway Ter:Hermosa Av", "location_type": ""}}], "type": "Feature", "properties": {}}, {"onestopId": "s-9q9p6b4k7z-duncan~glenwoodgladesouthjctn", "name": "Duncan Way:Glenwood Glade (South Jctn)", "tags": {}, "geometry": {"type": "Point", "coordinates": [-122.21964, 37.837683]}, "servedBy": ["o-9q9-actransit"], "identifiers": [{"identifier": "f-actransit-s-1007980", "tags": {"stop_lat": "37.837683", "stop_code": "56718", "stop_lon": "-122.219640", "parent_station": "", "stop_id": "1007980", "stop_name": "Duncan Way:Glenwood Glade (South Jctn)", "location_type": ""}}], "type": "Feature", "properties": {}}, {"onestopId": "s-9q9p65dndv-college~ashby", "name": "College Av:Ashby Av", "tags": {}, "geometry": {"type": "Point", "coordinates": [-122.252988, 37.857287]}, "servedBy": ["o-9q9-actransit"], "identifiers": [{"identifier": "f-actransit-s-0301660", "tags": {"stop_lat": "37.857287", "stop_code": "55955", "stop_lon": "-122.252988", "parent_station": "", "stop_id": "0301660", "stop_name": "College Av:Ashby Av", "location_type": ""}}], "type": "Feature", "properties": {}}, {"onestopId": "s-9q9p6909sg-broadwayter~6141", "name": "Broadway Ter:#6141", "tags": {}, "geometry": {"type": "Point", "coordinates": [-122.232987, 37.842682]}, "servedBy": ["o-9q9-actransit"], "identifiers": [{"identifier": "f-actransit-s-1005950", "tags": {"stop_lat": "37.842682", "stop_code": "52910", "stop_lon": "-122.232987", "parent_station": "", "stop_id": "1005950", "stop_name": "Broadway Ter:#6141", "location_type": ""}}], "type": "Feature", "properties": {}}, {"onestopId": "s-9q9p68j771-harbord~florence", "name": "Harbord Dr:Florence Av", "tags": {}, "geometry": {"type": "Point", "coordinates": [-122.226541, 37.837478]}, "servedBy": ["o-9q9-actransit"], "identifiers": [{"identifier": "f-actransit-s-1012170", "tags": {"stop_lat": "37.837478", "stop_code": "56352", "stop_lon": "-122.226541", "parent_station": "", "stop_id": "1012170", "stop_name": "Harbord Dr:Florence Av", "location_type": ""}}], "type": "Feature", "properties": {}}, {"onestopId": "s-9q9p61t04m-keith~mcmillan", "name": "Keith Av:Mc Millan Av", "tags": {}, "geometry": {"type": "Point", "coordinates": [-122.248886, 37.845181]}, "servedBy": ["o-9q9-actransit"], "identifiers": [{"identifier": "f-actransit-s-1013390", "tags": {"stop_lat": "37.845181", "stop_code": "54367", "stop_lon": "-122.248886", "parent_station": "", "stop_id": "1013390", "stop_name": "Keith Av:Mc Millan Av", "location_type": ""}}], "type": "Feature", "properties": {}}, {"onestopId": "s-9q9p6hsnmx-warring~derby", "name": "Warring St:Derby St", "tags": {}, "geometry": {"type": "Point", "coordinates": [-122.25013, 37.862746]}, "servedBy": ["o-9q9-actransit"], "identifiers": [{"identifier": "f-actransit-s-0306120", "tags": {"stop_lat": "37.862746", "stop_code": "58778", "stop_lon": "-122.250130", "parent_station": "", "stop_id": "0306120", "stop_name": "Warring St:Derby St", "location_type": ""}}], "type": "Feature", "properties": {}}, {"onestopId": "s-9q9p6jbs9h-bancroft~college", "name": "Bancroft Way:College Av", "tags": {}, "geometry": {"type": "Point", "coordinates": [-122.255129, 37.869294]}, "servedBy": ["o-9q9-actransit"], "identifiers": [{"identifier": "f-actransit-s-0301120", "tags": {"stop_lat": "37.869294", "stop_code": "59555", "stop_lon": "-122.255129", "parent_station": "", "stop_id": "0301120", "stop_name": "Bancroft Way:College Av", "location_type": ""}}], "type": "Feature", "properties": {}}, {"onestopId": "s-9q9p64de1n-college~alcatraz", "name": "College Av:Alcatraz Av", "tags": {}, "geometry": {"type": "Point", "coordinates": [-122.252377, 37.851199]}, "servedBy": ["o-9q9-actransit"], "identifiers": [{"identifier": "f-actransit-s-1007420", "tags": {"stop_lat": "37.851199", "stop_code": "55536", "stop_lon": "-122.252377", "parent_station": "", "stop_id": "1007420", "stop_name": "College Av:Alcatraz Av", "location_type": ""}}], "type": "Feature", "properties": {}}, {"onestopId": "s-9q9p6h9dr3-college~derby", "name": "College Av:Derby St", "tags": {}, "geometry": {"type": "Point", "coordinates": [-122.253482, 37.862027]}, "servedBy": ["o-9q9-actransit"], "identifiers": [{"identifier": "f-actransit-s-0301700", "tags": {"stop_lat": "37.862027", "stop_code": "59977", "stop_lon": "-122.253482", "parent_station": "", "stop_id": "0301700", "stop_name": "College Av:Derby St", "location_type": ""}}], "type": "Feature", "properties": {}}, {"onestopId": "s-9q9p67kfft-tunnel~bridge", "name": "Tunnel Rd:Bridge Rd", "tags": {}, "geometry": {"type": "Point", "coordinates": [-122.238238, 37.855268]}, "servedBy": ["o-9q9-actransit"], "identifiers": [{"identifier": "f-actransit-s-0305690", "tags": {"stop_lat": "37.855268", "stop_code": "53451", "stop_lon": "-122.238238", "parent_station": "", "stop_id": "0305690", "stop_name": "Tunnel Rd:Bridge Rd", "location_type": ""}}], "type": "Feature", "properties": {}}, {"onestopId": "s-9q9p686u0t-morpeth~harbordholynameshighschool", "name": "Morpeth St:Harbord Dr (Holy Names High School)", "tags": {}, "geometry": {"type": "Point", "coordinates": [-122.230084, 37.839003]}, "servedBy": ["o-9q9-actransit"], "identifiers": [{"identifier": "f-actransit-s-1016760", "tags": {"stop_lat": "37.839003", "stop_code": "58586", "stop_lon": "-122.230084", "parent_station": "", "stop_id": "1016760", "stop_name": "Morpeth St:Harbord Dr (Holy Names High School)", "location_type": ""}}], "type": "Feature", "properties": {}}, {"onestopId": "s-9q9p60sbgc-broadway~ada", "name": "Broadway:Ada St", "tags": {}, "geometry": {"type": "Point", "coordinates": [-122.249175, 37.839799]}, "servedBy": ["o-9q9-actransit"], "identifiers": [{"identifier": "f-actransit-s-1006730", "tags": {"stop_lat": "37.839799", "stop_code": "51960", "stop_lon": "-122.249175", "parent_station": "", "stop_id": "1006730", "stop_name": "Broadway:Ada St", "location_type": ""}}], "type": "Feature", "properties": {}}, {"onestopId": "s-9q9p64d755-alcatraz~college", "name": "Alcatraz Av:College Av", "tags": {}, "geometry": {"type": "Point", "coordinates": [-122.25264, 37.851183]}, "servedBy": ["o-9q9-actransit"], "identifiers": [{"identifier": "f-actransit-s-1005030", "tags": {"stop_lat": "37.851183", "stop_code": "59280", "stop_lon": "-122.252640", "parent_station": "", "stop_id": "1005030", "stop_name": "Alcatraz Av:College Av", "location_type": ""}}], "type": "Feature", "properties": {}}, {"onestopId": "s-9q9p60q8m4-broadwayter~carlton", "name": "Broadway Ter:Carlton St", "tags": {}, "geometry": {"type": "Point", "coordinates": [-122.246712, 37.838341]}, "servedBy": ["o-9q9-actransit"], "identifiers": [{"identifier": "f-actransit-s-1006010", "tags": {"stop_lat": "37.838341", "stop_code": "55392", "stop_lon": "-122.246712", "parent_station": "", "stop_id": "1006010", "stop_name": "Broadway Ter:Carlton St", "location_type": ""}}], "type": "Feature", "properties": {}}, {"onestopId": "s-9q9p6jfq6y-bancroft~piedmont", "name": "Bancroft Way:Piedmont Av", "tags": {}, "geometry": {"type": "Point", "coordinates": [-122.252647, 37.869607]}, "servedBy": ["o-9q9-actransit"], "identifiers": [{"identifier": "f-actransit-s-0301150", "tags": {"stop_lat": "37.869607", "stop_code": "54050", "stop_lon": "-122.252647", "parent_station": "", "stop_id": "0301150", "stop_name": "Bancroft Way:Piedmont Av", "location_type": ""}}], "type": "Feature", "properties": {}}, {"onestopId": "s-9q9p68kh9r-florence~modoc", "name": "Florence Av:Modoc Av", "tags": {}, "geometry": {"type": "Point", "coordinates": [-122.228335, 37.839102]}, "servedBy": ["o-9q9-actransit"], "identifiers": [{"identifier": "f-actransit-s-1010030", "tags": {"stop_lat": "37.839102", "stop_code": "56096", "stop_lon": "-122.228335", "parent_station": "", "stop_id": "1010030", "stop_name": "Florence Av:Modoc Av", "location_type": ""}}], "type": "Feature", "properties": {}}, {"onestopId": "s-9q9p65zevp-claremont~ashby", "name": "Claremont Av:Ashby Av", "tags": {}, "geometry": {"type": "Point", "coordinates": [-122.245345, 37.858197]}, "servedBy": ["o-9q9-actransit"], "identifiers": [{"identifier": "f-actransit-s-0301560", "tags": {"stop_lat": "37.858197", "stop_code": "58830", "stop_lon": "-122.245345", "parent_station": "", "stop_id": "0301560", "stop_name": "Claremont Av:Ashby Av", "location_type": ""}}], "type": "Feature", "properties": {}}, {"onestopId": "s-9q9p60j414-broadwayter~artsjrhighschool~farwesthighsch", "name": "Broadway Ter:Arts Jr High School/Far West High Sch", "tags": {}, "geometry": {"type": "Point", "coordinates": [-122.248943, 37.837271]}, "servedBy": ["o-9q9-actransit"], "identifiers": [{"identifier": "f-actransit-s-1005970", "tags": {"stop_lat": "37.837271", "stop_code": "54431", "stop_lon": "-122.248943", "parent_station": "", "stop_id": "1005970", "stop_name": "Broadway Ter:Arts Jr High School/Far West High Sch", "location_type": ""}}], "type": "Feature", "properties": {}}, {"onestopId": "s-9q9p61zbwb-broadway~keith", "name": "Broadway:Keith Av", "tags": {}, "geometry": {"type": "Point", "coordinates": [-122.244923, 37.846613]}, "servedBy": ["o-9q9-actransit"], "identifiers": [{"identifier": "f-actransit-s-1006790", "tags": {"stop_lat": "37.846613", "stop_code": "52302", "stop_lon": "-122.244923", "parent_station": "", "stop_id": "1006790", "stop_name": "Broadway:Keith Av", "location_type": ""}}], "type": "Feature", "properties": {}}, {"onestopId": "s-9q9p6b3dqh-duncan~leo", "name": "Duncan Way:Leo Way", "tags": {}, "geometry": {"type": "Point", "coordinates": [-122.22058, 37.838699]}, "servedBy": ["o-9q9-actransit"], "identifiers": [{"identifier": "f-actransit-s-1008000", "tags": {"stop_lat": "37.838699", "stop_code": "56053", "stop_lon": "-122.220580", "parent_station": "", "stop_id": "1008000", "stop_name": "Duncan Way:Leo Way", "location_type": ""}}], "type": "Feature", "properties": {}}, {"onestopId": "s-9q9p6cy3d3-broadwayter~gwin", "name": "Broadway Ter:Gwin Rd", "tags": {}, "geometry": {"type": "Point", "coordinates": [-122.214212, 37.846791]}, "servedBy": ["o-9q9-actransit"], "identifiers": [{"identifier": "f-actransit-s-1006060", "tags": {"stop_lat": "37.846791", "stop_code": "51292", "stop_lon": "-122.214212", "parent_station": "", "stop_id": "1006060", "stop_name": "Broadway Ter:Gwin Rd", "location_type": ""}}], "type": "Feature", "properties": {}}, {"onestopId": "s-9q9p6jdf41-piedmont~channing", "name": "Piedmont Av:Channing Way", "tags": {}, "geometry": {"type": "Point", "coordinates": [-122.251992, 37.867478]}, "servedBy": ["o-9q9-actransit"], "identifiers": [{"identifier": "f-actransit-s-0304010", "tags": {"stop_lat": "37.867478", "stop_code": "50144", "stop_lon": "-122.251992", "parent_station": "", "stop_id": "0304010", "stop_name": "Piedmont Av:Channing Way", "location_type": ""}}], "type": "Feature", "properties": {}}, {"onestopId": "s-9q9p6hpbg4-russell~claremont", "name": "Russell St:Claremont Blvd", "tags": {}, "geometry": {"type": "Point", "coordinates": [-122.245086, 37.859029]}, "servedBy": ["o-9q9-actransit"], "identifiers": [{"identifier": "f-actransit-s-0304060", "tags": {"stop_lat": "37.859029", "stop_code": "51633", "stop_lon": "-122.245086", "parent_station": "", "stop_id": "0304060", "stop_name": "Russell St:Claremont Blvd", "location_type": ""}}], "type": "Feature", "properties": {}}, {"onestopId": "s-9q9p6pyth9-centennial~lawrencehallofscience", "name": "Centennial Dr:Lawrence Hall Of Science", "tags": {}, "geometry": {"type": "Point", "coordinates": [-122.246738, 37.880352]}, "servedBy": ["o-9q9-actransit"], "identifiers": [{"identifier": "f-actransit-s-1007140", "tags": {"stop_lat": "37.880352", "stop_code": "59859", "stop_lon": "-122.246738", "parent_station": "", "stop_id": "1007140", "stop_name": "Centennial Dr:Lawrence Hall Of Science", "location_type": ""}}], "type": "Feature", "properties": {}}, {"onestopId": "s-9q9p67be9t-ashby~domingo", "name": "Ashby Av:Domingo Av", "tags": {}, "geometry": {"type": "Point", "coordinates": [-122.244115, 37.858143]}, "servedBy": ["o-9q9-actransit"], "identifiers": [{"identifier": "f-actransit-s-0300850", "tags": {"stop_lat": "37.858143", "stop_code": "58820", "stop_lon": "-122.244115", "parent_station": "", "stop_id": "0300850", "stop_name": "Ashby Av:Domingo Av", "location_type": ""}}], "type": "Feature", "properties": {}}, {"onestopId": "s-9q9p65cyk2-college~russell", "name": "College Av:Russell St", "tags": {}, "geometry": {"type": "Point", "coordinates": [-122.253268, 37.858591]}, "servedBy": ["o-9q9-actransit"], "identifiers": [{"identifier": "f-actransit-s-0301780", "tags": {"stop_lat": "37.858591", "stop_code": "57655", "stop_lon": "-122.253268", "parent_station": "", "stop_id": "0301780", "stop_name": "College Av:Russell St", "location_type": ""}}], "type": "Feature", "properties": {}}, {"onestopId": "s-9q9p61dg64-college~oakgroveoppclaremontmidsch", "name": "College Av:Oak Grove Av (Opp. Claremont Mid. Sch.)", "tags": {}, "geometry": {"type": "Point", "coordinates": [-122.251995, 37.845724]}, "servedBy": ["o-9q9-actransit"], "identifiers": [{"identifier": "f-actransit-s-1007540", "tags": {"stop_lat": "37.845724", "stop_code": "56656", "stop_lon": "-122.251995", "parent_station": "", "stop_id": "1007540", "stop_name": "College Av:Oak Grove Av (Opp. Claremont Mid. Sch.)", "location_type": ""}}], "type": "Feature", "properties": {}}, {"onestopId": "s-9q9p644t55-college~claremont", "name": "College Av:Claremont Av", "tags": {}, "geometry": {"type": "Point", "coordinates": [-122.252294, 37.848778]}, "servedBy": ["o-9q9-actransit"], "identifiers": [{"identifier": "f-actransit-s-1007470", "tags": {"stop_lat": "37.848778", "stop_code": "57877", "stop_lon": "-122.252294", "parent_station": "", "stop_id": "1007470", "stop_name": "College Av:Claremont Av", "location_type": ""}}], "type": "Feature", "properties": {}}, {"onestopId": "s-9q9p6hgzpq-warring~parker", "name": "Warring St:Parker St", "tags": {}, "geometry": {"type": "Point", "coordinates": [-122.250391, 37.864243]}, "servedBy": ["o-9q9-actransit"], "identifiers": [{"identifier": "f-actransit-s-0306150", "tags": {"stop_lat": "37.864243", "stop_code": "59114", "stop_lon": "-122.250391", "parent_station": "", "stop_id": "0306150", "stop_name": "Warring St:Parker St", "location_type": ""}}], "type": "Feature", "properties": {}}, {"onestopId": "s-9q9p6fxcds-broadwayter~skyline", "name": "Broadway Ter:Skyline Blvd", "tags": {}, "geometry": {"type": "Point", "coordinates": [-122.212145, 37.85093]}, "servedBy": ["o-9q9-actransit"], "identifiers": [{"identifier": "f-actransit-s-1006180", "tags": {"stop_lat": "37.850930", "stop_code": "51620", "stop_lon": "-122.212145", "parent_station": "", "stop_id": "1006180", "stop_name": "Broadway Ter:Skyline Blvd", "location_type": ""}}], "type": "Feature", "properties": {}}, {"onestopId": "s-9q9p68drfr-florence~alta", "name": "Florence Av:Alta Rd", "tags": {}, "geometry": {"type": "Point", "coordinates": [-122.230695, 37.841029]}, "servedBy": ["o-9q9-actransit"], "identifiers": [{"identifier": "f-actransit-s-1009990", "tags": {"stop_lat": "37.841029", "stop_code": "56069", "stop_lon": "-122.230695", "parent_station": "", "stop_id": "1009990", "stop_name": "Florence Av:Alta Rd", "location_type": ""}}], "type": "Feature", "properties": {}}, {"onestopId": "s-9q9p62twcr-broadwayter~clarewood", "name": "Broadway Ter:Clarewood Dr", "tags": {}, "geometry": {"type": "Point", "coordinates": [-122.237261, 37.840857]}, "servedBy": ["o-9q9-actransit"], "identifiers": [{"identifier": "f-actransit-s-1006020", "tags": {"stop_lat": "37.840857", "stop_code": "57664", "stop_lon": "-122.237261", "parent_station": "", "stop_id": "1006020", "stop_name": "Broadway Ter:Clarewood Dr", "location_type": ""}}], "type": "Feature", "properties": {}}, {"onestopId": "s-9q9p6j78wc-piedmontcr~dwight", "name": "Piedmont Cr:Dwight Way", "tags": {}, "geometry": {"type": "Point", "coordinates": [-122.250762, 37.865846]}, "servedBy": ["o-9q9-actransit"], "identifiers": [{"identifier": "f-actransit-s-0304040", "tags": {"stop_lat": "37.865846", "stop_code": "57725", "stop_lon": "-122.250762", "parent_station": "", "stop_id": "0304040", "stop_name": "Piedmont Cr:Dwight Way", "location_type": ""}}], "type": "Feature", "properties": {}}, {"onestopId": "s-9q9p64u63p-claremont~eton", "name": "Claremont Av:Eton Av", "tags": {}, "geometry": {"type": "Point", "coordinates": [-122.249976, 37.852445]}, "servedBy": ["o-9q9-actransit"], "identifiers": [{"identifier": "f-actransit-s-0301580", "tags": {"stop_lat": "37.852445", "stop_code": "57118", "stop_lon": "-122.249976", "parent_station": "", "stop_id": "0301580", "stop_name": "Claremont Av:Eton Av", "location_type": ""}}], "type": "Feature", "properties": {}}, {"onestopId": "s-9q9p65g8es-ashby~piedmont", "name": "Ashby Av:Piedmont Av", "tags": {}, "geometry": {"type": "Point", "coordinates": [-122.250896, 37.857621]}, "servedBy": ["o-9q9-actransit"], "identifiers": [{"identifier": "f-actransit-s-0300940", "tags": {"stop_lat": "37.857621", "stop_code": "53756", "stop_lon": "-122.250896", "parent_station": "", "stop_id": "0300940", "stop_name": "Ashby Av:Piedmont Av", "location_type": ""}}], "type": "Feature", "properties": {}}, {"onestopId": "s-9q9p6587gw-ashby~hillegass", "name": "Ashby Av:Hillegass Av", "tags": {}, "geometry": {"type": "Point", "coordinates": [-122.255358, 37.856818]}, "servedBy": ["o-9q9-actransit"], "identifiers": [{"identifier": "f-actransit-s-0300870", "tags": {"stop_lat": "37.856818", "stop_code": "59968", "stop_lon": "-122.255358", "parent_station": "", "stop_id": "0300870", "stop_name": "Ashby Av:Hillegass Av", "location_type": ""}}], "type": "Feature", "properties": {}}, {"onestopId": "s-9q9p61dcyj-college~milesclaremontmiddleschool", "name": "College Av:Miles Av (Claremont Middle School)", "tags": {}, "geometry": {"type": "Point", "coordinates": [-122.25182, 37.845483]}, "servedBy": ["o-9q9-actransit"], "identifiers": [{"identifier": "f-actransit-s-1007530", "tags": {"stop_lat": "37.845483", "stop_code": "59959", "stop_lon": "-122.251820", "parent_station": "", "stop_id": "1007530", "stop_name": "College Av:Miles Av (Claremont Middle School)", "location_type": ""}}], "type": "Feature", "properties": {}}, {"onestopId": "s-9q9p6n4nwe-piedmont~ucfacultyclub", "name": "Piedmont Av:Uc Faculty Club", "tags": {}, "geometry": {"type": "Point", "coordinates": [-122.252833, 37.871005]}, "servedBy": ["o-9q9-actransit"], "identifiers": [{"identifier": "f-actransit-s-0305750", "tags": {"stop_lat": "37.871005", "stop_code": "55967", "stop_lon": "-122.252833", "parent_station": "", "stop_id": "0305750", "stop_name": "Piedmont Av:Uc Faculty Club", "location_type": ""}}], "type": "Feature", "properties": {}}, {"onestopId": "s-9q9p6hr3qj-claremont~garber", "name": "Claremont Blvd:Garber St", "tags": {}, "geometry": {"type": "Point", "coordinates": [-122.245636, 37.860505]}, "servedBy": ["o-9q9-actransit"], "identifiers": [{"identifier": "f-actransit-s-0301640", "tags": {"stop_lat": "37.860505", "stop_code": "51432", "stop_lon": "-122.245636", "parent_station": "", "stop_id": "0301640", "stop_name": "Claremont Blvd:Garber St", "location_type": ""}}], "type": "Feature", "properties": {}}, {"onestopId": "s-9q9p64e92c-claremont~mystic", "name": "Claremont Av:Mystic St", "tags": {}, "geometry": {"type": "Point", "coordinates": [-122.25101, 37.850868]}, "servedBy": ["o-9q9-actransit"], "identifiers": [{"identifier": "f-actransit-s-1031080", "tags": {"stop_lat": "37.850868", "stop_code": "54426", "stop_lon": "-122.251010", "parent_station": "", "stop_id": "1031080", "stop_name": "Claremont Av:Mystic St", "location_type": ""}}], "type": "Feature", "properties": {}}, {"onestopId": "s-9q9p68kj6h-florence~modoc", "name": "Florence Av:Modoc Av", "tags": {}, "geometry": {"type": "Point", "coordinates": [-122.228307, 37.839213]}, "servedBy": ["o-9q9-actransit"], "identifiers": [{"identifier": "f-actransit-s-1010040", "tags": {"stop_lat": "37.839213", "stop_code": "56152", "stop_lon": "-122.228307", "parent_station": "", "stop_id": "1010040", "stop_name": "Florence Av:Modoc Av", "location_type": ""}}], "type": "Feature", "properties": {}}, {"onestopId": "s-9q9p6btx70-broadwayter~uranus", "name": "Broadway Ter:Uranus Av", "tags": {}, "geometry": {"type": "Point", "coordinates": [-122.215212, 37.84091]}, "servedBy": ["o-9q9-actransit"], "identifiers": [{"identifier": "f-actransit-s-1006240", "tags": {"stop_lat": "37.840910", "stop_code": "51920", "stop_lon": "-122.215212", "parent_station": "", "stop_id": "1006240", "stop_name": "Broadway Ter:Uranus Av", "location_type": ""}}], "type": "Feature", "properties": {}}, {"onestopId": "s-9q9p69h16u-broadwayter~sheridannearflorence", "name": "Broadway Ter:Sheridan Rd (Near Florence Av)", "tags": {}, "geometry": {"type": "Point", "coordinates": [-122.228267, 37.842645]}, "servedBy": ["o-9q9-actransit"], "identifiers": [{"identifier": "f-actransit-s-1006170", "tags": {"stop_lat": "37.842645", "stop_code": "59711", "stop_lon": "-122.228267", "parent_station": "", "stop_id": "1006170", "stop_name": "Broadway Ter:Sheridan Rd (Near Florence Av)", "location_type": ""}}], "type": "Feature", "properties": {}}, {"onestopId": "s-9q9p6fr6hr-broadwayter~balsam", "name": "Broadway Ter:Balsam Way", "tags": {}, "geometry": {"type": "Point", "coordinates": [-122.212757, 37.849659]}, "servedBy": ["o-9q9-actransit"], "identifiers": [{"identifier": "f-actransit-s-1005990", "tags": {"stop_lat": "37.849659", "stop_code": "51262", "stop_lon": "-122.212757", "parent_station": "", "stop_id": "1005990", "stop_name": "Broadway Ter:Balsam Way", "location_type": ""}}], "type": "Feature", "properties": {}}, {"onestopId": "s-9q9p6fxf8q-skyline~broadwayter", "name": "Skyline Blvd:Broadway Ter", "tags": {}, "geometry": {"type": "Point", "coordinates": [-122.212241, 37.851109]}, "servedBy": ["o-9q9-actransit"], "identifiers": [{"identifier": "f-actransit-s-1019410", "tags": {"stop_lat": "37.851109", "stop_code": "58098", "stop_lon": "-122.212241", "parent_station": "", "stop_id": "1019410", "stop_name": "Skyline Blvd:Broadway Ter", "location_type": ""}}], "type": "Feature", "properties": {}}, {"onestopId": "s-9q9p6n8kyw-gayley~greektheater", "name": "Gayley Rd:Greek Theater", "tags": {}, "geometry": {"type": "Point", "coordinates": [-122.255228, 37.873472]}, "servedBy": ["o-9q9-actransit"], "identifiers": [{"identifier": "f-actransit-s-0302670", "tags": {"stop_lat": "37.873472", "stop_code": "53700", "stop_lon": "-122.255228", "parent_station": "", "stop_id": "0302670", "stop_name": "Gayley Rd:Greek Theater", "location_type": ""}}], "type": "Feature", "properties": {}}, {"onestopId": "s-9q9p6541yc-college~woolsey", "name": "College Av:Woolsey St", "tags": {}, "geometry": {"type": "Point", "coordinates": [-122.252821, 37.853702]}, "servedBy": ["o-9q9-actransit"], "identifiers": [{"identifier": "f-actransit-s-0301810", "tags": {"stop_lat": "37.853702", "stop_code": "56585", "stop_lon": "-122.252821", "parent_station": "", "stop_id": "0301810", "stop_name": "College Av:Woolsey St", "location_type": ""}}], "type": "Feature", "properties": {}}, {"onestopId": "s-9q9p61vc4v-miles~presley", "name": "Miles Av:Presley Way", "tags": {}, "geometry": {"type": "Point", "coordinates": [-122.247838, 37.846726]}, "servedBy": ["o-9q9-actransit"], "identifiers": [{"identifier": "f-actransit-s-1016490", "tags": {"stop_lat": "37.846726", "stop_code": "57460", "stop_lon": "-122.247838", "parent_station": "", "stop_id": "1016490", "stop_name": "Miles Av:Presley Way", "location_type": ""}}], "type": "Feature", "properties": {}}, {"onestopId": "s-9q9p68vypx-broadwayter~temescalrecreationalarea", "name": "Broadway Ter:Temescal Recreational Area", "tags": {}, "geometry": {"type": "Point", "coordinates": [-122.225658, 37.842103]}, "servedBy": ["o-9q9-actransit"], "identifiers": [{"identifier": "f-actransit-s-1006220", "tags": {"stop_lat": "37.842103", "stop_code": "59610", "stop_lon": "-122.225658", "parent_station": "", "stop_id": "1006220", "stop_name": "Broadway Ter:Temescal Recreational Area", "location_type": ""}}], "type": "Feature", "properties": {}}, {"onestopId": "s-9q9p6hrk6b-belrose~garber", "name": "Belrose Av:Garber St", "tags": {}, "geometry": {"type": "Point", "coordinates": [-122.245777, 37.860992]}, "servedBy": ["o-9q9-actransit"], "identifiers": [{"identifier": "f-actransit-s-0301200", "tags": {"stop_lat": "37.860992", "stop_code": "55837", "stop_lon": "-122.245777", "parent_station": "", "stop_id": "0301200", "stop_name": "Belrose Av:Garber St", "location_type": ""}}], "type": "Feature", "properties": {}}, {"onestopId": "s-9q9p685yxk-modoc~sonia", "name": "Modoc Av:Sonia St", "tags": {}, "geometry": {"type": "Point", "coordinates": [-122.228425, 37.838055]}, "servedBy": ["o-9q9-actransit"], "identifiers": [{"identifier": "f-actransit-s-1016500", "tags": {"stop_lat": "37.838055", "stop_code": "59931", "stop_lon": "-122.228425", "parent_station": "", "stop_id": "1016500", "stop_name": "Modoc Av:Sonia St", "location_type": ""}}], "type": "Feature", "properties": {}}, {"onestopId": "s-9q9p616y7d-college~rockridgebartstation", "name": "College Av:Rock Ridge BART Station", "tags": {}, "geometry": {"type": "Point", "coordinates": [-122.251927, 37.844867]}, "servedBy": ["o-9q9-actransit"], "identifiers": [{"identifier": "f-actransit-s-1007560", "tags": {"stop_lat": "37.844867", "stop_code": "52828", "stop_lon": "-122.251927", "parent_station": "place_ROBA", "stop_id": "1007560", "stop_name": "College Av:Rock Ridge BART Station", "location_type": ""}}], "type": "Feature", "properties": {}}, {"onestopId": "s-9q9p6hwhxg-derby~claremont", "name": "Derby St:Claremont Blvd", "tags": {}, "geometry": {"type": "Point", "coordinates": [-122.247281, 37.862424]}, "servedBy": ["o-9q9-actransit"], "identifiers": [{"identifier": "f-actransit-s-0301960", "tags": {"stop_lat": "37.862424", "stop_code": "58860", "stop_lon": "-122.247281", "parent_station": "", "stop_id": "0301960", "stop_name": "Derby St:Claremont Blvd", "location_type": ""}}], "type": "Feature", "properties": {}}, {"onestopId": "s-9q9p65z775-ashby~claremont", "name": "Ashby Av:Claremont Av", "tags": {}, "geometry": {"type": "Point", "coordinates": [-122.245764, 37.858092]}, "servedBy": ["o-9q9-actransit"], "identifiers": [{"identifier": "f-actransit-s-0300780", "tags": {"stop_lat": "37.858092", "stop_code": "50677", "stop_lon": "-122.245764", "parent_station": "", "stop_id": "0300780", "stop_name": "Ashby Av:Claremont Av", "location_type": ""}}], "type": "Feature", "properties": {}}, {"onestopId": "s-9q9p664tve-broadway~brooksidecollegepreparatoryschool", "name": "Broadway:Brookside Av (College Preparatory School)", "tags": {}, "geometry": {"type": "Point", "coordinates": [-122.241199, 37.848905]}, "servedBy": ["o-9q9-actransit"], "identifiers": [{"identifier": "f-actransit-s-1006740", "tags": {"stop_lat": "37.848905", "stop_code": "52015", "stop_lon": "-122.241199", "parent_station": "", "stop_id": "1006740", "stop_name": "Broadway:Brookside Av (College Preparatory School)", "location_type": ""}}], "type": "Feature", "properties": {}}, {"onestopId": "s-9q9p65v9fh-ashby~pine", "name": "Ashby Av:Pine Av", "tags": {}, "geometry": {"type": "Point", "coordinates": [-122.24821, 37.85784]}, "servedBy": ["o-9q9-actransit"], "identifiers": [{"identifier": "f-actransit-s-0300970", "tags": {"stop_lat": "37.857840", "stop_code": "57056", "stop_lon": "-122.248210", "parent_station": "", "stop_id": "0300970", "stop_name": "Ashby Av:Pine Av", "location_type": ""}}], "type": "Feature", "properties": {}}, {"onestopId": "s-9q9p6hcs0p-college~parker", "name": "College Av:Parker St", "tags": {}, "geometry": {"type": "Point", "coordinates": [-122.253793, 37.863732]}, "servedBy": ["o-9q9-actransit"], "identifiers": [{"identifier": "f-actransit-s-0301750", "tags": {"stop_lat": "37.863732", "stop_code": "50550", "stop_lon": "-122.253793", "parent_station": "", "stop_id": "0301750", "stop_name": "College Av:Parker St", "location_type": ""}}], "type": "Feature", "properties": {}}, {"onestopId": "s-9q9p68vvtp-broadwayter~warrenfrwyentrance", "name": "Broadway Ter:Warren Frwy Entrance", "tags": {}, "geometry": {"type": "Point", "coordinates": [-122.225766, 37.842019]}, "servedBy": ["o-9q9-actransit"], "identifiers": [{"identifier": "f-actransit-s-1006250", "tags": {"stop_lat": "37.842019", "stop_code": "50165", "stop_lon": "-122.225766", "parent_station": "", "stop_id": "1006250", "stop_name": "Broadway Ter:Warren Frwy Entrance", "location_type": ""}}], "type": "Feature", "properties": {}}, {"onestopId": "s-9q9p68gq2j-florence~broadwayter", "name": "Florence Av:Broadway Ter", "tags": {}, "geometry": {"type": "Point", "coordinates": [-122.229422, 37.842136]}, "servedBy": ["o-9q9-actransit"], "identifiers": [{"identifier": "f-actransit-s-1010000", "tags": {"stop_lat": "37.842136", "stop_code": "56095", "stop_lon": "-122.229422", "parent_station": "", "stop_id": "1010000", "stop_name": "Florence Av:Broadway Ter", "location_type": ""}}], "type": "Feature", "properties": {}}, {"onestopId": "s-9q9p68k08y-modoc~sonia", "name": "Modoc Av:Sonia St", "tags": {}, "geometry": {"type": "Point", "coordinates": [-122.228357, 37.838406]}, "servedBy": ["o-9q9-actransit"], "identifiers": [{"identifier": "f-actransit-s-1016510", "tags": {"stop_lat": "37.838406", "stop_code": "57490", "stop_lon": "-122.228357", "parent_station": "", "stop_id": "1016510", "stop_name": "Modoc Av:Sonia St", "location_type": ""}}], "type": "Feature", "properties": {}}, {"onestopId": "s-9q9p6j8yue-durant~college", "name": "Durant Av:College Av", "tags": {}, "geometry": {"type": "Point", "coordinates": [-122.254628, 37.868302]}, "servedBy": ["o-9q9-actransit"], "identifiers": [{"identifier": "f-actransit-s-0301980", "tags": {"stop_lat": "37.868302", "stop_code": "52333", "stop_lon": "-122.254628", "parent_station": "", "stop_id": "0301980", "stop_name": "Durant Av:College Av", "location_type": ""}}], "type": "Feature", "properties": {}}, {"onestopId": "s-9q9p67juyd-tunnel~roble", "name": "Tunnel Rd:Roble Rd", "tags": {}, "geometry": {"type": "Point", "coordinates": [-122.236689, 37.854225]}, "servedBy": ["o-9q9-actransit"], "identifiers": [{"identifier": "f-actransit-s-0305710", "tags": {"stop_lat": "37.854225", "stop_code": "57807", "stop_lon": "-122.236689", "parent_station": "", "stop_id": "0305710", "stop_name": "Tunnel Rd:Roble Rd", "location_type": ""}}], "type": "Feature", "properties": {}}, {"onestopId": "s-9q9p6hshgc-warring~derby", "name": "Warring St:Derby St", "tags": {}, "geometry": {"type": "Point", "coordinates": [-122.250205, 37.862456]}, "servedBy": ["o-9q9-actransit"], "identifiers": [{"identifier": "f-actransit-s-0306130", "tags": {"stop_lat": "37.862456", "stop_code": "54767", "stop_lon": "-122.250205", "parent_station": "", "stop_id": "0306130", "stop_name": "Warring St:Derby St", "location_type": ""}}], "type": "Feature", "properties": {}}, {"onestopId": "s-9q9p6bu6nb-broadwayter~taurus", "name": "Broadway Ter:Taurus Av", "tags": {}, "geometry": {"type": "Point", "coordinates": [-122.216771, 37.841378]}, "servedBy": ["o-9q9-actransit"], "identifiers": [{"identifier": "f-actransit-s-1006210", "tags": {"stop_lat": "37.841378", "stop_code": "51690", "stop_lon": "-122.216771", "parent_station": "", "stop_id": "1006210", "stop_name": "Broadway Ter:Taurus Av", "location_type": ""}}], "type": "Feature", "properties": {}}, {"onestopId": "s-9q9p6hcwf4-college~parker", "name": "College Av:Parker St", "tags": {}, "geometry": {"type": "Point", "coordinates": [-122.253712, 37.864177]}, "servedBy": ["o-9q9-actransit"], "identifiers": [{"identifier": "f-actransit-s-0301760", "tags": {"stop_lat": "37.864177", "stop_code": "57774", "stop_lon": "-122.253712", "parent_station": "", "stop_id": "0301760", "stop_name": "College Av:Parker St", "location_type": ""}}], "type": "Feature", "properties": {}}, {"onestopId": "s-9q9p618t02-claremont~chabot", "name": "Claremont Av:Chabot Rd", "tags": {}, "geometry": {"type": "Point", "coordinates": [-122.255158, 37.846016]}, "servedBy": ["o-9q9-actransit"], "identifiers": [{"identifier": "f-actransit-s-1007300", "tags": {"stop_lat": "37.846016", "stop_code": "54439", "stop_lon": "-122.255158", "parent_station": "", "stop_id": "1007300", "stop_name": "Claremont Av:Chabot Rd", "location_type": ""}}], "type": "Feature", "properties": {}}, {"onestopId": "s-9q9p61nxs8-broadway~taft", "name": "Broadway:Taft Av", "tags": {}, "geometry": {"type": "Point", "coordinates": [-122.246734, 37.843697]}, "servedBy": ["o-9q9-actransit"], "identifiers": [{"identifier": "f-actransit-s-1006840", "tags": {"stop_lat": "37.843697", "stop_code": "55902", "stop_lon": "-122.246734", "parent_station": "", "stop_id": "1006840", "stop_name": "Broadway:Taft Av", "location_type": ""}}], "type": "Feature", "properties": {}}, {"onestopId": "s-9q9p64u2ct-claremont~eton", "name": "Claremont Av:Eton Ct", "tags": {}, "geometry": {"type": "Point", "coordinates": [-122.249954, 37.852177]}, "servedBy": ["o-9q9-actransit"], "identifiers": [{"identifier": "f-actransit-s-0301590", "tags": {"stop_lat": "37.852177", "stop_code": "57228", "stop_lon": "-122.249954", "parent_station": "", "stop_id": "0301590", "stop_name": "Claremont Av:Eton Ct", "location_type": ""}}], "type": "Feature", "properties": {}}, {"onestopId": "s-9q9p6b3edy-duncan~leo", "name": "Duncan Way:Leo Way", "tags": {}, "geometry": {"type": "Point", "coordinates": [-122.220713, 37.838925]}, "servedBy": ["o-9q9-actransit"], "identifiers": [{"identifier": "f-actransit-s-1007990", "tags": {"stop_lat": "37.838925", "stop_code": "56052", "stop_lon": "-122.220713", "parent_station": "", "stop_id": "1007990", "stop_name": "Duncan Way:Leo Way", "location_type": ""}}], "type": "Feature", "properties": {}}, {"onestopId": "s-9q9p616u6t-college~miles", "name": "College Av:Miles Av", "tags": {}, "geometry": {"type": "Point", "coordinates": [-122.251966, 37.844542]}, "servedBy": ["o-9q9-actransit"], "identifiers": [{"identifier": "f-actransit-s-1031130", "tags": {"stop_lat": "37.844542", "stop_code": "54327", "stop_lon": "-122.251966", "parent_station": "place_ROBA", "stop_id": "1031130", "stop_name": "College Av:Miles Av", "location_type": ""}}], "type": "Feature", "properties": {}}, {"onestopId": "s-9q9p644x0w-claremont~college", "name": "Claremont Av:College Av", "tags": {}, "geometry": {"type": "Point", "coordinates": [-122.252402, 37.849139]}, "servedBy": ["o-9q9-actransit"], "identifiers": [{"identifier": "f-actransit-s-1007320", "tags": {"stop_lat": "37.849139", "stop_code": "55903", "stop_lon": "-122.252402", "parent_station": "", "stop_id": "1007320", "stop_name": "Claremont Av:College Av", "location_type": ""}}], "type": "Feature", "properties": {}}, {"onestopId": "s-9q9p65dm4d-ashby~college", "name": "Ashby Av:College Av", "tags": {}, "geometry": {"type": "Point", "coordinates": [-122.252661, 37.857013]}, "servedBy": ["o-9q9-actransit"], "identifiers": [{"identifier": "f-actransit-s-0300810", "tags": {"stop_lat": "37.857013", "stop_code": "58568", "stop_lon": "-122.252661", "parent_station": "", "stop_id": "0300810", "stop_name": "Ashby Av:College Av", "location_type": ""}}], "type": "Feature", "properties": {}}, {"onestopId": "s-9q9p65z6tq-ashby~claremont", "name": "Ashby Av:Claremont Av", "tags": {}, "geometry": {"type": "Point", "coordinates": [-122.245674, 37.857977]}, "servedBy": ["o-9q9-actransit"], "identifiers": [{"identifier": "f-actransit-s-0300790", "tags": {"stop_lat": "37.857977", "stop_code": "52331", "stop_lon": "-122.245674", "parent_station": "", "stop_id": "0300790", "stop_name": "Ashby Av:Claremont Av", "location_type": ""}}], "type": "Feature", "properties": {}}, {"onestopId": "s-9q9p68z616-broadwayter~pinewood", "name": "Broadway Ter:Pinewood Rd", "tags": {}, "geometry": {"type": "Point", "coordinates": [-122.223867, 37.841388]}, "servedBy": ["o-9q9-actransit"], "identifiers": [{"identifier": "f-actransit-s-1006150", "tags": {"stop_lat": "37.841388", "stop_code": "56889", "stop_lon": "-122.223867", "parent_station": "", "stop_id": "1006150", "stop_name": "Broadway Ter:Pinewood Rd", "location_type": ""}}], "type": "Feature", "properties": {}}, {"onestopId": "s-9q9p67c42f-tunnel~domingoashby", "name": "Tunnel Rd:Domingo Av (Ashby Av)", "tags": {}, "geometry": {"type": "Point", "coordinates": [-122.243462, 37.857911]}, "servedBy": ["o-9q9-actransit"], "identifiers": [{"identifier": "f-actransit-s-0305700", "tags": {"stop_lat": "37.857911", "stop_code": "51252", "stop_lon": "-122.243462", "parent_station": "", "stop_id": "0305700", "stop_name": "Tunnel Rd:Domingo Av (Ashby Av)", "location_type": ""}}], "type": "Feature", "properties": {}}, {"onestopId": "s-9q9p617h3p-college~rockridgebartstation", "name": "College Av:Rock Ridge BART Station", "tags": {}, "geometry": {"type": "Point", "coordinates": [-122.251687, 37.84455]}, "servedBy": ["o-9q9-actransit"], "identifiers": [{"identifier": "f-actransit-s-1007550", "tags": {"stop_lat": "37.844550", "stop_code": "51188", "stop_lon": "-122.251687", "parent_station": "place_ROBA", "stop_id": "1007550", "stop_name": "College Av:Rock Ridge BART Station", "location_type": ""}}], "type": "Feature", "properties": {}}, {"onestopId": "s-9q9p6dbkcy-bentleyschool", "name": "Bentley School", "tags": {}, "geometry": {"type": "Point", "coordinates": [-122.233463, 37.852872]}, "servedBy": ["o-9q9-actransit"], "identifiers": [{"identifier": "f-actransit-s-1031770", "tags": {"stop_lat": "37.852872", "stop_code": "50402", "stop_lon": "-122.233463", "parent_station": "", "stop_id": "1031770", "stop_name": "Bentley School", "location_type": ""}}], "type": "Feature", "properties": {}}, {"onestopId": "s-9q9p644r78-claremont~college", "name": "Claremont Av:College Av", "tags": {}, "geometry": {"type": "Point", "coordinates": [-122.252619, 37.849147]}, "servedBy": ["o-9q9-actransit"], "identifiers": [{"identifier": "f-actransit-s-1007330", "tags": {"stop_lat": "37.849147", "stop_code": "56188", "stop_lon": "-122.252619", "parent_station": "", "stop_id": "1007330", "stop_name": "Claremont Av:College Av", "location_type": ""}}], "type": "Feature", "properties": {}}, {"onestopId": "s-9q9p6g3b6m-caldecott~parkwoodcommunity", "name": "Caldecott Ln:Parkwood Community", "tags": {}, "geometry": {"type": "Point", "coordinates": [-122.220394, 37.85484]}, "servedBy": ["o-9q9-actransit"], "identifiers": [{"identifier": "f-actransit-s-1006980", "tags": {"stop_lat": "37.854840", "stop_code": "56696", "stop_lon": "-122.220394", "parent_station": "", "stop_id": "1006980", "stop_name": "Caldecott Ln:Parkwood Community", "location_type": ""}}], "type": "Feature", "properties": {}}, {"onestopId": "s-9q9p65w8yg-claremont~hazel", "name": "Claremont Av:Hazel Rd", "tags": {}, "geometry": {"type": "Point", "coordinates": [-122.246638, 37.856285]}, "servedBy": ["o-9q9-actransit"], "identifiers": [{"identifier": "f-actransit-s-0301600", "tags": {"stop_lat": "37.856285", "stop_code": "50432", "stop_lon": "-122.246638", "parent_station": "", "stop_id": "0301600", "stop_name": "Claremont Av:Hazel Rd", "location_type": ""}}], "type": "Feature", "properties": {}}, {"onestopId": "s-9q9p65zvne-claremont~ashby", "name": "Claremont Av:Ashby Av", "tags": {}, "geometry": {"type": "Point", "coordinates": [-122.244937, 37.85839]}, "servedBy": ["o-9q9-actransit"], "identifiers": [{"identifier": "f-actransit-s-0301570", "tags": {"stop_lat": "37.858390", "stop_code": "57115", "stop_lon": "-122.244937", "parent_station": "", "stop_id": "0301570", "stop_name": "Claremont Av:Ashby Av", "location_type": ""}}], "type": "Feature", "properties": {}}, {"onestopId": "s-9q9p6j3mfq-college~haste", "name": "College Av:Haste St", "tags": {}, "geometry": {"type": "Point", "coordinates": [-122.254045, 37.866775]}, "servedBy": ["o-9q9-actransit"], "identifiers": [{"identifier": "f-actransit-s-0301730", "tags": {"stop_lat": "37.866775", "stop_code": "52223", "stop_lon": "-122.254045", "parent_station": "", "stop_id": "0301730", "stop_name": "College Av:Haste St", "location_type": ""}}], "type": "Feature", "properties": {}}, {"onestopId": "s-9q9p65g93x-ashby~piedmont", "name": "Ashby Av:Piedmont Av", "tags": {}, "geometry": {"type": "Point", "coordinates": [-122.250982, 37.857766]}, "servedBy": ["o-9q9-actransit"], "identifiers": [{"identifier": "f-actransit-s-0300950", "tags": {"stop_lat": "37.857766", "stop_code": "59879", "stop_lon": "-122.250982", "parent_station": "", "stop_id": "0300950", "stop_name": "Ashby Av:Piedmont Av", "location_type": ""}}], "type": "Feature", "properties": {}}, {"onestopId": "s-9q9p65jt3m-claremont~theuplands", "name": "Claremont Av:The Uplands", "tags": {}, "geometry": {"type": "Point", "coordinates": [-122.248245, 37.854324]}, "servedBy": ["o-9q9-actransit"], "identifiers": [{"identifier": "f-actransit-s-0301610", "tags": {"stop_lat": "37.854324", "stop_code": "50911", "stop_lon": "-122.248245", "parent_station": "", "stop_id": "0301610", "stop_name": "Claremont Av:The Uplands", "location_type": ""}}], "type": "Feature", "properties": {}}, {"onestopId": "s-9q9p6byq73-broadwayter~merriewood", "name": "Broadway Ter:Merriewood Dr", "tags": {}, "geometry": {"type": "Point", "coordinates": [-122.214171, 37.842117]}, "servedBy": ["o-9q9-actransit"], "identifiers": [{"identifier": "f-actransit-s-1006100", "tags": {"stop_lat": "37.842117", "stop_code": "51562", "stop_lon": "-122.214171", "parent_station": "", "stop_id": "1006100", "stop_name": "Broadway Ter:Merriewood Dr", "location_type": ""}}], "type": "Feature", "properties": {}}, {"onestopId": "s-9q9p6j3jw9-college~haste", "name": "College Av:Haste St", "tags": {}, "geometry": {"type": "Point", "coordinates": [-122.2542, 37.866707]}, "servedBy": ["o-9q9-actransit"], "identifiers": [{"identifier": "f-actransit-s-0301740", "tags": {"stop_lat": "37.866707", "stop_code": "52244", "stop_lon": "-122.254200", "parent_station": "", "stop_id": "0301740", "stop_name": "College Av:Haste St", "location_type": ""}}], "type": "Feature", "properties": {}}, {"onestopId": "s-9q9p61feyv-college~chabot", "name": "College Av:Chabot Rd", "tags": {}, "geometry": {"type": "Point", "coordinates": [-122.252132, 37.847199]}, "servedBy": ["o-9q9-actransit"], "identifiers": [{"identifier": "f-actransit-s-1007450", "tags": {"stop_lat": "37.847199", "stop_code": "56288", "stop_lon": "-122.252132", "parent_station": "", "stop_id": "1007450", "stop_name": "College Av:Chabot Rd", "location_type": ""}}], "type": "Feature", "properties": {}}, {"onestopId": "s-9q9p659gzz-college~ashby", "name": "College Av:Ashby Av", "tags": {}, "geometry": {"type": "Point", "coordinates": [-122.253115, 37.856824]}, "servedBy": ["o-9q9-actransit"], "identifiers": [{"identifier": "f-actransit-s-0301670", "tags": {"stop_lat": "37.856824", "stop_code": "55991", "stop_lon": "-122.253115", "parent_station": "", "stop_id": "0301670", "stop_name": "College Av:Ashby Av", "location_type": ""}}], "type": "Feature", "properties": {}}, {"onestopId": "s-9q9p6913ww-broadwayter~hermosa", "name": "Broadway Ter:Hermosa Av", "tags": {}, "geometry": {"type": "Point", "coordinates": [-122.231888, 37.842702]}, "servedBy": ["o-9q9-actransit"], "identifiers": [{"identifier": "f-actransit-s-1006080", "tags": {"stop_lat": "37.842702", "stop_code": "57882", "stop_lon": "-122.231888", "parent_station": "", "stop_id": "1006080", "stop_name": "Broadway Ter:Hermosa Av", "location_type": ""}}], "type": "Feature", "properties": {}}, {"onestopId": "s-9q9p6587q2-ashby~hillegass", "name": "Ashby Av:Hillegass Av", "tags": {}, "geometry": {"type": "Point", "coordinates": [-122.255244, 37.856702]}, "servedBy": ["o-9q9-actransit"], "identifiers": [{"identifier": "f-actransit-s-0300880", "tags": {"stop_lat": "37.856702", "stop_code": "59875", "stop_lon": "-122.255244", "parent_station": "", "stop_id": "0300880", "stop_name": "Ashby Av:Hillegass Av", "location_type": ""}}], "type": "Feature", "properties": {}}, {"onestopId": "s-9q9p66zghv-tunnel~261", "name": "Tunnel Rd:#261", "tags": {}, "geometry": {"type": "Point", "coordinates": [-122.234017, 37.852564]}, "servedBy": ["o-9q9-actransit"], "identifiers": [{"identifier": "f-actransit-s-1020810", "tags": {"stop_lat": "37.852564", "stop_code": "51147", "stop_lon": "-122.234017", "parent_station": "", "stop_id": "1020810", "stop_name": "Tunnel Rd:#261", "location_type": ""}}], "type": "Feature", "properties": {}}, {"onestopId": "s-9q9p61fffw-college~chabot", "name": "College Av:Chabot Rd", "tags": {}, "geometry": {"type": "Point", "coordinates": [-122.25197, 37.847032]}, "servedBy": ["o-9q9-actransit"], "identifiers": [{"identifier": "f-actransit-s-1007460", "tags": {"stop_lat": "37.847032", "stop_code": "50955", "stop_lon": "-122.251970", "parent_station": "", "stop_id": "1007460", "stop_name": "College Av:Chabot Rd", "location_type": ""}}], "type": "Feature", "properties": {}}, {"onestopId": "s-9q9p611pbe-forest~miles", "name": "Forest St:Miles Av", "tags": {}, "geometry": {"type": "Point", "coordinates": [-122.254454, 37.843758]}, "servedBy": ["o-9q9-actransit"], "identifiers": [{"identifier": "f-actransit-s-1010810", "tags": {"stop_lat": "37.843758", "stop_code": "56163", "stop_lon": "-122.254454", "parent_station": "", "stop_id": "1010810", "stop_name": "Forest St:Miles Av", "location_type": ""}}], "type": "Feature", "properties": {}}, {"onestopId": "s-9q9p6171z4-keith~college", "name": "Keith Av:College Av", "tags": {}, "geometry": {"type": "Point", "coordinates": [-122.251433, 37.844096]}, "servedBy": ["o-9q9-actransit"], "identifiers": [{"identifier": "f-actransit-s-1031890", "tags": {"stop_lat": "37.844096", "stop_code": "50484", "stop_lon": "-122.251433", "parent_station": "place_ROBA", "stop_id": "1031890", "stop_name": "Keith Av:College Av", "location_type": ""}}], "type": "Feature", "properties": {}}, {"onestopId": "s-9q9p6175b0-college~keith", "name": "College Av:Keith Av", "tags": {}, "geometry": {"type": "Point", "coordinates": [-122.251739, 37.844428]}, "servedBy": ["o-9q9-actransit"], "identifiers": [{"identifier": "f-actransit-s-1031100", "tags": {"stop_lat": "37.844428", "stop_code": "55563", "stop_lon": "-122.251739", "parent_station": "place_ROBA", "stop_id": "1031100", "stop_name": "College Av:Keith Av", "location_type": ""}}], "type": "Feature", "properties": {}}, {"onestopId": "s-9q9p6cqx7u-broadwayter~pinehaven", "name": "Broadway Ter:Pinehaven Rd", "tags": {}, "geometry": {"type": "Point", "coordinates": [-122.213806, 37.845051]}, "servedBy": ["o-9q9-actransit"], "identifiers": [{"identifier": "f-actransit-s-1006130", "tags": {"stop_lat": "37.845051", "stop_code": "51569", "stop_lon": "-122.213806", "parent_station": "", "stop_id": "1006130", "stop_name": "Broadway Ter:Pinehaven Rd", "location_type": ""}}], "type": "Feature", "properties": {}}, {"onestopId": "s-9q9p60nzg2-broadwayter~carlton", "name": "Broadway Ter:Carlton St", "tags": {}, "geometry": {"type": "Point", "coordinates": [-122.246447, 37.838249]}, "servedBy": ["o-9q9-actransit"], "identifiers": [{"identifier": "f-actransit-s-1006000", "tags": {"stop_lat": "37.838249", "stop_code": "53910", "stop_lon": "-122.246447", "parent_station": "", "stop_id": "1006000", "stop_name": "Broadway Ter:Carlton St", "location_type": ""}}], "type": "Feature", "properties": {}}, {"onestopId": "s-9q9p65jk0w-claremont~woolsey", "name": "Claremont Av:Woolsey St", "tags": {}, "geometry": {"type": "Point", "coordinates": [-122.248626, 37.854115]}, "servedBy": ["o-9q9-actransit"], "identifiers": [{"identifier": "f-actransit-s-0301630", "tags": {"stop_lat": "37.854115", "stop_code": "55763", "stop_lon": "-122.248626", "parent_station": "", "stop_id": "0301630", "stop_name": "Claremont Av:Woolsey St", "location_type": ""}}], "type": "Feature", "properties": {}}, {"onestopId": "s-9q9p6j71rd-piedmont~dwight", "name": "Piedmont Av:Dwight Way", "tags": {}, "geometry": {"type": "Point", "coordinates": [-122.25141, 37.865983]}, "servedBy": ["o-9q9-actransit"], "identifiers": [{"identifier": "f-actransit-s-0304030", "tags": {"stop_lat": "37.865983", "stop_code": "51997", "stop_lon": "-122.251410", "parent_station": "", "stop_id": "0304030", "stop_name": "Piedmont Av:Dwight Way", "location_type": ""}}], "type": "Feature", "properties": {}}, {"onestopId": "s-9q9p6bukdw-broadwayter~taurus", "name": "Broadway Ter:Taurus Av", "tags": {}, "geometry": {"type": "Point", "coordinates": [-122.216948, 37.84184]}, "servedBy": ["o-9q9-actransit"], "identifiers": [{"identifier": "f-actransit-s-1006200", "tags": {"stop_lat": "37.841840", "stop_code": "57970", "stop_lon": "-122.216948", "parent_station": "", "stop_id": "1006200", "stop_name": "Broadway Ter:Taurus Av", "location_type": ""}}], "type": "Feature", "properties": {}}, {"onestopId": "s-9q9p6jfwbv-piedmont~bancroft", "name": "Piedmont Av:Bancroft Way", "tags": {}, "geometry": {"type": "Point", "coordinates": [-122.25239, 37.869687]}, "servedBy": ["o-9q9-actransit"], "identifiers": [{"identifier": "f-actransit-s-0303990", "tags": {"stop_lat": "37.869687", "stop_code": "52995", "stop_lon": "-122.252390", "parent_station": "", "stop_id": "0303990", "stop_name": "Piedmont Av:Bancroft Way", "location_type": ""}}], "type": "Feature", "properties": {}}, {"onestopId": "s-9q9p68z21y-glenwoodglade~broadwayterr", "name": "Glenwood Glade:Broadway Terr", "tags": {}, "geometry": {"type": "Point", "coordinates": [-122.223854, 37.841071]}, "servedBy": ["o-9q9-actransit"], "identifiers": [{"identifier": "f-actransit-s-9901720", "tags": {"stop_lat": "37.841071", "stop_code": "50868", "stop_lon": "-122.223854", "parent_station": "", "stop_id": "9901720", "stop_name": "Glenwood Glade:Broadway Terr", "location_type": ""}}], "type": "Feature", "properties": {}}, {"onestopId": "s-9q9p6c507b-broadwayter~swainland", "name": "Broadway Ter:Swainland Rd", "tags": {}, "geometry": {"type": "Point", "coordinates": [-122.218618, 37.842454]}, "servedBy": ["o-9q9-actransit"], "identifiers": [{"identifier": "f-actransit-s-1006190", "tags": {"stop_lat": "37.842454", "stop_code": "51630", "stop_lon": "-122.218618", "parent_station": "", "stop_id": "1006190", "stop_name": "Broadway Ter:Swainland Rd", "location_type": ""}}], "type": "Feature", "properties": {}}, {"onestopId": "s-9q9p648c24-alcatraz~hillegass", "name": "Alcatraz Av:Hillegass Av", "tags": {}, "geometry": {"type": "Point", "coordinates": [-122.254827, 37.850877]}, "servedBy": ["o-9q9-actransit"], "identifiers": [{"identifier": "f-actransit-s-1005060", "tags": {"stop_lat": "37.850877", "stop_code": "59534", "stop_lon": "-122.254827", "parent_station": "", "stop_id": "1005060", "stop_name": "Alcatraz Av:Hillegass Av", "location_type": ""}}], "type": "Feature", "properties": {}}, {"onestopId": "s-9q9p6cqs3q-broadwayter~pinehaven", "name": "Broadway Ter:Pinehaven Rd", "tags": {}, "geometry": {"type": "Point", "coordinates": [-122.213914, 37.844546]}, "servedBy": ["o-9q9-actransit"], "identifiers": [{"identifier": "f-actransit-s-1006120", "tags": {"stop_lat": "37.844546", "stop_code": "51563", "stop_lon": "-122.213914", "parent_station": "", "stop_id": "1006120", "stop_name": "Broadway Ter:Pinehaven Rd", "location_type": ""}}], "type": "Feature", "properties": {}}, {"onestopId": "s-9q9p64943e-alcatraz~hillegass", "name": "Alcatraz Av:Hillegass Av", "tags": {}, "geometry": {"type": "Point", "coordinates": [-122.254414, 37.851052]}, "servedBy": ["o-9q9-actransit"], "identifiers": [{"identifier": "f-actransit-s-1005070", "tags": {"stop_lat": "37.851052", "stop_code": "59568", "stop_lon": "-122.254414", "parent_station": "", "stop_id": "1005070", "stop_name": "Alcatraz Av:Hillegass Av", "location_type": ""}}], "type": "Feature", "properties": {}}, {"onestopId": "s-9q9p60e5rj-college~manila", "name": "College Av:Manila Av", "tags": {}, "geometry": {"type": "Point", "coordinates": [-122.251436, 37.840246]}, "servedBy": ["o-9q9-actransit"], "identifiers": [{"identifier": "f-actransit-s-1007510", "tags": {"stop_lat": "37.840246", "stop_code": "56355", "stop_lon": "-122.251436", "parent_station": "", "stop_id": "1007510", "stop_name": "College Av:Manila Av", "location_type": ""}}], "type": "Feature", "properties": {}}, {"onestopId": "s-9q9p68e2nq-florence~morpeth", "name": "Florence Av:Morpeth St", "tags": {}, "geometry": {"type": "Point", "coordinates": [-122.229154, 37.839697]}, "servedBy": ["o-9q9-actransit"], "identifiers": [{"identifier": "f-actransit-s-1010050", "tags": {"stop_lat": "37.839697", "stop_code": "56153", "stop_lon": "-122.229154", "parent_station": "", "stop_id": "1010050", "stop_name": "Florence Av:Morpeth St", "location_type": ""}}], "type": "Feature", "properties": {}}, {"onestopId": "s-9q9p618ss1-claremont~chabot", "name": "Claremont Av:Chabot Rd", "tags": {}, "geometry": {"type": "Point", "coordinates": [-122.254991, 37.845937]}, "servedBy": ["o-9q9-actransit"], "identifiers": [{"identifier": "f-actransit-s-1007310", "tags": {"stop_lat": "37.845937", "stop_code": "52392", "stop_lon": "-122.254991", "parent_station": "", "stop_id": "1007310", "stop_name": "Claremont Av:Chabot Rd", "location_type": ""}}], "type": "Feature", "properties": {}}, {"onestopId": "s-9q9p65v4q9-ashby~pine", "name": "Ashby Av:Pine Av", "tags": {}, "geometry": {"type": "Point", "coordinates": [-122.248704, 37.857906]}, "servedBy": ["o-9q9-actransit"], "identifiers": [{"identifier": "f-actransit-s-0300960", "tags": {"stop_lat": "37.857906", "stop_code": "56870", "stop_lon": "-122.248704", "parent_station": "", "stop_id": "0300960", "stop_name": "Ashby Av:Pine Av", "location_type": ""}}], "type": "Feature", "properties": {}}, {"onestopId": "s-9q9p649g5r-alcatraz~benvenue", "name": "Alcatraz Av:Benvenue Av", "tags": {}, "geometry": {"type": "Point", "coordinates": [-122.25331, 37.851204]}, "servedBy": ["o-9q9-actransit"], "identifiers": [{"identifier": "f-actransit-s-1005020", "tags": {"stop_lat": "37.851204", "stop_code": "59245", "stop_lon": "-122.253310", "parent_station": "", "stop_id": "1005020", "stop_name": "Alcatraz Av:Benvenue Av", "location_type": ""}}], "type": "Feature", "properties": {}}, {"onestopId": "s-9q9p6b6r0v-mountain~broadwayter", "name": "Mountain Blvd:Broadway Ter", "tags": {}, "geometry": {"type": "Point", "coordinates": [-122.219768, 37.839517]}, "servedBy": ["o-9q9-actransit"], "identifiers": [{"identifier": "f-actransit-s-1016820", "tags": {"stop_lat": "37.839517", "stop_code": "53324", "stop_lon": "-122.219768", "parent_station": "", "stop_id": "1016820", "stop_name": "Mountain Blvd:Broadway Ter", "location_type": ""}}], "type": "Feature", "properties": {}}, {"onestopId": "s-9q9p62tpwx-broadwayter~ostrander", "name": "Broadway Ter:Ostrander Rd", "tags": {}, "geometry": {"type": "Point", "coordinates": [-122.237724, 37.840987]}, "servedBy": ["o-9q9-actransit"], "identifiers": [{"identifier": "f-actransit-s-1006110", "tags": {"stop_lat": "37.840987", "stop_code": "57889", "stop_lon": "-122.237724", "parent_station": "", "stop_id": "1006110", "stop_name": "Broadway Ter:Ostrander Rd", "location_type": ""}}], "type": "Feature", "properties": {}}, {"onestopId": "s-9q9p646vjv-claremont~mystic", "name": "Claremont Av:Mystic St", "tags": {}, "geometry": {"type": "Point", "coordinates": [-122.251829, 37.850162]}, "servedBy": ["o-9q9-actransit"], "identifiers": [{"identifier": "f-actransit-s-1031090", "tags": {"stop_lat": "37.850162", "stop_code": "52865", "stop_lon": "-122.251829", "parent_station": "", "stop_id": "1031090", "stop_name": "Claremont Av:Mystic St", "location_type": ""}}], "type": "Feature", "properties": {}}, {"onestopId": "s-9q9p6pytqt-centennial~parkinglot", "name": "Centennial Dr:Parking Lot", "tags": {}, "geometry": {"type": "Point", "coordinates": [-122.246653, 37.880416]}, "servedBy": ["o-9q9-actransit"], "identifiers": [{"identifier": "f-actransit-s-0306510", "tags": {"stop_lat": "37.880416", "stop_code": "57082", "stop_lon": "-122.246653", "parent_station": "", "stop_id": "0306510", "stop_name": "Centennial Dr:Parking Lot", "location_type": ""}}], "type": "Feature", "properties": {}}, {"onestopId": "s-9q9p6byq94-broadwayter~merriewood", "name": "Broadway Ter:Merriewood Dr", "tags": {}, "geometry": {"type": "Point", "coordinates": [-122.214266, 37.842164]}, "servedBy": ["o-9q9-actransit"], "identifiers": [{"identifier": "f-actransit-s-1006090", "tags": {"stop_lat": "37.842164", "stop_code": "51295", "stop_lon": "-122.214266", "parent_station": "", "stop_id": "1006090", "stop_name": "Broadway Ter:Merriewood Dr", "location_type": ""}}], "type": "Feature", "properties": {}}, {"onestopId": "s-9q9p60e655-college~manila", "name": "College Av:Manila Av", "tags": {}, "geometry": {"type": "Point", "coordinates": [-122.251261, 37.840021]}, "servedBy": ["o-9q9-actransit"], "identifiers": [{"identifier": "f-actransit-s-1007520", "tags": {"stop_lat": "37.840021", "stop_code": "55644", "stop_lon": "-122.251261", "parent_station": "", "stop_id": "1007520", "stop_name": "College Av:Manila Av", "location_type": ""}}], "type": "Feature", "properties": {}}, {"onestopId": "s-9q9p65w82p-claremont~webster", "name": "Claremont Av:Webster St", "tags": {}, "geometry": {"type": "Point", "coordinates": [-122.246924, 37.856225]}, "servedBy": ["o-9q9-actransit"], "identifiers": [{"identifier": "f-actransit-s-0301620", "tags": {"stop_lat": "37.856225", "stop_code": "55762", "stop_lon": "-122.246924", "parent_station": "", "stop_id": "0301620", "stop_name": "Claremont Av:Webster St", "location_type": ""}}], "type": "Feature", "properties": {}}]}