{"prefix": "9q9kk", "type": "FeatureCollection", "properties": {}, "features": [{"onestopId": "s-9q9kkkk304-white~bonbon", "name": "WHITE & BON BON", "tags": {}, "geometry": {"type": "Point", "coordinates": [-121.799579858, 37.333099303]}, "servedBy": ["o-9q9-vta"], "identifiers": [{"identifier": "f-vta-s-3594", "tags": {"stop_lat": "37.333099302999997", "zone_id": "1", "stop_lon": "-121.799579858", "stop_id": "3594", "stop_desc": "", "stop_name": "WHITE & BON BON"}}], "type": "Feature", "properties": {}}, {"onestopId": "s-9q9kkfg7rv-quimby~balerdo", "name": "QUIMBY & BALERDO", "tags": {}, "geometry": {"type": "Point", "coordinates": [-121.778651237, 37.325266313]}, "servedBy": ["o-9q9-vta"], "identifiers": [{"identifier": "f-vta-s-1857", "tags": {"stop_lat": "37.325266313", "zone_id": "1", "stop_lon": "-121.77865123700001", "stop_id": "1857", "stop_desc": "", "stop_name": "QUIMBY & BALERDO"}}], "type": "Feature", "properties": {}}, {"onestopId": "s-9q9kkfb99r-quimby~ruby", "name": "QUIMBY & RUBY", "tags": {}, "geometry": {"type": "Point", "coordinates": [-121.782705547, 37.324974391]}, "servedBy": ["o-9q9-vta"], "identifiers": [{"identifier": "f-vta-s-1858", "tags": {"stop_lat": "37.324974390999998", "zone_id": "1", "stop_lon": "-121.78270554700001", "stop_id": "1858", "stop_desc": "", "stop_name": "QUIMBY & RUBY"}}], "type": "Feature", "properties": {}}, {"onestopId": "s-9q9kkdg9r1-quimby~davidwood", "name": "QUIMBY & DAVIDWOOD", "tags": {}, "geometry": {"type": "Point", "coordinates": [-121.789319497, 37.324900711]}, "servedBy": ["o-9q9-vta"], "identifiers": [{"identifier": "f-vta-s-1860", "tags": {"stop_lat": "37.324900710999998", "zone_id": "1", "stop_lon": "-121.78931949699999", "stop_id": "1860", "stop_desc": "", "stop_name": "QUIMBY & DAVIDWOOD"}}], "type": "Feature", "properties": {}}, {"onestopId": "s-9q9kk0qrg7-capitol~aborn", "name": "CAPITOL & ABORN", "tags": {}, "geometry": {"type": "Point", "coordinates": [-121.807676843, 37.312293634]}, "servedBy": ["o-9q9-vta"], "identifiers": [{"identifier": "f-vta-s-1262", "tags": {"stop_lat": "37.312293634", "zone_id": "1", "stop_lon": "-121.807676843", "stop_id": "1262", "stop_desc": "", "stop_name": "CAPITOL & ABORN"}}], "type": "Feature", "properties": {}}, {"onestopId": "s-9q9kk2s6jf-aborn~glenrio", "name": "ABORN & GLENRIO", "tags": {}, "geometry": {"type": "Point", "coordinates": [-121.799334952, 37.31267602]}, "servedBy": ["o-9q9-vta"], "identifiers": [{"identifier": "f-vta-s-1235", "tags": {"stop_lat": "37.312676019999998", "zone_id": "1", "stop_lon": "-121.799334952", "stop_id": "1235", "stop_desc": "", "stop_name": "ABORN & GLENRIO"}}], "type": "Feature", "properties": {}}, {"onestopId": "s-9q9kkp973f-white~candler", "name": "WHITE & CANDLER", "tags": {}, "geometry": {"type": "Point", "coordinates": [-121.814611646, 37.351340417]}, "servedBy": ["o-9q9-vta"], "identifiers": [{"identifier": "f-vta-s-3598", "tags": {"stop_lat": "37.351340417000003", "zone_id": "1", "stop_lon": "-121.814611646", "stop_id": "3598", "stop_desc": "", "stop_name": "WHITE & CANDLER"}}], "type": "Feature", "properties": {}}, {"onestopId": "s-9q9kk2d0f0-aborn~nieman", "name": "ABORN & NIEMAN", "tags": {}, "geometry": {"type": "Point", "coordinates": [-121.80258576, 37.31244933]}, "servedBy": ["o-9q9-vta"], "identifiers": [{"identifier": "f-vta-s-1261", "tags": {"stop_lat": "37.31244933", "zone_id": "1", "stop_lon": "-121.80258576", "stop_id": "1261", "stop_desc": "", "stop_name": "ABORN & NIEMAN"}}], "type": "Feature", "properties": {}}, {"onestopId": "s-9q9kk6f4du-quimby~smithers", "name": "QUIMBY & SMITHERS", "tags": {}, "geometry": {"type": "Point", "coordinates": [-121.802551505, 37.325127755]}, "servedBy": ["o-9q9-vta"], "identifiers": [{"identifier": "f-vta-s-1863", "tags": {"stop_lat": "37.325127754999997", "zone_id": "1", "stop_lon": "-121.802551505", "stop_id": "1863", "stop_desc": "", "stop_name": "QUIMBY & SMITHERS"}}], "type": "Feature", "properties": {}}, {"onestopId": "s-9q9kk0qepb-aborn~capitol", "name": "ABORN & CAPITOL", "tags": {}, "geometry": {"type": "Point", "coordinates": [-121.807142057, 37.311460957]}, "servedBy": ["o-9q9-vta"], "identifiers": [{"identifier": "f-vta-s-1233", "tags": {"stop_lat": "37.311460957000001", "zone_id": "1", "stop_lon": "-121.80714205699999", "stop_id": "1233", "stop_desc": "", "stop_name": "ABORN & CAPITOL"}}], "type": "Feature", "properties": {}}, {"onestopId": "s-9q9kkcnxt9-aborn~ruby", "name": "ABORN & RUBY", "tags": {}, "geometry": {"type": "Point", "coordinates": [-121.774281714, 37.31635928]}, "servedBy": ["o-9q9-vta"], "identifiers": [{"identifier": "f-vta-s-5584", "tags": {"stop_lat": "37.31635928", "zone_id": "1", "stop_lon": "-121.774281714", "stop_id": "5584", "stop_desc": "", "stop_name": "ABORN & RUBY"}}], "type": "Feature", "properties": {}}, {"onestopId": "s-9q9kkdc80x-quimby~pendleton", "name": "QUIMBY & PENDLETON", "tags": {}, "geometry": {"type": "Point", "coordinates": [-121.7923508, 37.32471612]}, "servedBy": ["o-9q9-vta"], "identifiers": [{"identifier": "f-vta-s-1866", "tags": {"stop_lat": "37.324716119999998", "zone_id": "1", "stop_lon": "-121.79235079999999", "stop_id": "1866", "stop_desc": "", "stop_name": "QUIMBY & PENDLETON"}}], "type": "Feature", "properties": {}}, {"onestopId": "s-9q9kk57wuq-eastridgetransit", "name": "EASTRIDGE TRANSIT CENTER", "tags": {}, "geometry": {"type": "Point", "coordinates": [-121.811407, 37.328617]}, "servedBy": ["o-9q9-vta"], "identifiers": [{"identifier": "f-vta-s-5790", "tags": {"stop_lat": "37.328617000000001", "zone_id": "1", "stop_lon": "-121.811407", "stop_id": "5790", "stop_desc": "", "stop_name": "EASTRIDGE TRANSIT CENTER"}}], "type": "Feature", "properties": {}}, {"onestopId": "s-9q9kk5e2ry-eastridgetransit", "name": "EASTRIDGE TRANSIT CENTER", "tags": {}, "geometry": {"type": "Point", "coordinates": [-121.811601, 37.328876]}, "servedBy": ["o-9q9-vta"], "identifiers": [{"identifier": "f-vta-s-5791", "tags": {"stop_lat": "37.328876000000001", "zone_id": "1", "stop_lon": "-121.811601", "stop_id": "5791", "stop_desc": "", "stop_name": "EASTRIDGE TRANSIT CENTER"}}], "type": "Feature", "properties": {}}, {"onestopId": "s-9q9kk7mjsd-white~norwood", "name": "WHITE & NORWOOD", "tags": {}, "geometry": {"type": "Point", "coordinates": [-121.798352113, 37.328378919]}, "servedBy": ["o-9q9-vta"], "identifiers": [{"identifier": "f-vta-s-3693", "tags": {"stop_lat": "37.328378919000002", "zone_id": "1", "stop_lon": "-121.79835211300001", "stop_id": "3693", "stop_desc": "", "stop_name": "WHITE & NORWOOD"}}], "type": "Feature", "properties": {}}, {"onestopId": "s-9q9kk0y08b-capitol~aborn", "name": "CAPITOL & ABORN", "tags": {}, "geometry": {"type": "Point", "coordinates": [-121.808129172, 37.313781258]}, "servedBy": ["o-9q9-vta"], "identifiers": [{"identifier": "f-vta-s-1232", "tags": {"stop_lat": "37.313781257999999", "zone_id": "1", "stop_lon": "-121.80812917199999", "stop_id": "1232", "stop_desc": "", "stop_name": "CAPITOL & ABORN"}}], "type": "Feature", "properties": {}}, {"onestopId": "s-9q9kk5e3sj-eastridgetransit", "name": "EASTRIDGE TRANSIT CENTER", "tags": {}, "geometry": {"type": "Point", "coordinates": [-121.811762, 37.329081]}, "servedBy": ["o-9q9-vta"], "identifiers": [{"identifier": "f-vta-s-5792", "tags": {"stop_lat": "37.329081000000002", "zone_id": "1", "stop_lon": "-121.811762", "stop_id": "5792", "stop_desc": "", "stop_name": "EASTRIDGE TRANSIT CENTER"}}], "type": "Feature", "properties": {}}, {"onestopId": "s-9q9kkk7cpc-white~glencomo", "name": "WHITE & GLEN COMO", "tags": {}, "geometry": {"type": "Point", "coordinates": [-121.799927887, 37.333094007]}, "servedBy": ["o-9q9-vta"], "identifiers": [{"identifier": "f-vta-s-3691", "tags": {"stop_lat": "37.333094007", "zone_id": "1", "stop_lon": "-121.799927887", "stop_id": "3691", "stop_desc": "", "stop_name": "WHITE & GLEN COMO"}}], "type": "Feature", "properties": {}}, {"onestopId": "s-9q9kk6cdu1-quimby~smithers", "name": "QUIMBY & SMITHERS", "tags": {}, "geometry": {"type": "Point", "coordinates": [-121.803186096, 37.325158843]}, "servedBy": ["o-9q9-vta"], "identifiers": [{"identifier": "f-vta-s-1228", "tags": {"stop_lat": "37.325158842999997", "zone_id": "1", "stop_lon": "-121.803186096", "stop_id": "1228", "stop_desc": "", "stop_name": "QUIMBY & SMITHERS"}}], "type": "Feature", "properties": {}}, {"onestopId": "s-9q9kk22ypq-aborn~brigadoon", "name": "ABORN & BRIGADOON", "tags": {}, "geometry": {"type": "Point", "coordinates": [-121.804074275, 37.312007372]}, "servedBy": ["o-9q9-vta"], "identifiers": [{"identifier": "f-vta-s-1234", "tags": {"stop_lat": "37.312007371999997", "zone_id": "1", "stop_lon": "-121.804074275", "stop_id": "1234", "stop_desc": "", "stop_name": "ABORN & BRIGADOON"}}], "type": "Feature", "properties": {}}, {"onestopId": "s-9q9kk4n5ns-capitol~whisperinghill", "name": "CAPITOL & WHISPERING HILL", "tags": {}, "geometry": {"type": "Point", "coordinates": [-121.807886246, 37.321094903]}, "servedBy": ["o-9q9-vta"], "identifiers": [{"identifier": "f-vta-s-1264", "tags": {"stop_lat": "37.321094903000002", "zone_id": "1", "stop_lon": "-121.807886246", "stop_id": "1264", "stop_desc": "", "stop_name": "CAPITOL & WHISPERING HILL"}}], "type": "Feature", "properties": {}}, {"onestopId": "s-9q9kk7t5ke-white~norwood", "name": "WHITE & NORWOOD", "tags": {}, "geometry": {"type": "Point", "coordinates": [-121.798352918, 37.32937439]}, "servedBy": ["o-9q9-vta"], "identifiers": [{"identifier": "f-vta-s-3593", "tags": {"stop_lat": "37.329374389999998", "zone_id": "1", "stop_lon": "-121.79835291800001", "stop_id": "3593", "stop_desc": "", "stop_name": "WHITE & NORWOOD"}}], "type": "Feature", "properties": {}}, {"onestopId": "s-9q9kk5e81n-eastridgetransit", "name": "EASTRIDGE TRANSIT CENTER", "tags": {}, "geometry": {"type": "Point", "coordinates": [-121.811556, 37.328831]}, "servedBy": ["o-9q9-vta"], "identifiers": [{"identifier": "f-vta-s-5793", "tags": {"stop_lat": "37.328831000000001", "zone_id": "1", "stop_lon": "-121.811556", "stop_id": "5793", "stop_desc": "", "stop_name": "EASTRIDGE TRANSIT CENTER"}}], "type": "Feature", "properties": {}}, {"onestopId": "s-9q9kk1q71m-capitol~nieman", "name": "CAPITOL & NIEMAN", "tags": {}, "geometry": {"type": "Point", "coordinates": [-121.807761555, 37.316979985]}, "servedBy": ["o-9q9-vta"], "identifiers": [{"identifier": "f-vta-s-1263", "tags": {"stop_lat": "37.316979985000003", "zone_id": "1", "stop_lon": "-121.807761555", "stop_id": "1263", "stop_desc": "", "stop_name": "CAPITOL & NIEMAN"}}], "type": "Feature", "properties": {}}, {"onestopId": "s-9q9kk8c1km-aborn~white", "name": "ABORN & WHITE", "tags": {}, "geometry": {"type": "Point", "coordinates": [-121.792877482, 37.313933006]}, "servedBy": ["o-9q9-vta"], "identifiers": [{"identifier": "f-vta-s-1258", "tags": {"stop_lat": "37.313933005999999", "zone_id": "1", "stop_lon": "-121.79287748199999", "stop_id": "1258", "stop_desc": "", "stop_name": "ABORN & WHITE"}}], "type": "Feature", "properties": {}}, {"onestopId": "s-9q9kknsqjm-white~rockymountain", "name": "WHITE & ROCKY MOUNTAIN", "tags": {}, "geometry": {"type": "Point", "coordinates": [-121.810335369, 37.346334]}, "servedBy": ["o-9q9-vta"], "identifiers": [{"identifier": "f-vta-s-3686", "tags": {"stop_lat": "37.346333999999999", "zone_id": "1", "stop_lon": "-121.810335369", "stop_id": "3686", "stop_desc": "", "stop_name": "WHITE & ROCKY MOUNTAIN"}}], "type": "Feature", "properties": {}}, {"onestopId": "s-9q9kk1muwb-capitol~nieman", "name": "CAPITOL & NIEMAN", "tags": {}, "geometry": {"type": "Point", "coordinates": [-121.808211132, 37.317211996]}, "servedBy": ["o-9q9-vta"], "identifiers": [{"identifier": "f-vta-s-1231", "tags": {"stop_lat": "37.317211995999997", "zone_id": "1", "stop_lon": "-121.808211132", "stop_id": "1231", "stop_desc": "", "stop_name": "CAPITOL & NIEMAN"}}], "type": "Feature", "properties": {}}, {"onestopId": "s-9q9kkked5z-white~tully", "name": "WHITE & TULLY", "tags": {}, "geometry": {"type": "Point", "coordinates": [-121.800443346, 37.334674696]}, "servedBy": ["o-9q9-vta"], "identifiers": [{"identifier": "f-vta-s-3690", "tags": {"stop_lat": "37.334674696", "zone_id": "1", "stop_lon": "-121.80044334599999", "stop_id": "3690", "stop_desc": "", "stop_name": "WHITE & TULLY"}}], "type": "Feature", "properties": {}}, {"onestopId": "s-9q9kk6yjg3-white~quimby", "name": "WHITE & QUIMBY", "tags": {}, "geometry": {"type": "Point", "coordinates": [-121.79703484, 37.325673842]}, "servedBy": ["o-9q9-vta"], "identifiers": [{"identifier": "f-vta-s-3592", "tags": {"stop_lat": "37.325673842", "zone_id": "1", "stop_lon": "-121.79703483999999", "stop_id": "3592", "stop_desc": "", "stop_name": "WHITE & QUIMBY"}}], "type": "Feature", "properties": {}}, {"onestopId": "s-9q9kkp535s-white~mckinley", "name": "WHITE & MCKINLEY", "tags": {}, "geometry": {"type": "Point", "coordinates": [-121.811785777, 37.348216238]}, "servedBy": ["o-9q9-vta"], "identifiers": [{"identifier": "f-vta-s-3597", "tags": {"stop_lat": "37.348216237999999", "zone_id": "1", "stop_lon": "-121.811785777", "stop_id": "3597", "stop_desc": "", "stop_name": "WHITE & MCKINLEY"}}], "type": "Feature", "properties": {}}, {"onestopId": "s-9q9kk7sxwx-white~glendonegel", "name": "WHITE & GLEN DONEGEL", "tags": {}, "geometry": {"type": "Point", "coordinates": [-121.798954604, 37.330122317]}, "servedBy": ["o-9q9-vta"], "identifiers": [{"identifier": "f-vta-s-3692", "tags": {"stop_lat": "37.330122316999997", "zone_id": "1", "stop_lon": "-121.798954604", "stop_id": "3692", "stop_desc": "", "stop_name": "WHITE & GLEN DONEGEL"}}], "type": "Feature", "properties": {}}, {"onestopId": "s-9q9kk465zd-quimby~eastridge", "name": "QUIMBY & EASTRIDGE", "tags": {}, "geometry": {"type": "Point", "coordinates": [-121.813336602, 37.322585138]}, "servedBy": ["o-9q9-vta"], "identifiers": [{"identifier": "f-vta-s-3906", "tags": {"stop_lat": "37.322585138000001", "zone_id": "1", "stop_lon": "-121.81333660200001", "stop_id": "3906", "stop_desc": "", "stop_name": "QUIMBY & EASTRIDGE"}}], "type": "Feature", "properties": {}}, {"onestopId": "s-9q9kkm35n3-white~lakecunningham", "name": "WHITE & LAKE CUNNINGHAM", "tags": {}, "geometry": {"type": "Point", "coordinates": [-121.80376961, 37.338934146]}, "servedBy": ["o-9q9-vta"], "identifiers": [{"identifier": "f-vta-s-3689", "tags": {"stop_lat": "37.338934146", "zone_id": "1", "stop_lon": "-121.80376961", "stop_id": "3689", "stop_desc": "", "stop_name": "WHITE & LAKE CUNNINGHAM"}}], "type": "Feature", "properties": {}}, {"onestopId": "s-9q9kk424e5-rigoletto~quimby", "name": "RIGOLETTO & QUIMBY", "tags": {}, "geometry": {"type": "Point", "coordinates": [-121.816273583, 37.322378361]}, "servedBy": ["o-9q9-vta"], "identifiers": [{"identifier": "f-vta-s-3908", "tags": {"stop_lat": "37.322378360999998", "zone_id": "1", "stop_lon": "-121.816273583", "stop_id": "3908", "stop_desc": "", "stop_name": "RIGOLETTO & QUIMBY"}}], "type": "Feature", "properties": {}}, {"onestopId": "s-9q9kk5e47w-eastridgetransit", "name": "EASTRIDGE TRANSIT CENTER", "tags": {}, "geometry": {"type": "Point", "coordinates": [-121.812130484, 37.329217571]}, "servedBy": ["o-9q9-vta"], "identifiers": [{"identifier": "f-vta-s-4580", "tags": {"stop_lat": "37.329217571000001", "zone_id": "1", "stop_lon": "-121.81213048399999", "stop_id": "4580", "stop_desc": "", "stop_name": "EASTRIDGE TRANSIT CENTER"}}], "type": "Feature", "properties": {}}, {"onestopId": "s-9q9kk030zd-king~vanport", "name": "KING & VANPORT", "tags": {}, "geometry": {"type": "Point", "coordinates": [-121.81470264, 37.311086576]}, "servedBy": ["o-9q9-vta"], "identifiers": [{"identifier": "f-vta-s-3956", "tags": {"stop_lat": "37.311086576000001", "zone_id": "1", "stop_lon": "-121.81470263999999", "stop_id": "3956", "stop_desc": "", "stop_name": "KING & VANPORT"}}], "type": "Feature", "properties": {}}, {"onestopId": "s-9q9kkp5207-white~mckinley", "name": "WHITE & MCKINLEY", "tags": {}, "geometry": {"type": "Point", "coordinates": [-121.811923123, 37.348042365]}, "servedBy": ["o-9q9-vta"], "identifiers": [{"identifier": "f-vta-s-3685", "tags": {"stop_lat": "37.348042364999998", "zone_id": "1", "stop_lon": "-121.811923123", "stop_id": "3685", "stop_desc": "", "stop_name": "WHITE & MCKINLEY"}}], "type": "Feature", "properties": {}}, {"onestopId": "s-9q9kk6wxyx-quimby~white", "name": "QUIMBY & WHITE", "tags": {}, "geometry": {"type": "Point", "coordinates": [-121.79620716, 37.3246716]}, "servedBy": ["o-9q9-vta"], "identifiers": [{"identifier": "f-vta-s-1865", "tags": {"stop_lat": "37.324671600000002", "zone_id": "1", "stop_lon": "-121.79620715999999", "stop_id": "1865", "stop_desc": "", "stop_name": "QUIMBY & WHITE"}}], "type": "Feature", "properties": {}}, {"onestopId": "s-9q9kk47rqn-quimby~eastridge", "name": "QUIMBY & EASTRIDGE", "tags": {}, "geometry": {"type": "Point", "coordinates": [-121.811683696, 37.323207266]}, "servedBy": ["o-9q9-vta"], "identifiers": [{"identifier": "f-vta-s-3907", "tags": {"stop_lat": "37.323207265999997", "zone_id": "1", "stop_lon": "-121.811683696", "stop_id": "3907", "stop_desc": "", "stop_name": "QUIMBY & EASTRIDGE"}}], "type": "Feature", "properties": {}}, {"onestopId": "s-9q9kkbyw4g-ruby~evergreenvillagesquare", "name": "RUBY & EVERGREEN VILLAGE SQUARE", "tags": {}, "geometry": {"type": "Point", "coordinates": [-121.774398336, 37.314737957]}, "servedBy": ["o-9q9-vta"], "identifiers": [{"identifier": "f-vta-s-5535", "tags": {"stop_lat": "37.314737956999998", "zone_id": "1", "stop_lon": "-121.774398336", "stop_id": "5535", "stop_desc": "", "stop_name": "RUBY & EVERGREEN VILLAGE SQUARE"}}], "type": "Feature", "properties": {}}, {"onestopId": "s-9q9kk89rgs-aborn~white", "name": "ABORN & WHITE", "tags": {}, "geometry": {"type": "Point", "coordinates": [-121.792559388, 37.313670639]}, "servedBy": ["o-9q9-vta"], "identifiers": [{"identifier": "f-vta-s-1237", "tags": {"stop_lat": "37.313670639000001", "zone_id": "1", "stop_lon": "-121.792559388", "stop_id": "1237", "stop_desc": "", "stop_name": "ABORN & WHITE"}}], "type": "Feature", "properties": {}}, {"onestopId": "s-9q9kk68p1c-quimby~scottsdale", "name": "QUIMBY & SCOTTSDALE", "tags": {}, "geometry": {"type": "Point", "coordinates": [-121.805336797, 37.324514129]}, "servedBy": ["o-9q9-vta"], "identifiers": [{"identifier": "f-vta-s-1862", "tags": {"stop_lat": "37.324514129000001", "zone_id": "1", "stop_lon": "-121.805336797", "stop_id": "1862", "stop_desc": "", "stop_name": "QUIMBY & SCOTTSDALE"}}], "type": "Feature", "properties": {}}, {"onestopId": "s-9q9kkdv1km-quimby~remington", "name": "QUIMBY & REMINGTON", "tags": {}, "geometry": {"type": "Point", "coordinates": [-121.787380428, 37.324921896]}, "servedBy": ["o-9q9-vta"], "identifiers": [{"identifier": "f-vta-s-1859", "tags": {"stop_lat": "37.324921895999999", "zone_id": "1", "stop_lon": "-121.78738042800001", "stop_id": "1859", "stop_desc": "", "stop_name": "QUIMBY & REMINGTON"}}], "type": "Feature", "properties": {}}, {"onestopId": "s-9q9kkp8xk5-white~sienna", "name": "WHITE & SIENNA", "tags": {}, "geometry": {"type": "Point", "coordinates": [-121.815542185, 37.352029927]}, "servedBy": ["o-9q9-vta"], "identifiers": [{"identifier": "f-vta-s-3684", "tags": {"stop_lat": "37.352029926999997", "zone_id": "1", "stop_lon": "-121.815542185", "stop_id": "3684", "stop_desc": "", "stop_name": "WHITE & SIENNA"}}], "type": "Feature", "properties": {}}, {"onestopId": "s-9q9kk2xjmg-aborn~kettmann", "name": "ABORN & KETTMANN", "tags": {}, "geometry": {"type": "Point", "coordinates": [-121.795557102, 37.313235356]}, "servedBy": ["o-9q9-vta"], "identifiers": [{"identifier": "f-vta-s-1236", "tags": {"stop_lat": "37.313235356", "zone_id": "1", "stop_lon": "-121.795557102", "stop_id": "1236", "stop_desc": "", "stop_name": "ABORN & KETTMANN"}}], "type": "Feature", "properties": {}}, {"onestopId": "s-9q9kknmrgk-white~marten", "name": "WHITE & MARTEN", "tags": {}, "geometry": {"type": "Point", "coordinates": [-121.809051054, 37.345257345]}, "servedBy": ["o-9q9-vta"], "identifiers": [{"identifier": "f-vta-s-3596", "tags": {"stop_lat": "37.345257345", "zone_id": "1", "stop_lon": "-121.80905105399999", "stop_id": "3596", "stop_desc": "", "stop_name": "WHITE & MARTEN"}}], "type": "Feature", "properties": {}}, {"onestopId": "s-9q9kkbyshp-ruby~evergreenvillagesquare", "name": "RUBY & EVERGREEN VILLAGE SQUARE", "tags": {}, "geometry": {"type": "Point", "coordinates": [-121.774343419, 37.314416228]}, "servedBy": ["o-9q9-vta"], "identifiers": [{"identifier": "f-vta-s-5536", "tags": {"stop_lat": "37.314416227999999", "zone_id": "1", "stop_lon": "-121.774343419", "stop_id": "5536", "stop_desc": "", "stop_name": "RUBY & EVERGREEN VILLAGE SQUARE"}}], "type": "Feature", "properties": {}}, {"onestopId": "s-9q9kkbxd5n-ruby~cortana", "name": "RUBY & CORTANA", "tags": {}, "geometry": {"type": "Point", "coordinates": [-121.773009, 37.312693]}, "servedBy": ["o-9q9-vta"], "identifiers": [{"identifier": "f-vta-s-5738", "tags": {"stop_lat": "37.312693000000003", "zone_id": "1", "stop_lon": "-121.773009", "stop_id": "5738", "stop_desc": "", "stop_name": "RUBY & CORTANA"}}], "type": "Feature", "properties": {}}, {"onestopId": "s-9q9kkfc1pe-quimby~ruby", "name": "QUIMBY & RUBY", "tags": {}, "geometry": {"type": "Point", "coordinates": [-121.78175204, 37.32486851]}, "servedBy": ["o-9q9-vta"], "identifiers": [{"identifier": "f-vta-s-5056", "tags": {"stop_lat": "37.324868510000002", "zone_id": "1", "stop_lon": "-121.78175204", "stop_id": "5056", "stop_desc": "", "stop_name": "QUIMBY & RUBY"}}], "type": "Feature", "properties": {}}, {"onestopId": "s-9q9kk6uh3d-quimby~burdick", "name": "QUIMBY & BURDICK", "tags": {}, "geometry": {"type": "Point", "coordinates": [-121.799861658, 37.325420398]}, "servedBy": ["o-9q9-vta"], "identifiers": [{"identifier": "f-vta-s-1864", "tags": {"stop_lat": "37.325420397999999", "zone_id": "1", "stop_lon": "-121.799861658", "stop_id": "1864", "stop_desc": "", "stop_name": "QUIMBY & BURDICK"}}], "type": "Feature", "properties": {}}, {"onestopId": "s-9q9kk6v7kb-quimby~white", "name": "QUIMBY & WHITE", "tags": {}, "geometry": {"type": "Point", "coordinates": [-121.797996741, 37.32523805]}, "servedBy": ["o-9q9-vta"], "identifiers": [{"identifier": "f-vta-s-1226", "tags": {"stop_lat": "37.325238050000003", "zone_id": "1", "stop_lon": "-121.79799674100001", "stop_id": "1226", "stop_desc": "", "stop_name": "QUIMBY & WHITE"}}], "type": "Feature", "properties": {}}, {"onestopId": "s-9q9kkbx6yp-ruby~cortana", "name": "RUBY & CORTANA", "tags": {}, "geometry": {"type": "Point", "coordinates": [-121.773233, 37.312829]}, "servedBy": ["o-9q9-vta"], "identifiers": [{"identifier": "f-vta-s-5733", "tags": {"stop_lat": "37.312829000000001", "zone_id": "1", "stop_lon": "-121.773233", "stop_id": "5733", "stop_desc": "", "stop_name": "RUBY & CORTANA"}}], "type": "Feature", "properties": {}}, {"onestopId": "s-9q9kk02x2g-king~tustin", "name": "KING & TUSTIN", "tags": {}, "geometry": {"type": "Point", "coordinates": [-121.815680723, 37.312206017]}, "servedBy": ["o-9q9-vta"], "identifiers": [{"identifier": "f-vta-s-3900", "tags": {"stop_lat": "37.312206017000001", "zone_id": "1", "stop_lon": "-121.815680723", "stop_id": "3900", "stop_desc": "", "stop_name": "KING & TUSTIN"}}], "type": "Feature", "properties": {}}, {"onestopId": "s-9q9kk2s789-aborn~serpa", "name": "ABORN & SERPA", "tags": {}, "geometry": {"type": "Point", "coordinates": [-121.79955526, 37.31292676]}, "servedBy": ["o-9q9-vta"], "identifiers": [{"identifier": "f-vta-s-1260", "tags": {"stop_lat": "37.312926760000003", "zone_id": "1", "stop_lon": "-121.79955526000001", "stop_id": "1260", "stop_desc": "", "stop_name": "ABORN & SERPA"}}], "type": "Feature", "properties": {}}, {"onestopId": "s-9q9kk4xzzv-quimby~scottsdale", "name": "QUIMBY & SCOTTSDALE", "tags": {}, "geometry": {"type": "Point", "coordinates": [-121.805426097, 37.32466263]}, "servedBy": ["o-9q9-vta"], "identifiers": [{"identifier": "f-vta-s-1229", "tags": {"stop_lat": "37.324662629999999", "zone_id": "1", "stop_lon": "-121.80542609699999", "stop_id": "1229", "stop_desc": "", "stop_name": "QUIMBY & SCOTTSDALE"}}], "type": "Feature", "properties": {}}, {"onestopId": "s-9q9kk2wqr3-aborn~kettmann", "name": "ABORN & KETTMANN", "tags": {}, "geometry": {"type": "Point", "coordinates": [-121.796523202, 37.313395701]}, "servedBy": ["o-9q9-vta"], "identifiers": [{"identifier": "f-vta-s-1259", "tags": {"stop_lat": "37.313395700999997", "zone_id": "1", "stop_lon": "-121.796523202", "stop_id": "1259", "stop_desc": "", "stop_name": "ABORN & KETTMANN"}}], "type": "Feature", "properties": {}}, {"onestopId": "s-9q9kk6uj72-quimby~caraston", "name": "QUIMBY & CARASTON", "tags": {}, "geometry": {"type": "Point", "coordinates": [-121.799784483, 37.325579547]}, "servedBy": ["o-9q9-vta"], "identifiers": [{"identifier": "f-vta-s-1227", "tags": {"stop_lat": "37.325579546999997", "zone_id": "1", "stop_lon": "-121.799784483", "stop_id": "1227", "stop_desc": "", "stop_name": "QUIMBY & CARASTON"}}], "type": "Feature", "properties": {}}, {"onestopId": "s-9q9kkdy2e8-quimby~remington", "name": "QUIMBY & REMINGTON", "tags": {}, "geometry": {"type": "Point", "coordinates": [-121.78569675, 37.3247649]}, "servedBy": ["o-9q9-vta"], "identifiers": [{"identifier": "f-vta-s-1868", "tags": {"stop_lat": "37.324764899999998", "zone_id": "1", "stop_lon": "-121.78569675", "stop_id": "1868", "stop_desc": "", "stop_name": "QUIMBY & REMINGTON"}}], "type": "Feature", "properties": {}}, {"onestopId": "s-9q9kkjz8mu-white~cunningham", "name": "WHITE & CUNNINGHAM", "tags": {}, "geometry": {"type": "Point", "coordinates": [-121.805859387, 37.341223848]}, "servedBy": ["o-9q9-vta"], "identifiers": [{"identifier": "f-vta-s-3688", "tags": {"stop_lat": "37.341223847999998", "zone_id": "1", "stop_lon": "-121.805859387", "stop_id": "3688", "stop_desc": "", "stop_name": "WHITE & CUNNINGHAM"}}], "type": "Feature", "properties": {}}, {"onestopId": "s-9q9kknmc49-white~ocala", "name": "WHITE & OCALA", "tags": {}, "geometry": {"type": "Point", "coordinates": [-121.808402014, 37.3440843]}, "servedBy": ["o-9q9-vta"], "identifiers": [{"identifier": "f-vta-s-3687", "tags": {"stop_lat": "37.344084299999999", "zone_id": "1", "stop_lon": "-121.808402014", "stop_id": "3687", "stop_desc": "", "stop_name": "WHITE & OCALA"}}], "type": "Feature", "properties": {}}, {"onestopId": "s-9q9kk01xv2-king~vanport", "name": "KING & VANPORT", "tags": {}, "geometry": {"type": "Point", "coordinates": [-121.814115243, 37.31090465]}, "servedBy": ["o-9q9-vta"], "identifiers": [{"identifier": "f-vta-s-3899", "tags": {"stop_lat": "37.310904649999998", "zone_id": "1", "stop_lon": "-121.814115243", "stop_id": "3899", "stop_desc": "", "stop_name": "KING & VANPORT"}}], "type": "Feature", "properties": {}}, {"onestopId": "s-9q9kkfymhb-quimby~knickerson", "name": "QUIMBY & KNICKERSON", "tags": {}, "geometry": {"type": "Point", "coordinates": [-121.774656536, 37.325540016]}, "servedBy": ["o-9q9-vta"], "identifiers": [{"identifier": "f-vta-s-1856", "tags": {"stop_lat": "37.325540015999998", "zone_id": "1", "stop_lon": "-121.77465653599999", "stop_id": "1856", "stop_desc": "", "stop_name": "QUIMBY & KNICKERSON"}}], "type": "Feature", "properties": {}}, {"onestopId": "s-9q9kkfzh98-quimby~knickerson", "name": "QUIMBY & KNICKERSON", "tags": {}, "geometry": {"type": "Point", "coordinates": [-121.77376488, 37.32545165]}, "servedBy": ["o-9q9-vta"], "identifiers": [{"identifier": "f-vta-s-5038", "tags": {"stop_lat": "37.325451649999998", "zone_id": "1", "stop_lon": "-121.77376488", "stop_id": "5038", "stop_desc": "", "stop_name": "QUIMBY & KNICKERSON"}}], "type": "Feature", "properties": {}}, {"onestopId": "s-9q9kk5fbqb-capitol~tully", "name": "CAPITOL & TULLY", "tags": {}, "geometry": {"type": "Point", "coordinates": [-121.812331, 37.330214]}, "servedBy": ["o-9q9-vta"], "identifiers": [{"identifier": "f-vta-s-5707", "tags": {"stop_lat": "37.330213999999998", "zone_id": "1", "stop_lon": "-121.812331", "stop_id": "5707", "stop_desc": "", "stop_name": "CAPITOL & TULLY"}}], "type": "Feature", "properties": {}}, {"onestopId": "s-9q9kkfu7j9-quimby~arcade", "name": "QUIMBY & ARCADE", "tags": {}, "geometry": {"type": "Point", "coordinates": [-121.77737011, 37.32519763]}, "servedBy": ["o-9q9-vta"], "identifiers": [{"identifier": "f-vta-s-5057", "tags": {"stop_lat": "37.325197629999998", "zone_id": "1", "stop_lon": "-121.77737011000001", "stop_id": "5057", "stop_desc": "", "stop_name": "QUIMBY & ARCADE"}}], "type": "Feature", "properties": {}}, {"onestopId": "s-9q9kkdubmh-quimby~pitner", "name": "QUIMBY & PITNER", "tags": {}, "geometry": {"type": "Point", "coordinates": [-121.7876916, 37.32474419]}, "servedBy": ["o-9q9-vta"], "identifiers": [{"identifier": "f-vta-s-1867", "tags": {"stop_lat": "37.324744189999997", "zone_id": "1", "stop_lon": "-121.7876916", "stop_id": "1867", "stop_desc": "", "stop_name": "QUIMBY & PITNER"}}], "type": "Feature", "properties": {}}, {"onestopId": "s-9q9kkdc1pe-quimby~pendleton", "name": "QUIMBY & PENDLETON", "tags": {}, "geometry": {"type": "Point", "coordinates": [-121.792730736, 37.324868732]}, "servedBy": ["o-9q9-vta"], "identifiers": [{"identifier": "f-vta-s-1861", "tags": {"stop_lat": "37.324868731999999", "zone_id": "1", "stop_lon": "-121.792730736", "stop_id": "1861", "stop_desc": "", "stop_name": "QUIMBY & PENDLETON"}}], "type": "Feature", "properties": {}}, {"onestopId": "s-9q9kkjzs54-white~cunningham", "name": "WHITE & CUNNINGHAM", "tags": {}, "geometry": {"type": "Point", "coordinates": [-121.805976592, 37.341854166]}, "servedBy": ["o-9q9-vta"], "identifiers": [{"identifier": "f-vta-s-3595", "tags": {"stop_lat": "37.341854165999997", "zone_id": "1", "stop_lon": "-121.80597659199999", "stop_id": "3595", "stop_desc": "", "stop_name": "WHITE & CUNNINGHAM"}}], "type": "Feature", "properties": {}}]}