{"prefix": "9q9np", "type": "FeatureCollection", "properties": {}, "features": [{"onestopId": "s-9q9np0382r-mission~corrinegresel", "name": "Mission Blvd:Corrine St (Gresel St)", "tags": {}, "geometry": {"type": "Point", "coordinates": [-122.03406, 37.618645]}, "servedBy": ["o-9q9-actransit"], "identifiers": [{"identifier": "f-actransit-s-0803400", "tags": {"stop_lat": "37.618645", "stop_code": "53593", "stop_lon": "-122.034060", "parent_station": "", "stop_id": "0803400", "stop_name": "Mission Blvd:Corrine St (Gresel St)", "location_type": ""}}], "type": "Feature", "properties": {}}, {"onestopId": "s-9q9npj3xgs-dobbel~riggs", "name": "Dobbel Av:Riggs Ct", "tags": {}, "geometry": {"type": "Point", "coordinates": [-122.033913, 37.64738]}, "servedBy": ["o-9q9-actransit"], "identifiers": [{"identifier": "f-actransit-s-0801620", "tags": {"stop_lat": "37.647380", "stop_code": "56190", "stop_lon": "-122.033913", "parent_station": "", "stop_id": "0801620", "stop_name": "Dobbel Av:Riggs Ct", "location_type": ""}}], "type": "Feature", "properties": {}}, {"onestopId": "s-9q9npncq58-hayward~farmhill", "name": "Hayward Blvd:Farm Hill Dr", "tags": {}, "geometry": {"type": "Point", "coordinates": [-122.034256, 37.655297]}, "servedBy": ["o-9q9-actransit"], "identifiers": [{"identifier": "f-actransit-s-0802200", "tags": {"stop_lat": "37.655297", "stop_code": "50910", "stop_lon": "-122.034256", "parent_station": "", "stop_id": "0802200", "stop_name": "Hayward Blvd:Farm Hill Dr", "location_type": ""}}], "type": "Feature", "properties": {}}, {"onestopId": "s-9q9npj6tn1-skyline~eurekadobbel", "name": "Skyline Dr:Eureka Ct (Dobbel Av)", "tags": {}, "geometry": {"type": "Point", "coordinates": [-122.032439, 37.646894]}, "servedBy": ["o-9q9-actransit"], "identifiers": [{"identifier": "f-actransit-s-0804380", "tags": {"stop_lat": "37.646894", "stop_code": "58650", "stop_lon": "-122.032439", "parent_station": "", "stop_id": "0804380", "stop_name": "Skyline Dr:Eureka Ct (Dobbel Av)", "location_type": ""}}], "type": "Feature", "properties": {}}, {"onestopId": "s-9q9np01qx8-mission~gresel", "name": "Mission Blvd:Gresel St", "tags": {}, "geometry": {"type": "Point", "coordinates": [-122.034088, 37.618307]}, "servedBy": ["o-9q9-actransit"], "identifiers": [{"identifier": "f-actransit-s-0803470", "tags": {"stop_lat": "37.618307", "stop_code": "59598", "stop_lon": "-122.034088", "parent_station": "", "stop_id": "0803470", "stop_name": "Mission Blvd:Gresel St", "location_type": ""}}], "type": "Feature", "properties": {}}, {"onestopId": "s-9q9npj8n44-dobbel~farmhill", "name": "Dobbel Av:Farm Hill Dr", "tags": {}, "geometry": {"type": "Point", "coordinates": [-122.036046, 37.648442]}, "servedBy": ["o-9q9-actransit"], "identifiers": [{"identifier": "f-actransit-s-0801610", "tags": {"stop_lat": "37.648442", "stop_code": "55981", "stop_lon": "-122.036046", "parent_station": "", "stop_id": "0801610", "stop_name": "Dobbel Av:Farm Hill Dr", "location_type": ""}}], "type": "Feature", "properties": {}}, {"onestopId": "s-9q9npqv0t2-hayward~fairview", "name": "Hayward Blvd:Fairview Dr", "tags": {}, "geometry": {"type": "Point", "coordinates": [-122.018046, 37.654353]}, "servedBy": ["o-9q9-actransit"], "identifiers": [{"identifier": "f-actransit-s-0806110", "tags": {"stop_lat": "37.654353", "stop_code": "50527", "stop_lon": "-122.018046", "parent_station": "", "stop_id": "0806110", "stop_name": "Hayward Blvd:Fairview Dr", "location_type": ""}}], "type": "Feature", "properties": {}}, {"onestopId": "s-9q9npnnecv-skyline~3588", "name": "Skyline Dr:#3588", "tags": {}, "geometry": {"type": "Point", "coordinates": [-122.027126, 37.650821]}, "servedBy": ["o-9q9-actransit"], "identifiers": [{"identifier": "f-actransit-s-0804360", "tags": {"stop_lat": "37.650821", "stop_code": "57989", "stop_lon": "-122.027126", "parent_station": "", "stop_id": "0804360", "stop_name": "Skyline Dr:#3588", "location_type": ""}}], "type": "Feature", "properties": {}}, {"onestopId": "s-9q9npjug4c-skyline~fallbrook", "name": "Skyline Dr:Fallbrook Dr", "tags": {}, "geometry": {"type": "Point", "coordinates": [-122.029485, 37.649294]}, "servedBy": ["o-9q9-actransit"], "identifiers": [{"identifier": "f-actransit-s-0804390", "tags": {"stop_lat": "37.649294", "stop_code": "58223", "stop_lon": "-122.029485", "parent_station": "", "stop_id": "0804390", "stop_name": "Skyline Dr:Fallbrook Dr", "location_type": ""}}], "type": "Feature", "properties": {}}, {"onestopId": "s-9q9npnrx1g-skyline~elkgrove", "name": "Skyline Dr:Elkgrove Ct", "tags": {}, "geometry": {"type": "Point", "coordinates": [-122.025756, 37.652739]}, "servedBy": ["o-9q9-actransit"], "identifiers": [{"identifier": "f-actransit-s-0804370", "tags": {"stop_lat": "37.652739", "stop_code": "57833", "stop_lon": "-122.025756", "parent_station": "", "stop_id": "0804370", "stop_name": "Skyline Dr:Elkgrove Ct", "location_type": ""}}], "type": "Feature", "properties": {}}, {"onestopId": "s-9q9npnxqyt-hayward~skyline", "name": "Hayward Blvd:Skyline", "tags": {}, "geometry": {"type": "Point", "coordinates": [-122.02589, 37.654081]}, "servedBy": ["o-9q9-actransit"], "identifiers": [{"identifier": "f-actransit-s-0806030", "tags": {"stop_lat": "37.654081", "stop_code": "50172", "stop_lon": "-122.025890", "parent_station": "", "stop_id": "0806030", "stop_name": "Hayward Blvd:Skyline", "location_type": ""}}], "type": "Feature", "properties": {}}]}