{"prefix": "9q9nm", "type": "FeatureCollection", "properties": {}, "features": [{"onestopId": "s-9q9nmhm2gx-meekland~paseogrande", "name": "Meekland Av:Paseo Grande", "tags": {}, "geometry": {"type": "Point", "coordinates": [-122.116653, 37.68465]}, "servedBy": ["o-9q9-actransit"], "identifiers": [{"identifier": "f-actransit-s-9802130", "tags": {"stop_lat": "37.684650", "stop_code": "59011", "stop_lon": "-122.116653", "parent_station": "", "stop_id": "9802130", "stop_name": "Meekland Av:Paseo Grande", "location_type": ""}}], "type": "Feature", "properties": {}}, {"onestopId": "s-9q9nmqdwfj-164th~gordon", "name": "164th Av:Gordon Way", "tags": {}, "geometry": {"type": "Point", "coordinates": [-122.109517, 37.698026]}, "servedBy": ["o-9q9-actransit"], "identifiers": [{"identifier": "f-actransit-s-9800110", "tags": {"stop_lat": "37.698026", "stop_code": "55862", "stop_lon": "-122.109517", "parent_station": "", "stop_id": "9800110", "stop_name": "164th Av:Gordon Way", "location_type": ""}}], "type": "Feature", "properties": {}}, {"onestopId": "s-9q9nm80n97-santaclara~redbud", "name": "Santa Clara St:Redbud Ln", "tags": {}, "geometry": {"type": "Point", "coordinates": [-122.101989, 37.66227]}, "servedBy": ["o-9q9-actransit"], "identifiers": [{"identifier": "f-actransit-s-0804220", "tags": {"stop_lat": "37.662270", "stop_code": "58112", "stop_lon": "-122.101989", "parent_station": "", "stop_id": "0804220", "stop_name": "Santa Clara St:Redbud Ln", "location_type": ""}}], "type": "Feature", "properties": {}}, {"onestopId": "s-9q9nmfjysb-main~b", "name": "Main St:B St", "tags": {}, "geometry": {"type": "Point", "coordinates": [-122.082963, 37.673237]}, "servedBy": ["o-9q9-actransit"], "identifiers": [{"identifier": "f-actransit-s-9902540", "tags": {"stop_lat": "37.673237", "stop_code": "51207", "stop_lon": "-122.082963", "parent_station": "", "stop_id": "9902540", "stop_name": "Main St:B St", "location_type": ""}}], "type": "Feature", "properties": {}}, {"onestopId": "s-9q9nmnpt09-e14th~164th", "name": "E 14th St:164th Av", "tags": {}, "geometry": {"type": "Point", "coordinates": [-122.113701, 37.694956]}, "servedBy": ["o-9q9-actransit"], "identifiers": [{"identifier": "f-actransit-s-9800890", "tags": {"stop_lat": "37.694956", "stop_code": "58818", "stop_lon": "-122.113701", "parent_station": "", "stop_id": "9800890", "stop_name": "E 14th St:164th Av", "location_type": ""}}], "type": "Feature", "properties": {}}, {"onestopId": "s-9q9nm7jfep-blossom~haviland", "name": "Blossom Way:Haviland Av", "tags": {}, "geometry": {"type": "Point", "coordinates": [-122.105002, 37.678083]}, "servedBy": ["o-9q9-actransit"], "identifiers": [{"identifier": "f-actransit-s-9804620", "tags": {"stop_lat": "37.678083", "stop_code": "50664", "stop_lon": "-122.105002", "parent_station": "", "stop_id": "9804620", "stop_name": "Blossom Way:Haviland Av", "location_type": ""}}], "type": "Feature", "properties": {}}, {"onestopId": "s-9q9nmtxsf9-john~castrovalley", "name": "John Dr:Castro Valley Blvd", "tags": {}, "geometry": {"type": "Point", "coordinates": [-122.091635, 37.692167]}, "servedBy": ["o-9q9-actransit"], "identifiers": [{"identifier": "f-actransit-s-9801780", "tags": {"stop_lat": "37.692167", "stop_code": "53983", "stop_lon": "-122.091635", "parent_station": "", "stop_id": "9801780", "stop_name": "John Dr:Castro Valley Blvd", "location_type": ""}}], "type": "Feature", "properties": {}}, {"onestopId": "s-9q9nmbd2hn-d~meek", "name": "D St:Meek Av", "tags": {}, "geometry": {"type": "Point", "coordinates": [-122.087796, 37.663914]}, "servedBy": ["o-9q9-actransit"], "identifiers": [{"identifier": "f-actransit-s-0801420", "tags": {"stop_lat": "37.663914", "stop_code": "51722", "stop_lon": "-122.087796", "parent_station": "", "stop_id": "0801420", "stop_name": "D St:Meek Av", "location_type": ""}}], "type": "Feature", "properties": {}}, {"onestopId": "s-9q9nmy5d82-castrovalley~lakechabot", "name": "Castro Valley Blvd:Lake Chabot Rd", "tags": {}, "geometry": {"type": "Point", "coordinates": [-122.086242, 37.694523]}, "servedBy": ["o-9q9-actransit"], "identifiers": [{"identifier": "f-actransit-s-9800440", "tags": {"stop_lat": "37.694523", "stop_code": "56628", "stop_lon": "-122.086242", "parent_station": "", "stop_id": "9800440", "stop_name": "Castro Valley Blvd:Lake Chabot Rd", "location_type": ""}}], "type": "Feature", "properties": {}}, {"onestopId": "s-9q9nmxdwzc-miramar~stanton", "name": "Miramar Av:Stanton Av", "tags": {}, "geometry": {"type": "Point", "coordinates": [-122.098281, 37.7035]}, "servedBy": ["o-9q9-actransit"], "identifiers": [{"identifier": "f-actransit-s-9802200", "tags": {"stop_lat": "37.703500", "stop_code": "54569", "stop_lon": "-122.098281", "parent_station": "", "stop_id": "9802200", "stop_name": "Miramar Av:Stanton Av", "location_type": ""}}], "type": "Feature", "properties": {}}, {"onestopId": "s-9q9nmcvbnv-mission~c", "name": "Mission Blvd:C St", "tags": {}, "geometry": {"type": "Point", "coordinates": [-122.082872, 37.670777]}, "servedBy": ["o-9q9-actransit"], "identifiers": [{"identifier": "f-actransit-s-9902500", "tags": {"stop_lat": "37.670777", "stop_code": "51098", "stop_lon": "-122.082872", "parent_station": "", "stop_id": "9902500", "stop_name": "Mission Blvd:C St", "location_type": ""}}], "type": "Feature", "properties": {}}, {"onestopId": "s-9q9nmp7eu9-159th~mateo", "name": "159th Av:Mateo St", "tags": {}, "geometry": {"type": "Point", "coordinates": [-122.119021, 37.701611]}, "servedBy": ["o-9q9-actransit"], "identifiers": [{"identifier": "f-actransit-s-9800080", "tags": {"stop_lat": "37.701611", "stop_code": "52262", "stop_lon": "-122.119021", "parent_station": "", "stop_id": "9800080", "stop_name": "159th Av:Mateo St", "location_type": ""}}], "type": "Feature", "properties": {}}, {"onestopId": "s-9q9nmcdvbe-haywardbartstation", "name": "Hayward BART Station", "tags": {}, "geometry": {"type": "Point", "coordinates": [-122.087257, 37.670376]}, "servedBy": ["o-9q9-actransit"], "identifiers": [{"identifier": "f-actransit-s-0805720", "tags": {"stop_lat": "37.670376", "stop_code": "50800", "stop_lon": "-122.087257", "parent_station": "place_HBBA", "stop_id": "0805720", "stop_name": "Hayward BART Station", "location_type": ""}}], "type": "Feature", "properties": {}}, {"onestopId": "s-9q9nms52dt-mission~cherry", "name": "Mission Blvd:Cherry Way", "tags": {}, "geometry": {"type": "Point", "coordinates": [-122.097476, 37.683221]}, "servedBy": ["o-9q9-actransit"], "identifiers": [{"identifier": "f-actransit-s-9802240", "tags": {"stop_lat": "37.683221", "stop_code": "51332", "stop_lon": "-122.097476", "parent_station": "", "stop_id": "9802240", "stop_name": "Mission Blvd:Cherry Way", "location_type": ""}}], "type": "Feature", "properties": {}}, {"onestopId": "s-9q9nmj7dr4-ashland~galway", "name": "Ashland Av:Galway Dr", "tags": {}, "geometry": {"type": "Point", "coordinates": [-122.118908, 37.690371]}, "servedBy": ["o-9q9-actransit"], "identifiers": [{"identifier": "f-actransit-s-9800200", "tags": {"stop_lat": "37.690371", "stop_code": "55846", "stop_lon": "-122.118908", "parent_station": "", "stop_id": "9800200", "stop_name": "Ashland Av:Galway Dr", "location_type": ""}}], "type": "Feature", "properties": {}}, {"onestopId": "s-9q9nmxpmyb-somerset~stanton", "name": "Somerset Av:Stanton Av", "tags": {}, "geometry": {"type": "Point", "coordinates": [-122.091796, 37.700573]}, "servedBy": ["o-9q9-actransit"], "identifiers": [{"identifier": "f-actransit-s-9803060", "tags": {"stop_lat": "37.700573", "stop_code": "57794", "stop_lon": "-122.091796", "parent_station": "", "stop_id": "9803060", "stop_name": "Somerset Av:Stanton Av", "location_type": ""}}], "type": "Feature", "properties": {}}, {"onestopId": "s-9q9nmu3g8b-grove~gary", "name": "Grove Way:Gary Dr", "tags": {}, "geometry": {"type": "Point", "coordinates": [-122.088627, 37.685083]}, "servedBy": ["o-9q9-actransit"], "identifiers": [{"identifier": "f-actransit-s-9801500", "tags": {"stop_lat": "37.685083", "stop_code": "52771", "stop_lon": "-122.088627", "parent_station": "", "stop_id": "9801500", "stop_name": "Grove Way:Gary Dr", "location_type": ""}}], "type": "Feature", "properties": {}}, {"onestopId": "s-9q9nm9k37x-a~filbert", "name": "A St:Filbert St", "tags": {}, "geometry": {"type": "Point", "coordinates": [-122.096062, 37.668255]}, "servedBy": ["o-9q9-actransit"], "identifiers": [{"identifier": "f-actransit-s-0800180", "tags": {"stop_lat": "37.668255", "stop_code": "56526", "stop_lon": "-122.096062", "parent_station": "", "stop_id": "0800180", "stop_name": "A St:Filbert St", "location_type": ""}}], "type": "Feature", "properties": {}}, {"onestopId": "s-9q9nmce3q8-haywardbartstation", "name": "Hayward BART Station", "tags": {}, "geometry": {"type": "Point", "coordinates": [-122.086314, 37.669589]}, "servedBy": ["o-9q9-actransit"], "identifiers": [{"identifier": "f-actransit-s-0802150", "tags": {"stop_lat": "37.669589", "stop_code": "55055", "stop_lon": "-122.086314", "parent_station": "place_HBBA", "stop_id": "0802150", "stop_name": "Hayward BART Station", "location_type": ""}}], "type": "Feature", "properties": {}}, {"onestopId": "s-9q9nmpvjqd-159th~liberty", "name": "159th Av:Liberty St", "tags": {}, "geometry": {"type": "Point", "coordinates": [-122.116869, 37.704617]}, "servedBy": ["o-9q9-actransit"], "identifiers": [{"identifier": "f-actransit-s-9800060", "tags": {"stop_lat": "37.704617", "stop_code": "56363", "stop_lon": "-122.116869", "parent_station": "", "stop_id": "9800060", "stop_name": "159th Av:Liberty St", "location_type": ""}}], "type": "Feature", "properties": {}}, {"onestopId": "s-9q9nmvc99q-castrovalley~stanton", "name": "Castro Valley Blvd:Stanton Av", "tags": {}, "geometry": {"type": "Point", "coordinates": [-122.088948, 37.69301]}, "servedBy": ["o-9q9-actransit"], "identifiers": [{"identifier": "f-actransit-s-9800540", "tags": {"stop_lat": "37.693010", "stop_code": "50779", "stop_lon": "-122.088948", "parent_station": "", "stop_id": "9800540", "stop_name": "Castro Valley Blvd:Stanton Av", "location_type": ""}}], "type": "Feature", "properties": {}}, {"onestopId": "s-9q9nmqqcf6-foothill~167th", "name": "Foothill Blvd:167th Av", "tags": {}, "geometry": {"type": "Point", "coordinates": [-122.103668, 37.69578]}, "servedBy": ["o-9q9-actransit"], "identifiers": [{"identifier": "f-actransit-s-9801250", "tags": {"stop_lat": "37.695780", "stop_code": "56878", "stop_lon": "-122.103668", "parent_station": "", "stop_id": "9801250", "stop_name": "Foothill Blvd:167th Av", "location_type": ""}}], "type": "Feature", "properties": {}}, {"onestopId": "s-9q9nm4dunc-hacienda~bengal", "name": "Hacienda Av:Bengal Av", "tags": {}, "geometry": {"type": "Point", "coordinates": [-122.119953, 37.675559]}, "servedBy": ["o-9q9-actransit"], "identifiers": [{"identifier": "f-actransit-s-9801590", "tags": {"stop_lat": "37.675559", "stop_code": "50987", "stop_lon": "-122.119953", "parent_station": "", "stop_id": "9801590", "stop_name": "Hacienda Av:Bengal Av", "location_type": ""}}], "type": "Feature", "properties": {}}, {"onestopId": "s-9q9nmb450w-wwinton~park", "name": "W Winton Av:Park St", "tags": {}, "geometry": {"type": "Point", "coordinates": [-122.088291, 37.661681]}, "servedBy": ["o-9q9-actransit"], "identifiers": [{"identifier": "f-actransit-s-0805210", "tags": {"stop_lat": "37.661681", "stop_code": "56635", "stop_lon": "-122.088291", "parent_station": "", "stop_id": "0805210", "stop_name": "W Winton Av:Park St", "location_type": ""}}], "type": "Feature", "properties": {}}, {"onestopId": "s-9q9nmkytc2-mission~elewelling", "name": "Mission Blvd:E Lewelling Blvd", "tags": {}, "geometry": {"type": "Point", "coordinates": [-122.104055, 37.688213]}, "servedBy": ["o-9q9-actransit"], "identifiers": [{"identifier": "f-actransit-s-9802250", "tags": {"stop_lat": "37.688213", "stop_code": "58785", "stop_lon": "-122.104055", "parent_station": "", "stop_id": "9802250", "stop_name": "Mission Blvd:E Lewelling Blvd", "location_type": ""}}], "type": "Feature", "properties": {}}, {"onestopId": "s-9q9nmr6p9g-foothill~carolyn", "name": "Foothill Blvd:Carolyn St", "tags": {}, "geometry": {"type": "Point", "coordinates": [-122.110206, 37.702267]}, "servedBy": ["o-9q9-actransit"], "identifiers": [{"identifier": "f-actransit-s-9801310", "tags": {"stop_lat": "37.702267", "stop_code": "54350", "stop_lon": "-122.110206", "parent_station": "", "stop_id": "9801310", "stop_name": "Foothill Blvd:Carolyn St", "location_type": ""}}], "type": "Feature", "properties": {}}, {"onestopId": "s-9q9nmbpjmw-silva~thomas", "name": "Silva Av:Thomas Av", "tags": {}, "geometry": {"type": "Point", "coordinates": [-122.081211, 37.66207]}, "servedBy": ["o-9q9-actransit"], "identifiers": [{"identifier": "f-actransit-s-0804350", "tags": {"stop_lat": "37.662070", "stop_code": "50210", "stop_lon": "-122.081211", "parent_station": "", "stop_id": "0804350", "stop_name": "Silva Av:Thomas Av", "location_type": ""}}], "type": "Feature", "properties": {}}, {"onestopId": "s-9q9nmrkf9m-miramar~saratoga", "name": "Miramar Av:Saratoga St", "tags": {}, "geometry": {"type": "Point", "coordinates": [-122.10645, 37.701418]}, "servedBy": ["o-9q9-actransit"], "identifiers": [{"identifier": "f-actransit-s-9802190", "tags": {"stop_lat": "37.701418", "stop_code": "57714", "stop_lon": "-122.106450", "parent_station": "", "stop_id": "9802190", "stop_name": "Miramar Av:Saratoga St", "location_type": ""}}], "type": "Feature", "properties": {}}, {"onestopId": "s-9q9nmnq3gt-e14th~163rd", "name": "E 14th St:163rd Av", "tags": {}, "geometry": {"type": "Point", "coordinates": [-122.11529, 37.695795]}, "servedBy": ["o-9q9-actransit"], "identifiers": [{"identifier": "f-actransit-s-9800860", "tags": {"stop_lat": "37.695795", "stop_code": "51778", "stop_lon": "-122.115290", "parent_station": "", "stop_id": "9800860", "stop_name": "E 14th St:163rd Av", "location_type": ""}}], "type": "Feature", "properties": {}}, {"onestopId": "s-9q9nmtqpvy-foothill~john", "name": "Foothill Blvd:John Dr", "tags": {}, "geometry": {"type": "Point", "coordinates": [-122.09356, 37.691336]}, "servedBy": ["o-9q9-actransit"], "identifiers": [{"identifier": "f-actransit-s-9801810", "tags": {"stop_lat": "37.691336", "stop_code": "53220", "stop_lon": "-122.093560", "parent_station": "", "stop_id": "9801810", "stop_name": "Foothill Blvd:John Dr", "location_type": ""}}], "type": "Feature", "properties": {}}, {"onestopId": "s-9q9nmfr445-b~foothill", "name": "B St:Foothill Blvd", "tags": {}, "geometry": {"type": "Point", "coordinates": [-122.081357, 37.673857]}, "servedBy": ["o-9q9-actransit"], "identifiers": [{"identifier": "f-actransit-s-0800530", "tags": {"stop_lat": "37.673857", "stop_code": "51513", "stop_lon": "-122.081357", "parent_station": "", "stop_id": "0800530", "stop_name": "B St:Foothill Blvd", "location_type": ""}}], "type": "Feature", "properties": {}}, {"onestopId": "s-9q9nm0u7rt-wa~hesperian", "name": "W A St:Hesperian Blvd", "tags": {}, "geometry": {"type": "Point", "coordinates": [-122.117863, 37.665842]}, "servedBy": ["o-9q9-actransit"], "identifiers": [{"identifier": "f-actransit-s-9803230", "tags": {"stop_lat": "37.665842", "stop_code": "57709", "stop_lon": "-122.117863", "parent_station": "", "stop_id": "9803230", "stop_name": "W A St:Hesperian Blvd", "location_type": ""}}], "type": "Feature", "properties": {}}, {"onestopId": "s-9q9nm5cvs6-paseogrande~viatoledo", "name": "Paseo Grande:Via Toledo", "tags": {}, "geometry": {"type": "Point", "coordinates": [-122.121433, 37.682692]}, "servedBy": ["o-9q9-actransit"], "identifiers": [{"identifier": "f-actransit-s-9802570", "tags": {"stop_lat": "37.682692", "stop_code": "54235", "stop_lon": "-122.121433", "parent_station": "", "stop_id": "9802570", "stop_name": "Paseo Grande:Via Toledo", "location_type": ""}}], "type": "Feature", "properties": {}}, {"onestopId": "s-9q9nm2cvyh-wa~garden", "name": "W A St:Garden Av", "tags": {}, "geometry": {"type": "Point", "coordinates": [-122.110372, 37.666265]}, "servedBy": ["o-9q9-actransit"], "identifiers": [{"identifier": "f-actransit-s-9803220", "tags": {"stop_lat": "37.666265", "stop_code": "54699", "stop_lon": "-122.110372", "parent_station": "", "stop_id": "9803220", "stop_name": "W A St:Garden Av", "location_type": ""}}], "type": "Feature", "properties": {}}, {"onestopId": "s-9q9nmpvh4n-159th~liberty", "name": "159th Av:Liberty St", "tags": {}, "geometry": {"type": "Point", "coordinates": [-122.117061, 37.704424]}, "servedBy": ["o-9q9-actransit"], "identifiers": [{"identifier": "f-actransit-s-9800050", "tags": {"stop_lat": "37.704424", "stop_code": "52526", "stop_lon": "-122.117061", "parent_station": "", "stop_id": "9800050", "stop_name": "159th Av:Liberty St", "location_type": ""}}], "type": "Feature", "properties": {}}, {"onestopId": "s-9q9nmfrkgr-foothill~b", "name": "Foothill Blvd:B St", "tags": {}, "geometry": {"type": "Point", "coordinates": [-122.080967, 37.674349]}, "servedBy": ["o-9q9-actransit"], "identifiers": [{"identifier": "f-actransit-s-0801830", "tags": {"stop_lat": "37.674349", "stop_code": "51210", "stop_lon": "-122.080967", "parent_station": "", "stop_id": "0801830", "stop_name": "Foothill Blvd:B St", "location_type": ""}}], "type": "Feature", "properties": {}}, {"onestopId": "s-9q9nmzms52-somerset~anita", "name": "Somerset Av:Anita Av", "tags": {}, "geometry": {"type": "Point", "coordinates": [-122.083365, 37.701646]}, "servedBy": ["o-9q9-actransit"], "identifiers": [{"identifier": "f-actransit-s-9802970", "tags": {"stop_lat": "37.701646", "stop_code": "54503", "stop_lon": "-122.083365", "parent_station": "", "stop_id": "9802970", "stop_name": "Somerset Av:Anita Av", "location_type": ""}}], "type": "Feature", "properties": {}}, {"onestopId": "s-9q9nmr71mf-foothill~miramar", "name": "Foothill Blvd:Miramar Av", "tags": {}, "geometry": {"type": "Point", "coordinates": [-122.108666, 37.701184]}, "servedBy": ["o-9q9-actransit"], "identifiers": [{"identifier": "f-actransit-s-9801410", "tags": {"stop_lat": "37.701184", "stop_code": "56638", "stop_lon": "-122.108666", "parent_station": "", "stop_id": "9801410", "stop_name": "Foothill Blvd:Miramar Av", "location_type": ""}}], "type": "Feature", "properties": {}}, {"onestopId": "s-9q9nmunrj3-grove~tanglewood", "name": "Grove Way:Tanglewood Dr", "tags": {}, "geometry": {"type": "Point", "coordinates": [-122.082247, 37.684313]}, "servedBy": ["o-9q9-actransit"], "identifiers": [{"identifier": "f-actransit-s-9801580", "tags": {"stop_lat": "37.684313", "stop_code": "53258", "stop_lon": "-122.082247", "parent_station": "", "stop_id": "9801580", "stop_name": "Grove Way:Tanglewood Dr", "location_type": ""}}], "type": "Feature", "properties": {}}, {"onestopId": "s-9q9nmu7x36-grove~gail", "name": "Grove Way:Gail Dr", "tags": {}, "geometry": {"type": "Point", "coordinates": [-122.086201, 37.685735]}, "servedBy": ["o-9q9-actransit"], "identifiers": [{"identifier": "f-actransit-s-9801480", "tags": {"stop_lat": "37.685735", "stop_code": "51214", "stop_lon": "-122.086201", "parent_station": "", "stop_id": "9801480", "stop_name": "Grove Way:Gail Dr", "location_type": ""}}], "type": "Feature", "properties": {}}, {"onestopId": "s-9q9nmcuz52-b~mission", "name": "B St:Mission Blvd", "tags": {}, "geometry": {"type": "Point", "coordinates": [-122.084393, 37.67195]}, "servedBy": ["o-9q9-actransit"], "identifiers": [{"identifier": "f-actransit-s-0800580", "tags": {"stop_lat": "37.671950", "stop_code": "55325", "stop_lon": "-122.084393", "parent_station": "", "stop_id": "0800580", "stop_name": "B St:Mission Blvd", "location_type": ""}}], "type": "Feature", "properties": {}}, {"onestopId": "s-9q9nm4xjx9-hathaway~louette", "name": "Hathaway Av:Louette Ct", "tags": {}, "geometry": {"type": "Point", "coordinates": [-122.114088, 37.675818]}, "servedBy": ["o-9q9-actransit"], "identifiers": [{"identifier": "f-actransit-s-9801640", "tags": {"stop_lat": "37.675818", "stop_code": "53283", "stop_lon": "-122.114088", "parent_station": "", "stop_id": "9801640", "stop_name": "Hathaway Av:Louette Ct", "location_type": ""}}], "type": "Feature", "properties": {}}, {"onestopId": "s-9q9nmcduhx-haywardbartstation", "name": "Hayward BART Station", "tags": {}, "geometry": {"type": "Point", "coordinates": [-122.087087, 37.670102]}, "servedBy": ["o-9q9-actransit"], "identifiers": [{"identifier": "f-actransit-s-0802030", "tags": {"stop_lat": "37.670102", "stop_code": "51588", "stop_lon": "-122.087087", "parent_station": "place_HBBA", "stop_id": "0802030", "stop_name": "Hayward BART Station", "location_type": ""}}], "type": "Feature", "properties": {}}, {"onestopId": "s-9q9nmmbgjz-e14th~165th", "name": "E 14th St:165th Av", "tags": {}, "geometry": {"type": "Point", "coordinates": [-122.111759, 37.693275]}, "servedBy": ["o-9q9-actransit"], "identifiers": [{"identifier": "f-actransit-s-9800900", "tags": {"stop_lat": "37.693275", "stop_code": "55851", "stop_lon": "-122.111759", "parent_station": "", "stop_id": "9800900", "stop_name": "E 14th St:165th Av", "location_type": ""}}], "type": "Feature", "properties": {}}, {"onestopId": "s-9q9nm9hs8j-b~filbert", "name": "B St:Filbert St", "tags": {}, "geometry": {"type": "Point", "coordinates": [-122.095865, 37.667426]}, "servedBy": ["o-9q9-actransit"], "identifiers": [{"identifier": "f-actransit-s-9901730", "tags": {"stop_lat": "37.667426", "stop_code": "50871", "stop_lon": "-122.095865", "parent_station": "", "stop_id": "9901730", "stop_name": "B St:Filbert St", "location_type": ""}}], "type": "Feature", "properties": {}}, {"onestopId": "s-9q9nmz65u4-lakechabot~somerset", "name": "Lake Chabot Rd:Somerset Av", "tags": {}, "geometry": {"type": "Point", "coordinates": [-122.088141, 37.701613]}, "servedBy": ["o-9q9-actransit"], "identifiers": [{"identifier": "f-actransit-s-9801950", "tags": {"stop_lat": "37.701613", "stop_code": "53436", "stop_lon": "-122.088141", "parent_station": "", "stop_id": "9801950", "stop_name": "Lake Chabot Rd:Somerset Av", "location_type": ""}}], "type": "Feature", "properties": {}}, {"onestopId": "s-9q9nmnpvbc-164th~e14th", "name": "164th St:E 14th St", "tags": {}, "geometry": {"type": "Point", "coordinates": [-122.113341, 37.695088]}, "servedBy": ["o-9q9-actransit"], "identifiers": [{"identifier": "f-actransit-s-9800130", "tags": {"stop_lat": "37.695088", "stop_code": "55760", "stop_lon": "-122.113341", "parent_station": "", "stop_id": "9800130", "stop_name": "164th St:E 14th St", "location_type": ""}}], "type": "Feature", "properties": {}}, {"onestopId": "s-9q9nmfvvhf-foothill~citysouthjctn", "name": "Foothill Blvd:City Center Dr (South Jctn)", "tags": {}, "geometry": {"type": "Point", "coordinates": [-122.082964, 37.677112]}, "servedBy": ["o-9q9-actransit"], "identifiers": [{"identifier": "f-actransit-s-0801850", "tags": {"stop_lat": "37.677112", "stop_code": "56290", "stop_lon": "-122.082964", "parent_station": "", "stop_id": "0801850", "stop_name": "Foothill Blvd:City Center Dr (South Jctn)", "location_type": ""}}], "type": "Feature", "properties": {}}, {"onestopId": "s-9q9nmmdnep-e14th~167th", "name": "E 14th St:167th Av", "tags": {}, "geometry": {"type": "Point", "coordinates": [-122.110157, 37.692501]}, "servedBy": ["o-9q9-actransit"], "identifiers": [{"identifier": "f-actransit-s-9800920", "tags": {"stop_lat": "37.692501", "stop_code": "50770", "stop_lon": "-122.110157", "parent_station": "", "stop_id": "9800920", "stop_name": "E 14th St:167th Av", "location_type": ""}}], "type": "Feature", "properties": {}}, {"onestopId": "s-9q9nmcduz9-haywardbartstation", "name": "Hayward BART Station", "tags": {}, "geometry": {"type": "Point", "coordinates": [-122.086966, 37.670196]}, "servedBy": ["o-9q9-actransit"], "identifiers": [{"identifier": "f-actransit-s-0802100", "tags": {"stop_lat": "37.670196", "stop_code": "53330", "stop_lon": "-122.086966", "parent_station": "place_HBBA", "stop_id": "0802100", "stop_name": "Hayward BART Station", "location_type": ""}}], "type": "Feature", "properties": {}}, {"onestopId": "s-9q9nmbfx0m-d~grand", "name": "D St:Grand St", "tags": {}, "geometry": {"type": "Point", "coordinates": [-122.087612, 37.666483]}, "servedBy": ["o-9q9-actransit"], "identifiers": [{"identifier": "f-actransit-s-0801400", "tags": {"stop_lat": "37.666483", "stop_code": "55360", "stop_lon": "-122.087612", "parent_station": "", "stop_id": "0801400", "stop_name": "D St:Grand St", "location_type": ""}}], "type": "Feature", "properties": {}}, {"onestopId": "s-9q9nm92qbt-meekland~laurel", "name": "Meekland Av:Laurel Av", "tags": {}, "geometry": {"type": "Point", "coordinates": [-122.10168, 37.669185]}, "servedBy": ["o-9q9-actransit"], "identifiers": [{"identifier": "f-actransit-s-9802100", "tags": {"stop_lat": "37.669185", "stop_code": "57704", "stop_lon": "-122.101680", "parent_station": "", "stop_id": "9802100", "stop_name": "Meekland Av:Laurel Av", "location_type": ""}}], "type": "Feature", "properties": {}}, {"onestopId": "s-9q9nmg01pv-mission~sunset", "name": "Mission Blvd:Sunset Blvd", "tags": {}, "geometry": {"type": "Point", "coordinates": [-122.090728, 37.677816]}, "servedBy": ["o-9q9-actransit"], "identifiers": [{"identifier": "f-actransit-s-0803600", "tags": {"stop_lat": "37.677816", "stop_code": "52711", "stop_lon": "-122.090728", "parent_station": "", "stop_id": "0803600", "stop_name": "Mission Blvd:Sunset Blvd", "location_type": ""}}], "type": "Feature", "properties": {}}, {"onestopId": "s-9q9nmu0c1j-foothill~grove", "name": "Foothill Blvd:Grove Way", "tags": {}, "geometry": {"type": "Point", "coordinates": [-122.089987, 37.683307]}, "servedBy": ["o-9q9-actransit"], "identifiers": [{"identifier": "f-actransit-s-0801870", "tags": {"stop_lat": "37.683307", "stop_code": "56535", "stop_lon": "-122.089987", "parent_station": "", "stop_id": "0801870", "stop_name": "Foothill Blvd:Grove Way", "location_type": ""}}], "type": "Feature", "properties": {}}, {"onestopId": "s-9q9nm3ykd9-meekland~sunset", "name": "Meekland Av:Sunset Blvd", "tags": {}, "geometry": {"type": "Point", "coordinates": [-122.104342, 37.671527]}, "servedBy": ["o-9q9-actransit"], "identifiers": [{"identifier": "f-actransit-s-9802150", "tags": {"stop_lat": "37.671527", "stop_code": "55470", "stop_lon": "-122.104342", "parent_station": "", "stop_id": "9802150", "stop_name": "Meekland Av:Sunset Blvd", "location_type": ""}}], "type": "Feature", "properties": {}}, {"onestopId": "s-9q9nmcbery-western~a", "name": "Western Av:A St", "tags": {}, "geometry": {"type": "Point", "coordinates": [-122.090037, 37.671336]}, "servedBy": ["o-9q9-actransit"], "identifiers": [{"identifier": "f-actransit-s-9804600", "tags": {"stop_lat": "37.671336", "stop_code": "57123", "stop_lon": "-122.090037", "parent_station": "", "stop_id": "9804600", "stop_name": "Western Av:A St", "location_type": ""}}], "type": "Feature", "properties": {}}, {"onestopId": "s-9q9nmckux6-d~atherton", "name": "D St:Atherton St", "tags": {}, "geometry": {"type": "Point", "coordinates": [-122.084227, 37.668784]}, "servedBy": ["o-9q9-actransit"], "identifiers": [{"identifier": "f-actransit-s-0801390", "tags": {"stop_lat": "37.668784", "stop_code": "50335", "stop_lon": "-122.084227", "parent_station": "", "stop_id": "0801390", "stop_name": "D St:Atherton St", "location_type": ""}}], "type": "Feature", "properties": {}}, {"onestopId": "s-9q9nms3f9t-mission~medford", "name": "Mission Blvd:Medford Av", "tags": {}, "geometry": {"type": "Point", "coordinates": [-122.099573, 37.684938]}, "servedBy": ["o-9q9-actransit"], "identifiers": [{"identifier": "f-actransit-s-9802290", "tags": {"stop_lat": "37.684938", "stop_code": "55244", "stop_lon": "-122.099573", "parent_station": "", "stop_id": "9802290", "stop_name": "Mission Blvd:Medford Av", "location_type": ""}}], "type": "Feature", "properties": {}}, {"onestopId": "s-9q9nmeu8cc-mission~blossom", "name": "Mission Blvd:Blossom Way", "tags": {}, "geometry": {"type": "Point", "coordinates": [-122.095786, 37.681871]}, "servedBy": ["o-9q9-actransit"], "identifiers": [{"identifier": "f-actransit-s-9802210", "tags": {"stop_lat": "37.681871", "stop_code": "58699", "stop_lon": "-122.095786", "parent_station": "", "stop_id": "9802210", "stop_name": "Mission Blvd:Blossom Way", "location_type": ""}}], "type": "Feature", "properties": {}}, {"onestopId": "s-9q9nm5cu27-paseogrande~viatoledo", "name": "Paseo Grande:Via Toledo", "tags": {}, "geometry": {"type": "Point", "coordinates": [-122.121604, 37.682481]}, "servedBy": ["o-9q9-actransit"], "identifiers": [{"identifier": "f-actransit-s-9802560", "tags": {"stop_lat": "37.682481", "stop_code": "58651", "stop_lon": "-122.121604", "parent_station": "", "stop_id": "9802560", "stop_name": "Paseo Grande:Via Toledo", "location_type": ""}}], "type": "Feature", "properties": {}}, {"onestopId": "s-9q9nmce2u2-haywardbartstation", "name": "Hayward BART Station", "tags": {}, "geometry": {"type": "Point", "coordinates": [-122.086414, 37.669503]}, "servedBy": ["o-9q9-actransit"], "identifiers": [{"identifier": "f-actransit-s-0802070", "tags": {"stop_lat": "37.669503", "stop_code": "55589", "stop_lon": "-122.086414", "parent_station": "place_HBBA", "stop_id": "0802070", "stop_name": "Hayward BART Station", "location_type": ""}}], "type": "Feature", "properties": {}}, {"onestopId": "s-9q9nmcubq3-watkins~c", "name": "Watkins St:C St", "tags": {}, "geometry": {"type": "Point", "coordinates": [-122.084265, 37.670797]}, "servedBy": ["o-9q9-actransit"], "identifiers": [{"identifier": "f-actransit-s-9902530", "tags": {"stop_lat": "37.670797", "stop_code": "51206", "stop_lon": "-122.084265", "parent_station": "", "stop_id": "9902530", "stop_name": "Watkins St:C St", "location_type": ""}}], "type": "Feature", "properties": {}}, {"onestopId": "s-9q9nmz6fpj-somerset~wisteria", "name": "Somerset Av:Wisteria St", "tags": {}, "geometry": {"type": "Point", "coordinates": [-122.086984, 37.70133]}, "servedBy": ["o-9q9-actransit"], "identifiers": [{"identifier": "f-actransit-s-9803070", "tags": {"stop_lat": "37.701330", "stop_code": "58002", "stop_lon": "-122.086984", "parent_station": "", "stop_id": "9803070", "stop_name": "Somerset Av:Wisteria St", "location_type": ""}}], "type": "Feature", "properties": {}}, {"onestopId": "s-9q9nmnpvmn-164th~e14th", "name": "164th Av:E 14th St", "tags": {}, "geometry": {"type": "Point", "coordinates": [-122.113165, 37.695027]}, "servedBy": ["o-9q9-actransit"], "identifiers": [{"identifier": "f-actransit-s-9800090", "tags": {"stop_lat": "37.695027", "stop_code": "55870", "stop_lon": "-122.113165", "parent_station": "", "stop_id": "9800090", "stop_name": "164th Av:E 14th St", "location_type": ""}}], "type": "Feature", "properties": {}}, {"onestopId": "s-9q9nm0jv0e-hesperian~sueirro", "name": "Hesperian Blvd:Sueirro St", "tags": {}, "geometry": {"type": "Point", "coordinates": [-122.116097, 37.662011]}, "servedBy": ["o-9q9-actransit"], "identifiers": [{"identifier": "f-actransit-s-0802450", "tags": {"stop_lat": "37.662011", "stop_code": "59766", "stop_lon": "-122.116097", "parent_station": "", "stop_id": "0802450", "stop_name": "Hesperian Blvd:Sueirro St", "location_type": ""}}], "type": "Feature", "properties": {}}, {"onestopId": "s-9q9nmzc2cr-lakechabot~barlow", "name": "Lake Chabot Rd:Barlow Dr", "tags": {}, "geometry": {"type": "Point", "coordinates": [-122.089294, 37.703873]}, "servedBy": ["o-9q9-actransit"], "identifiers": [{"identifier": "f-actransit-s-9804240", "tags": {"stop_lat": "37.703873", "stop_code": "50465", "stop_lon": "-122.089294", "parent_station": "", "stop_id": "9804240", "stop_name": "Lake Chabot Rd:Barlow Dr", "location_type": ""}}], "type": "Feature", "properties": {}}, {"onestopId": "s-9q9nm4xq56-hathaway~louette", "name": "Hathaway Av:Louette Ct", "tags": {}, "geometry": {"type": "Point", "coordinates": [-122.113924, 37.67591]}, "servedBy": ["o-9q9-actransit"], "identifiers": [{"identifier": "f-actransit-s-9801650", "tags": {"stop_lat": "37.675910", "stop_code": "53285", "stop_lon": "-122.113924", "parent_station": "", "stop_id": "9801650", "stop_name": "Hathaway Av:Louette Ct", "location_type": ""}}], "type": "Feature", "properties": {}}, {"onestopId": "s-9q9nmyhurt-castrovalley~baker", "name": "Castro Valley Blvd:Baker Rd", "tags": {}, "geometry": {"type": "Point", "coordinates": [-122.08421, 37.694852]}, "servedBy": ["o-9q9-actransit"], "identifiers": [{"identifier": "f-actransit-s-9800400", "tags": {"stop_lat": "37.694852", "stop_code": "59442", "stop_lon": "-122.084210", "parent_station": "", "stop_id": "9800400", "stop_name": "Castro Valley Blvd:Baker Rd", "location_type": ""}}], "type": "Feature", "properties": {}}, {"onestopId": "s-9q9nmbt6ws-meek~jackson", "name": "Meek Av:Jackson St", "tags": {}, "geometry": {"type": "Point", "coordinates": [-122.083575, 37.664333]}, "servedBy": ["o-9q9-actransit"], "identifiers": [{"identifier": "f-actransit-s-0803160", "tags": {"stop_lat": "37.664333", "stop_code": "56750", "stop_lon": "-122.083575", "parent_station": "", "stop_id": "0803160", "stop_name": "Meek Av:Jackson St", "location_type": ""}}], "type": "Feature", "properties": {}}, {"onestopId": "s-9q9nmx83ft-miramar~rolando", "name": "Miramar Av:Rolando Av", "tags": {}, "geometry": {"type": "Point", "coordinates": [-122.101596, 37.70266]}, "servedBy": ["o-9q9-actransit"], "identifiers": [{"identifier": "f-actransit-s-9802170", "tags": {"stop_lat": "37.702660", "stop_code": "51132", "stop_lon": "-122.101596", "parent_station": "", "stop_id": "9802170", "stop_name": "Miramar Av:Rolando Av", "location_type": ""}}], "type": "Feature", "properties": {}}, {"onestopId": "s-9q9nm15ff0-hesperian~wsunset", "name": "Hesperian Blvd:W Sunset Blvd", "tags": {}, "geometry": {"type": "Point", "coordinates": [-122.118778, 37.667103]}, "servedBy": ["o-9q9-actransit"], "identifiers": [{"identifier": "f-actransit-s-9801760", "tags": {"stop_lat": "37.667103", "stop_code": "57070", "stop_lon": "-122.118778", "parent_station": "", "stop_id": "9801760", "stop_name": "Hesperian Blvd:W Sunset Blvd", "location_type": ""}}], "type": "Feature", "properties": {}}, {"onestopId": "s-9q9nmcqbb0-watkins~jackson", "name": "Watkins St:Jackson St", "tags": {}, "geometry": {"type": "Point", "coordinates": [-122.081792, 37.66813]}, "servedBy": ["o-9q9-actransit"], "identifiers": [{"identifier": "f-actransit-s-9902520", "tags": {"stop_lat": "37.668130", "stop_code": "51204", "stop_lon": "-122.081792", "parent_station": "", "stop_id": "9902520", "stop_name": "Watkins St:Jackson St", "location_type": ""}}], "type": "Feature", "properties": {}}, {"onestopId": "s-9q9nmce642-haywardbartstation", "name": "Hayward BART Station", "tags": {}, "geometry": {"type": "Point", "coordinates": [-122.0865, 37.669718]}, "servedBy": ["o-9q9-actransit"], "identifiers": [{"identifier": "f-actransit-s-0802140", "tags": {"stop_lat": "37.669718", "stop_code": "50511", "stop_lon": "-122.086500", "parent_station": "place_HBBA", "stop_id": "0802140", "stop_name": "Hayward BART Station", "location_type": ""}}], "type": "Feature", "properties": {}}, {"onestopId": "s-9q9nm9xsjv-a~alice", "name": "A St:Alice St", "tags": {}, "geometry": {"type": "Point", "coordinates": [-122.091504, 37.670087]}, "servedBy": ["o-9q9-actransit"], "identifiers": [{"identifier": "f-actransit-s-0800160", "tags": {"stop_lat": "37.670087", "stop_code": "59560", "stop_lon": "-122.091504", "parent_station": "", "stop_id": "0800160", "stop_name": "A St:Alice St", "location_type": ""}}], "type": "Feature", "properties": {}}, {"onestopId": "s-9q9nmdg3hv-western~willow", "name": "Western Av:Willow Av", "tags": {}, "geometry": {"type": "Point", "coordinates": [-122.097378, 37.676441]}, "servedBy": ["o-9q9-actransit"], "identifiers": [{"identifier": "f-actransit-s-9804440", "tags": {"stop_lat": "37.676441", "stop_code": "53054", "stop_lon": "-122.097378", "parent_station": "", "stop_id": "9804440", "stop_name": "Western Av:Willow Av", "location_type": ""}}], "type": "Feature", "properties": {}}, {"onestopId": "s-9q9nmu3gk0-grove~gary", "name": "Grove Way:Gary Dr", "tags": {}, "geometry": {"type": "Point", "coordinates": [-122.088486, 37.685042]}, "servedBy": ["o-9q9-actransit"], "identifiers": [{"identifier": "f-actransit-s-9801510", "tags": {"stop_lat": "37.685042", "stop_code": "51430", "stop_lon": "-122.088486", "parent_station": "", "stop_id": "9801510", "stop_name": "Grove Way:Gary Dr", "location_type": ""}}], "type": "Feature", "properties": {}}, {"onestopId": "s-9q9nmuq21v-grove~tanglewood", "name": "Grove Way:Tanglewood Dr", "tags": {}, "geometry": {"type": "Point", "coordinates": [-122.082404, 37.68451]}, "servedBy": ["o-9q9-actransit"], "identifiers": [{"identifier": "f-actransit-s-9801570", "tags": {"stop_lat": "37.684510", "stop_code": "53218", "stop_lon": "-122.082404", "parent_station": "", "stop_id": "9801570", "stop_name": "Grove Way:Tanglewood Dr", "location_type": ""}}], "type": "Feature", "properties": {}}, {"onestopId": "s-9q9nmmbwr5-e14th~165th", "name": "E 14th St:165th Av", "tags": {}, "geometry": {"type": "Point", "coordinates": [-122.112044, 37.693811]}, "servedBy": ["o-9q9-actransit"], "identifiers": [{"identifier": "f-actransit-s-9800910", "tags": {"stop_lat": "37.693811", "stop_code": "58580", "stop_lon": "-122.112044", "parent_station": "", "stop_id": "9800910", "stop_name": "E 14th St:165th Av", "location_type": ""}}], "type": "Feature", "properties": {}}, {"onestopId": "s-9q9nme20yh-blossom~western", "name": "Blossom Way:Western Av", "tags": {}, "geometry": {"type": "Point", "coordinates": [-122.10179, 37.679137]}, "servedBy": ["o-9q9-actransit"], "identifiers": [{"identifier": "f-actransit-s-9804610", "tags": {"stop_lat": "37.679137", "stop_code": "50480", "stop_lon": "-122.101790", "parent_station": "", "stop_id": "9804610", "stop_name": "Blossom Way:Western Av", "location_type": ""}}], "type": "Feature", "properties": {}}, {"onestopId": "s-9q9nmz0npv-somerset~sprague", "name": "Somerset Av:Sprague Ct", "tags": {}, "geometry": {"type": "Point", "coordinates": [-122.090728, 37.700647]}, "servedBy": ["o-9q9-actransit"], "identifiers": [{"identifier": "f-actransit-s-9803050", "tags": {"stop_lat": "37.700647", "stop_code": "57749", "stop_lon": "-122.090728", "parent_station": "", "stop_id": "9803050", "stop_name": "Somerset Av:Sprague Ct", "location_type": ""}}], "type": "Feature", "properties": {}}, {"onestopId": "s-9q9nm2pzsr-santaclara~redbud", "name": "Santa Clara St:Redbud Ln", "tags": {}, "geometry": {"type": "Point", "coordinates": [-122.102206, 37.662461]}, "servedBy": ["o-9q9-actransit"], "identifiers": [{"identifier": "f-actransit-s-0804230", "tags": {"stop_lat": "37.662461", "stop_code": "51080", "stop_lon": "-122.102206", "parent_station": "", "stop_id": "0804230", "stop_name": "Santa Clara St:Redbud Ln", "location_type": ""}}], "type": "Feature", "properties": {}}, {"onestopId": "s-9q9nmp2p40-e14th~bayfair", "name": "E 14th St:Bayfair Dr", "tags": {}, "geometry": {"type": "Point", "coordinates": [-122.123931, 37.702164]}, "servedBy": ["o-9q9-actransit"], "identifiers": [{"identifier": "f-actransit-s-9800970", "tags": {"stop_lat": "37.702164", "stop_code": "56767", "stop_lon": "-122.123931", "parent_station": "", "stop_id": "9800970", "stop_name": "E 14th St:Bayfair Dr", "location_type": ""}}], "type": "Feature", "properties": {}}, {"onestopId": "s-9q9nm16ym5-hesperian~bartlett", "name": "Hesperian Blvd:Bartlett Av", "tags": {}, "geometry": {"type": "Point", "coordinates": [-122.120027, 37.669093]}, "servedBy": ["o-9q9-actransit"], "identifiers": [{"identifier": "f-actransit-s-9801660", "tags": {"stop_lat": "37.669093", "stop_code": "55224", "stop_lon": "-122.120027", "parent_station": "", "stop_id": "9801660", "stop_name": "Hesperian Blvd:Bartlett Av", "location_type": ""}}], "type": "Feature", "properties": {}}, {"onestopId": "s-9q9nmcr97s-mission~jackson", "name": "Mission Blvd:Jackson St", "tags": {}, "geometry": {"type": "Point", "coordinates": [-122.080609, 37.66824]}, "servedBy": ["o-9q9-actransit"], "identifiers": [{"identifier": "f-actransit-s-0803530", "tags": {"stop_lat": "37.668240", "stop_code": "52188", "stop_lon": "-122.080609", "parent_station": "", "stop_id": "0803530", "stop_name": "Mission Blvd:Jackson St", "location_type": ""}}], "type": "Feature", "properties": {}}, {"onestopId": "s-9q9nmmd6z2-e14th~elgin", "name": "E 14th St:Elgin St", "tags": {}, "geometry": {"type": "Point", "coordinates": [-122.109636, 37.691818]}, "servedBy": ["o-9q9-actransit"], "identifiers": [{"identifier": "f-actransit-s-9800980", "tags": {"stop_lat": "37.691818", "stop_code": "50525", "stop_lon": "-122.109636", "parent_station": "", "stop_id": "9800980", "stop_name": "E 14th St:Elgin St", "location_type": ""}}], "type": "Feature", "properties": {}}, {"onestopId": "s-9q9nmc7x7x-haywardbartstation", "name": "Hayward BART Station", "tags": {}, "geometry": {"type": "Point", "coordinates": [-122.086098, 37.669284]}, "servedBy": ["o-9q9-actransit"], "identifiers": [{"identifier": "f-actransit-s-0802090", "tags": {"stop_lat": "37.669284", "stop_code": "55665", "stop_lon": "-122.086098", "parent_station": "place_HBBA", "stop_id": "0802090", "stop_name": "Hayward BART Station", "location_type": ""}}], "type": "Feature", "properties": {}}, {"onestopId": "s-9q9nmq92k7-164th~helo", "name": "164th St:Helo Dr", "tags": {}, "geometry": {"type": "Point", "coordinates": [-122.111135, 37.696899]}, "servedBy": ["o-9q9-actransit"], "identifiers": [{"identifier": "f-actransit-s-9800160", "tags": {"stop_lat": "37.696899", "stop_code": "59565", "stop_lon": "-122.111135", "parent_station": "", "stop_id": "9800160", "stop_name": "164th St:Helo Dr", "location_type": ""}}], "type": "Feature", "properties": {}}, {"onestopId": "s-9q9nmngdsb-e14th~ashland", "name": "E 14th St:Ashland Av", "tags": {}, "geometry": {"type": "Point", "coordinates": [-122.119007, 37.698644]}, "servedBy": ["o-9q9-actransit"], "identifiers": [{"identifier": "f-actransit-s-1504170", "tags": {"stop_lat": "37.698644", "stop_code": "55638", "stop_lon": "-122.119007", "parent_station": "", "stop_id": "1504170", "stop_name": "E 14th St:Ashland Av", "location_type": ""}}], "type": "Feature", "properties": {}}, {"onestopId": "s-9q9nmp45bx-e14th~159th", "name": "E 14th St:159th Av", "tags": {}, "geometry": {"type": "Point", "coordinates": [-122.12125, 37.700267]}, "servedBy": ["o-9q9-actransit"], "identifiers": [{"identifier": "f-actransit-s-9901920", "tags": {"stop_lat": "37.700267", "stop_code": "50919", "stop_lon": "-122.121250", "parent_station": "", "stop_id": "9901920", "stop_name": "E 14th St:159th Av", "location_type": ""}}], "type": "Feature", "properties": {}}, {"onestopId": "s-9q9nm6e8mb-meekland~grove", "name": "Meekland Av:Grove Way", "tags": {}, "geometry": {"type": "Point", "coordinates": [-122.107976, 37.674914]}, "servedBy": ["o-9q9-actransit"], "identifiers": [{"identifier": "f-actransit-s-9802090", "tags": {"stop_lat": "37.674914", "stop_code": "57437", "stop_lon": "-122.107976", "parent_station": "", "stop_id": "9802090", "stop_name": "Meekland Av:Grove Way", "location_type": ""}}], "type": "Feature", "properties": {}}, {"onestopId": "s-9q9nm2b5sz-wa~royal", "name": "W A St:Royal Av", "tags": {}, "geometry": {"type": "Point", "coordinates": [-122.112823, 37.665895]}, "servedBy": ["o-9q9-actransit"], "identifiers": [{"identifier": "f-actransit-s-0804940", "tags": {"stop_lat": "37.665895", "stop_code": "53363", "stop_lon": "-122.112823", "parent_station": "", "stop_id": "0804940", "stop_name": "W A St:Royal Av", "location_type": ""}}], "type": "Feature", "properties": {}}, {"onestopId": "s-9q9nmq986z-164th~helo", "name": "164th Av:Helo Dr", "tags": {}, "geometry": {"type": "Point", "coordinates": [-122.110858, 37.696922]}, "servedBy": ["o-9q9-actransit"], "identifiers": [{"identifier": "f-actransit-s-9800120", "tags": {"stop_lat": "37.696922", "stop_code": "55842", "stop_lon": "-122.110858", "parent_station": "", "stop_id": "9800120", "stop_name": "164th Av:Helo Dr", "location_type": ""}}], "type": "Feature", "properties": {}}, {"onestopId": "s-9q9nmbde6y-d~meek", "name": "D St:Meek Av", "tags": {}, "geometry": {"type": "Point", "coordinates": [-122.087511, 37.664472]}, "servedBy": ["o-9q9-actransit"], "identifiers": [{"identifier": "f-actransit-s-0801430", "tags": {"stop_lat": "37.664472", "stop_code": "55390", "stop_lon": "-122.087511", "parent_station": "", "stop_id": "0801430", "stop_name": "D St:Meek Av", "location_type": ""}}], "type": "Feature", "properties": {}}, {"onestopId": "s-9q9nmxq3vt-stanton~carlton", "name": "Stanton Av:Carlton Av", "tags": {}, "geometry": {"type": "Point", "coordinates": [-122.093225, 37.701287]}, "servedBy": ["o-9q9-actransit"], "identifiers": [{"identifier": "f-actransit-s-9803110", "tags": {"stop_lat": "37.701287", "stop_code": "57810", "stop_lon": "-122.093225", "parent_station": "", "stop_id": "9803110", "stop_name": "Stanton Av:Carlton Av", "location_type": ""}}], "type": "Feature", "properties": {}}, {"onestopId": "s-9q9nmemvrz-mission~grove", "name": "Mission Blvd:Grove Way", "tags": {}, "geometry": {"type": "Point", "coordinates": [-122.093814, 37.679928]}, "servedBy": ["o-9q9-actransit"], "identifiers": [{"identifier": "f-actransit-s-9802280", "tags": {"stop_lat": "37.679928", "stop_code": "55132", "stop_lon": "-122.093814", "parent_station": "", "stop_id": "9802280", "stop_name": "Mission Blvd:Grove Way", "location_type": ""}}], "type": "Feature", "properties": {}}, {"onestopId": "s-9q9nm9kshn-a~filbert", "name": "A St:Filbert St", "tags": {}, "geometry": {"type": "Point", "coordinates": [-122.095696, 37.668723]}, "servedBy": ["o-9q9-actransit"], "identifiers": [{"identifier": "f-actransit-s-0800190", "tags": {"stop_lat": "37.668723", "stop_code": "59665", "stop_lon": "-122.095696", "parent_station": "", "stop_id": "0800190", "stop_name": "A St:Filbert St", "location_type": ""}}], "type": "Feature", "properties": {}}, {"onestopId": "s-9q9nmcvc48-c~mission", "name": "C St:Mission Blvd", "tags": {}, "geometry": {"type": "Point", "coordinates": [-122.08306, 37.670918]}, "servedBy": ["o-9q9-actransit"], "identifiers": [{"identifier": "f-actransit-s-0800700", "tags": {"stop_lat": "37.670918", "stop_code": "55050", "stop_lon": "-122.083060", "parent_station": "", "stop_id": "0800700", "stop_name": "C St:Mission Blvd", "location_type": ""}}], "type": "Feature", "properties": {}}, {"onestopId": "s-9q9nm0nn8b-hesperian~sueirro", "name": "Hesperian Blvd:Sueirro St", "tags": {}, "geometry": {"type": "Point", "coordinates": [-122.115748, 37.662249]}, "servedBy": ["o-9q9-actransit"], "identifiers": [{"identifier": "f-actransit-s-0802440", "tags": {"stop_lat": "37.662249", "stop_code": "57734", "stop_lon": "-122.115748", "parent_station": "", "stop_id": "0802440", "stop_name": "Hesperian Blvd:Sueirro St", "location_type": ""}}], "type": "Feature", "properties": {}}, {"onestopId": "s-9q9nmh4c0e-paseogrande~viacordoba", "name": "Paseo Grande:Via Cordoba", "tags": {}, "geometry": {"type": "Point", "coordinates": [-122.120215, 37.683297]}, "servedBy": ["o-9q9-actransit"], "identifiers": [{"identifier": "f-actransit-s-9802520", "tags": {"stop_lat": "37.683297", "stop_code": "54160", "stop_lon": "-122.120215", "parent_station": "", "stop_id": "9802520", "stop_name": "Paseo Grande:Via Cordoba", "location_type": ""}}], "type": "Feature", "properties": {}}, {"onestopId": "s-9q9nmht1kw-meekland~elewelling", "name": "Meekland Av:E Lewelling Blvd", "tags": {}, "geometry": {"type": "Point", "coordinates": [-122.116962, 37.686104]}, "servedBy": ["o-9q9-actransit"], "identifiers": [{"identifier": "f-actransit-s-9802070", "tags": {"stop_lat": "37.686104", "stop_code": "52987", "stop_lon": "-122.116962", "parent_station": "", "stop_id": "9802070", "stop_name": "Meekland Av:E Lewelling Blvd", "location_type": ""}}], "type": "Feature", "properties": {}}, {"onestopId": "s-9q9nmce57j-haywardbartstation", "name": "Hayward BART Station", "tags": {}, "geometry": {"type": "Point", "coordinates": [-122.086814, 37.669961]}, "servedBy": ["o-9q9-actransit"], "identifiers": [{"identifier": "f-actransit-s-0802120", "tags": {"stop_lat": "37.669961", "stop_code": "55590", "stop_lon": "-122.086814", "parent_station": "place_HBBA", "stop_id": "0802120", "stop_name": "Hayward BART Station", "location_type": ""}}], "type": "Feature", "properties": {}}, {"onestopId": "s-9q9nm0sw0g-hesperian~wa", "name": "Hesperian Blvd:W A St", "tags": {}, "geometry": {"type": "Point", "coordinates": [-122.117801, 37.664928]}, "servedBy": ["o-9q9-actransit"], "identifiers": [{"identifier": "f-actransit-s-0802490", "tags": {"stop_lat": "37.664928", "stop_code": "50900", "stop_lon": "-122.117801", "parent_station": "", "stop_id": "0802490", "stop_name": "Hesperian Blvd:W A St", "location_type": ""}}], "type": "Feature", "properties": {}}, {"onestopId": "s-9q9nmn0r7p-elgin~linnea", "name": "Elgin St:Linnea Av", "tags": {}, "geometry": {"type": "Point", "coordinates": [-122.123543, 37.695379]}, "servedBy": ["o-9q9-actransit"], "identifiers": [{"identifier": "f-actransit-s-9801080", "tags": {"stop_lat": "37.695379", "stop_code": "52108", "stop_lon": "-122.123543", "parent_station": "", "stop_id": "9801080", "stop_name": "Elgin St:Linnea Av", "location_type": ""}}], "type": "Feature", "properties": {}}, {"onestopId": "s-9q9nmy55wc-lakechabot~castrovalley", "name": "Lake Chabot Rd:Castro Valley Blvd", "tags": {}, "geometry": {"type": "Point", "coordinates": [-122.086651, 37.694703]}, "servedBy": ["o-9q9-actransit"], "identifiers": [{"identifier": "f-actransit-s-9801920", "tags": {"stop_lat": "37.694703", "stop_code": "54717", "stop_lon": "-122.086651", "parent_station": "", "stop_id": "9801920", "stop_name": "Lake Chabot Rd:Castro Valley Blvd", "location_type": ""}}], "type": "Feature", "properties": {}}, {"onestopId": "s-9q9nm6dptv-wblossom~meekland", "name": "W Blossom Way:Meekland Av", "tags": {}, "geometry": {"type": "Point", "coordinates": [-122.110041, 37.676184]}, "servedBy": ["o-9q9-actransit"], "identifiers": [{"identifier": "f-actransit-s-9803280", "tags": {"stop_lat": "37.676184", "stop_code": "57899", "stop_lon": "-122.110041", "parent_station": "", "stop_id": "9803280", "stop_name": "W Blossom Way:Meekland Av", "location_type": ""}}], "type": "Feature", "properties": {}}, {"onestopId": "s-9q9nmh5w63-paseogrande~saintjohns", "name": "Paseo Grande:Saint Johns Dr", "tags": {}, "geometry": {"type": "Point", "coordinates": [-122.119112, 37.684186]}, "servedBy": ["o-9q9-actransit"], "identifiers": [{"identifier": "f-actransit-s-9802500", "tags": {"stop_lat": "37.684186", "stop_code": "51678", "stop_lon": "-122.119112", "parent_station": "", "stop_id": "9802500", "stop_name": "Paseo Grande:Saint Johns Dr", "location_type": ""}}], "type": "Feature", "properties": {}}, {"onestopId": "s-9q9nmce1rz-haywardbartstation", "name": "Hayward BART Station", "tags": {}, "geometry": {"type": "Point", "coordinates": [-122.086608, 37.669627]}, "servedBy": ["o-9q9-actransit"], "identifiers": [{"identifier": "f-actransit-s-0802060", "tags": {"stop_lat": "37.669627", "stop_code": "55911", "stop_lon": "-122.086608", "parent_station": "place_HBBA", "stop_id": "0802060", "stop_name": "Hayward BART Station", "location_type": ""}}], "type": "Feature", "properties": {}}, {"onestopId": "s-9q9nmypp96-castrovalley~sanmiguel", "name": "Castro Valley Blvd:San Miguel Av", "tags": {}, "geometry": {"type": "Point", "coordinates": [-122.081388, 37.695391]}, "servedBy": ["o-9q9-actransit"], "identifiers": [{"identifier": "f-actransit-s-9800500", "tags": {"stop_lat": "37.695391", "stop_code": "50515", "stop_lon": "-122.081388", "parent_station": "", "stop_id": "9800500", "stop_name": "Castro Valley Blvd:San Miguel Av", "location_type": ""}}], "type": "Feature", "properties": {}}, {"onestopId": "s-9q9nmfp21x-c~main", "name": "C St:Main St", "tags": {}, "geometry": {"type": "Point", "coordinates": [-122.081037, 37.672162]}, "servedBy": ["o-9q9-actransit"], "identifiers": [{"identifier": "f-actransit-s-0800690", "tags": {"stop_lat": "37.672162", "stop_code": "57811", "stop_lon": "-122.081037", "parent_station": "", "stop_id": "0800690", "stop_name": "C St:Main St", "location_type": ""}}], "type": "Feature", "properties": {}}, {"onestopId": "s-9q9nm62wee-wblossom~hathaway", "name": "W Blossom Way:Hathaway Av", "tags": {}, "geometry": {"type": "Point", "coordinates": [-122.1122, 37.674625]}, "servedBy": ["o-9q9-actransit"], "identifiers": [{"identifier": "f-actransit-s-9803250", "tags": {"stop_lat": "37.674625", "stop_code": "54765", "stop_lon": "-122.112200", "parent_station": "", "stop_id": "9803250", "stop_name": "W Blossom Way:Hathaway Av", "location_type": ""}}], "type": "Feature", "properties": {}}, {"onestopId": "s-9q9nmet9r0-mission~grove", "name": "Mission Blvd:Grove Way", "tags": {}, "geometry": {"type": "Point", "coordinates": [-122.094192, 37.680574]}, "servedBy": ["o-9q9-actransit"], "identifiers": [{"identifier": "f-actransit-s-9802270", "tags": {"stop_lat": "37.680574", "stop_code": "50595", "stop_lon": "-122.094192", "parent_station": "", "stop_id": "9802270", "stop_name": "Mission Blvd:Grove Way", "location_type": ""}}], "type": "Feature", "properties": {}}, {"onestopId": "s-9q9nmqnyt4-foothill~167th", "name": "Foothill Blvd:167th Av", "tags": {}, "geometry": {"type": "Point", "coordinates": [-122.103551, 37.695221]}, "servedBy": ["o-9q9-actransit"], "identifiers": [{"identifier": "f-actransit-s-9801260", "tags": {"stop_lat": "37.695221", "stop_code": "55938", "stop_lon": "-122.103551", "parent_station": "", "stop_id": "9801260", "stop_name": "Foothill Blvd:167th Av", "location_type": ""}}], "type": "Feature", "properties": {}}, {"onestopId": "s-9q9nmce2u3-haywardbartstation", "name": "Hayward BART Station", "tags": {}, "geometry": {"type": "Point", "coordinates": [-122.08641, 37.669511]}, "servedBy": ["o-9q9-actransit"], "identifiers": [{"identifier": "f-actransit-s-9902560", "tags": {"stop_lat": "37.669511", "stop_code": "51209", "stop_lon": "-122.086410", "parent_station": "place_HBBA", "stop_id": "9902560", "stop_name": "Hayward BART Station", "location_type": ""}}], "type": "Feature", "properties": {}}, {"onestopId": "s-9q9nmzqmp2-somerset~parsons", "name": "Somerset Av:Parsons Av", "tags": {}, "geometry": {"type": "Point", "coordinates": [-122.082161, 37.70182]}, "servedBy": ["o-9q9-actransit"], "identifiers": [{"identifier": "f-actransit-s-9802990", "tags": {"stop_lat": "37.701820", "stop_code": "53678", "stop_lon": "-122.082161", "parent_station": "", "stop_id": "9802990", "stop_name": "Somerset Av:Parsons Av", "location_type": ""}}], "type": "Feature", "properties": {}}, {"onestopId": "s-9q9nmue0mt-grove~gail", "name": "Grove Way:Gail Dr", "tags": {}, "geometry": {"type": "Point", "coordinates": [-122.0867, 37.685926]}, "servedBy": ["o-9q9-actransit"], "identifiers": [{"identifier": "f-actransit-s-9801490", "tags": {"stop_lat": "37.685926", "stop_code": "50740", "stop_lon": "-122.086700", "parent_station": "", "stop_id": "9801490", "stop_name": "Grove Way:Gail Dr", "location_type": ""}}], "type": "Feature", "properties": {}}, {"onestopId": "s-9q9nmm7sj2-e14th~170th", "name": "E 14th St:170th Av", "tags": {}, "geometry": {"type": "Point", "coordinates": [-122.107995, 37.690661]}, "servedBy": ["o-9q9-actransit"], "identifiers": [{"identifier": "f-actransit-s-9800940", "tags": {"stop_lat": "37.690661", "stop_code": "51773", "stop_lon": "-122.107995", "parent_station": "", "stop_id": "9800940", "stop_name": "E 14th St:170th Av", "location_type": ""}}], "type": "Feature", "properties": {}}, {"onestopId": "s-9q9nm4vufx-hacienda~viatoledo", "name": "Hacienda Av:Via Toledo", "tags": {}, "geometry": {"type": "Point", "coordinates": [-122.116014, 37.677095]}, "servedBy": ["o-9q9-actransit"], "identifiers": [{"identifier": "f-actransit-s-9801620", "tags": {"stop_lat": "37.677095", "stop_code": "51876", "stop_lon": "-122.116014", "parent_station": "", "stop_id": "9801620", "stop_name": "Hacienda Av:Via Toledo", "location_type": ""}}], "type": "Feature", "properties": {}}, {"onestopId": "s-9q9nmz6fsp-somerset~wisteria", "name": "Somerset Av:Wisteria St", "tags": {}, "geometry": {"type": "Point", "coordinates": [-122.087106, 37.701429]}, "servedBy": ["o-9q9-actransit"], "identifiers": [{"identifier": "f-actransit-s-9803080", "tags": {"stop_lat": "37.701429", "stop_code": "53789", "stop_lon": "-122.087106", "parent_station": "", "stop_id": "9803080", "stop_name": "Somerset Av:Wisteria St", "location_type": ""}}], "type": "Feature", "properties": {}}, {"onestopId": "s-9q9nmbpdnc-sycamore~silva", "name": "Sycamore Av:Silva Av", "tags": {}, "geometry": {"type": "Point", "coordinates": [-122.080473, 37.661485]}, "servedBy": ["o-9q9-actransit"], "identifiers": [{"identifier": "f-actransit-s-0804730", "tags": {"stop_lat": "37.661485", "stop_code": "51020", "stop_lon": "-122.080473", "parent_station": "", "stop_id": "0804730", "stop_name": "Sycamore Av:Silva Av", "location_type": ""}}], "type": "Feature", "properties": {}}, {"onestopId": "s-9q9nmeu24z-mission~blossom", "name": "Mission Blvd:Blossom Way", "tags": {}, "geometry": {"type": "Point", "coordinates": [-122.096093, 37.681775]}, "servedBy": ["o-9q9-actransit"], "identifiers": [{"identifier": "f-actransit-s-9802220", "tags": {"stop_lat": "37.681775", "stop_code": "53778", "stop_lon": "-122.096093", "parent_station": "", "stop_id": "9802220", "stop_name": "Mission Blvd:Blossom Way", "location_type": ""}}], "type": "Feature", "properties": {}}, {"onestopId": "s-9q9nmhsv4k-elewelling~meekland", "name": "E Lewelling Blvd:Meekland Av", "tags": {}, "geometry": {"type": "Point", "coordinates": [-122.117394, 37.686732]}, "servedBy": ["o-9q9-actransit"], "identifiers": [{"identifier": "f-actransit-s-9801000", "tags": {"stop_lat": "37.686732", "stop_code": "58114", "stop_lon": "-122.117394", "parent_station": "", "stop_id": "9801000", "stop_name": "E Lewelling Blvd:Meekland Av", "location_type": ""}}], "type": "Feature", "properties": {}}, {"onestopId": "s-9q9nmydupb-lakechabot~edenmedical", "name": "Lake Chabot:Eden Medical Center", "tags": {}, "geometry": {"type": "Point", "coordinates": [-122.086951, 37.697529]}, "servedBy": ["o-9q9-actransit"], "identifiers": [{"identifier": "f-actransit-s-9902230", "tags": {"stop_lat": "37.697529", "stop_code": "51037", "stop_lon": "-122.086951", "parent_station": "", "stop_id": "9902230", "stop_name": "Lake Chabot:Eden Medical Center", "location_type": ""}}], "type": "Feature", "properties": {}}, {"onestopId": "s-9q9nm2zcfm-santaclara~santaclara", "name": "Santa Clara St:Santa Clara Way", "tags": {}, "geometry": {"type": "Point", "coordinates": [-122.102292, 37.665582]}, "servedBy": ["o-9q9-actransit"], "identifiers": [{"identifier": "f-actransit-s-0804240", "tags": {"stop_lat": "37.665582", "stop_code": "51410", "stop_lon": "-122.102292", "parent_station": "", "stop_id": "0804240", "stop_name": "Santa Clara St:Santa Clara Way", "location_type": ""}}], "type": "Feature", "properties": {}}, {"onestopId": "s-9q9nmhgedx-ashland~sanlorenzohighschool", "name": "Ashland Av:San Lorenzo High School", "tags": {}, "geometry": {"type": "Point", "coordinates": [-122.119104, 37.687869]}, "servedBy": ["o-9q9-actransit"], "identifiers": [{"identifier": "f-actransit-s-9800220", "tags": {"stop_lat": "37.687869", "stop_code": "55863", "stop_lon": "-122.119104", "parent_station": "", "stop_id": "9800220", "stop_name": "Ashland Av:San Lorenzo High School", "location_type": ""}}], "type": "Feature", "properties": {}}, {"onestopId": "s-9q9nmgqejh-city~centennialhall", "name": "City Center Dr:Centennial Hall", "tags": {}, "geometry": {"type": "Point", "coordinates": [-122.081914, 37.679526]}, "servedBy": ["o-9q9-actransit"], "identifiers": [{"identifier": "f-actransit-s-0801040", "tags": {"stop_lat": "37.679526", "stop_code": "55702", "stop_lon": "-122.081914", "parent_station": "", "stop_id": "0801040", "stop_name": "City Center Dr:Centennial Hall", "location_type": ""}}], "type": "Feature", "properties": {}}, {"onestopId": "s-9q9nm2ztc0-a~santaclara", "name": "A St:Santa Clara St", "tags": {}, "geometry": {"type": "Point", "coordinates": [-122.102686, 37.66624]}, "servedBy": ["o-9q9-actransit"], "identifiers": [{"identifier": "f-actransit-s-0800250", "tags": {"stop_lat": "37.666240", "stop_code": "50850", "stop_lon": "-122.102686", "parent_station": "", "stop_id": "0800250", "stop_name": "A St:Santa Clara St", "location_type": ""}}], "type": "Feature", "properties": {}}, {"onestopId": "s-9q9nmfjg04-b~main", "name": "B St:Main St", "tags": {}, "geometry": {"type": "Point", "coordinates": [-122.08316, 37.67265]}, "servedBy": ["o-9q9-actransit"], "identifiers": [{"identifier": "f-actransit-s-0800570", "tags": {"stop_lat": "37.672650", "stop_code": "53351", "stop_lon": "-122.083160", "parent_station": "", "stop_id": "0800570", "stop_name": "B St:Main St", "location_type": ""}}], "type": "Feature", "properties": {}}, {"onestopId": "s-9q9nm4vvur-hacienda~viatoledo", "name": "Hacienda Av:Via Toledo", "tags": {}, "geometry": {"type": "Point", "coordinates": [-122.115935, 37.677267]}, "servedBy": ["o-9q9-actransit"], "identifiers": [{"identifier": "f-actransit-s-9801630", "tags": {"stop_lat": "37.677267", "stop_code": "51987", "stop_lon": "-122.115935", "parent_station": "", "stop_id": "9801630", "stop_name": "Hacienda Av:Via Toledo", "location_type": ""}}], "type": "Feature", "properties": {}}, {"onestopId": "s-9q9nmyhthn-castrovalley~wisteria", "name": "Castro Valley Blvd:Wisteria St", "tags": {}, "geometry": {"type": "Point", "coordinates": [-122.084703, 37.694986]}, "servedBy": ["o-9q9-actransit"], "identifiers": [{"identifier": "f-actransit-s-9800560", "tags": {"stop_lat": "37.694986", "stop_code": "54586", "stop_lon": "-122.084703", "parent_station": "", "stop_id": "9800560", "stop_name": "Castro Valley Blvd:Wisteria St", "location_type": ""}}], "type": "Feature", "properties": {}}, {"onestopId": "s-9q9nm7n7wb-blossom~haviland", "name": "Blossom Way:Haviland Av", "tags": {}, "geometry": {"type": "Point", "coordinates": [-122.104162, 37.678218]}, "servedBy": ["o-9q9-actransit"], "identifiers": [{"identifier": "f-actransit-s-9804420", "tags": {"stop_lat": "37.678218", "stop_code": "54220", "stop_lon": "-122.104162", "parent_station": "", "stop_id": "9804420", "stop_name": "Blossom Way:Haviland Av", "location_type": ""}}], "type": "Feature", "properties": {}}, {"onestopId": "s-9q9nmr521q-164th~foothill", "name": "164th Av:Foothill Blvd", "tags": {}, "geometry": {"type": "Point", "coordinates": [-122.108511, 37.699618]}, "servedBy": ["o-9q9-actransit"], "identifiers": [{"identifier": "f-actransit-s-9800100", "tags": {"stop_lat": "37.699618", "stop_code": "59350", "stop_lon": "-122.108511", "parent_station": "", "stop_id": "9800100", "stop_name": "164th Av:Foothill Blvd", "location_type": ""}}], "type": "Feature", "properties": {}}, {"onestopId": "s-9q9nmu0fup-foothill~grove", "name": "Foothill Blvd:Grove Way", "tags": {}, "geometry": {"type": "Point", "coordinates": [-122.089862, 37.683619]}, "servedBy": ["o-9q9-actransit"], "identifiers": [{"identifier": "f-actransit-s-0801860", "tags": {"stop_lat": "37.683619", "stop_code": "53362", "stop_lon": "-122.089862", "parent_station": "", "stop_id": "0801860", "stop_name": "Foothill Blvd:Grove Way", "location_type": ""}}], "type": "Feature", "properties": {}}, {"onestopId": "s-9q9nmbw4mr-silva~jackson", "name": "Silva Av:Jackson St", "tags": {}, "geometry": {"type": "Point", "coordinates": [-122.082599, 37.664304]}, "servedBy": ["o-9q9-actransit"], "identifiers": [{"identifier": "f-actransit-s-0804330", "tags": {"stop_lat": "37.664304", "stop_code": "54356", "stop_lon": "-122.082599", "parent_station": "", "stop_id": "0804330", "stop_name": "Silva Av:Jackson St", "location_type": ""}}], "type": "Feature", "properties": {}}, {"onestopId": "s-9q9nm42r59-hesperian~hacienda", "name": "Hesperian Blvd:Hacienda Av", "tags": {}, "geometry": {"type": "Point", "coordinates": [-122.123524, 37.674702]}, "servedBy": ["o-9q9-actransit"], "identifiers": [{"identifier": "f-actransit-s-9801710", "tags": {"stop_lat": "37.674702", "stop_code": "51255", "stop_lon": "-122.123524", "parent_station": "", "stop_id": "9801710", "stop_name": "Hesperian Blvd:Hacienda Av", "location_type": ""}}], "type": "Feature", "properties": {}}, {"onestopId": "s-9q9nm6e2y6-meekland~grove", "name": "Meekland Av:Grove Way", "tags": {}, "geometry": {"type": "Point", "coordinates": [-122.108298, 37.67501]}, "servedBy": ["o-9q9-actransit"], "identifiers": [{"identifier": "f-actransit-s-9802080", "tags": {"stop_lat": "37.675010", "stop_code": "58664", "stop_lon": "-122.108298", "parent_station": "", "stop_id": "9802080", "stop_name": "Meekland Av:Grove Way", "location_type": ""}}], "type": "Feature", "properties": {}}, {"onestopId": "s-9q9nm2cu6n-wa~victory", "name": "W A St:Victory Dr", "tags": {}, "geometry": {"type": "Point", "coordinates": [-122.11054, 37.666018]}, "servedBy": ["o-9q9-actransit"], "identifiers": [{"identifier": "f-actransit-s-0804950", "tags": {"stop_lat": "37.666018", "stop_code": "53357", "stop_lon": "-122.110540", "parent_station": "", "stop_id": "0804950", "stop_name": "W A St:Victory Dr", "location_type": ""}}], "type": "Feature", "properties": {}}, {"onestopId": "s-9q9nm9qpmb-a~myrtle", "name": "A St:Myrtle St", "tags": {}, "geometry": {"type": "Point", "coordinates": [-122.093557, 37.669247]}, "servedBy": ["o-9q9-actransit"], "identifiers": [{"identifier": "f-actransit-s-0800240", "tags": {"stop_lat": "37.669247", "stop_code": "50130", "stop_lon": "-122.093557", "parent_station": "", "stop_id": "0800240", "stop_name": "A St:Myrtle St", "location_type": ""}}], "type": "Feature", "properties": {}}, {"onestopId": "s-9q9nmg00kq-mission~sunset", "name": "Mission Blvd:Sunset Blvd", "tags": {}, "geometry": {"type": "Point", "coordinates": [-122.090881, 37.67769]}, "servedBy": ["o-9q9-actransit"], "identifiers": [{"identifier": "f-actransit-s-0803610", "tags": {"stop_lat": "37.677690", "stop_code": "56562", "stop_lon": "-122.090881", "parent_station": "", "stop_id": "0803610", "stop_name": "Mission Blvd:Sunset Blvd", "location_type": ""}}], "type": "Feature", "properties": {}}, {"onestopId": "s-9q9nmgs89b-city~foothill", "name": "City Center Dr:Foothill Blvd", "tags": {}, "geometry": {"type": "Point", "coordinates": [-122.084805, 37.680446]}, "servedBy": ["o-9q9-actransit"], "identifiers": [{"identifier": "f-actransit-s-0801050", "tags": {"stop_lat": "37.680446", "stop_code": "59644", "stop_lon": "-122.084805", "parent_station": "", "stop_id": "0801050", "stop_name": "City Center Dr:Foothill Blvd", "location_type": ""}}], "type": "Feature", "properties": {}}, {"onestopId": "s-9q9nm1c9x6-hesperian~bockman", "name": "Hesperian Blvd:Bockman Rd", "tags": {}, "geometry": {"type": "Point", "coordinates": [-122.121643, 37.671016]}, "servedBy": ["o-9q9-actransit"], "identifiers": [{"identifier": "f-actransit-s-9801680", "tags": {"stop_lat": "37.671016", "stop_code": "55125", "stop_lon": "-122.121643", "parent_station": "", "stop_id": "9801680", "stop_name": "Hesperian Blvd:Bockman Rd", "location_type": ""}}], "type": "Feature", "properties": {}}, {"onestopId": "s-9q9nmfdb8y-mission~grace", "name": "Mission Blvd:Grace St", "tags": {}, "geometry": {"type": "Point", "coordinates": [-122.087245, 37.674988]}, "servedBy": ["o-9q9-actransit"], "identifiers": [{"identifier": "f-actransit-s-0803450", "tags": {"stop_lat": "37.674988", "stop_code": "53200", "stop_lon": "-122.087245", "parent_station": "", "stop_id": "0803450", "stop_name": "Mission Blvd:Grace St", "location_type": ""}}], "type": "Feature", "properties": {}}, {"onestopId": "s-9q9nm2zj00-santaclara~wa", "name": "Santa Clara St:W A St", "tags": {}, "geometry": {"type": "Point", "coordinates": [-122.103416, 37.666116]}, "servedBy": ["o-9q9-actransit"], "identifiers": [{"identifier": "f-actransit-s-0804250", "tags": {"stop_lat": "37.666116", "stop_code": "59660", "stop_lon": "-122.103416", "parent_station": "", "stop_id": "0804250", "stop_name": "Santa Clara St:W A St", "location_type": ""}}], "type": "Feature", "properties": {}}, {"onestopId": "s-9q9nm69y86-wblossom~meekland", "name": "W Blossom Way:Meekland Av", "tags": {}, "geometry": {"type": "Point", "coordinates": [-122.110621, 37.675994]}, "servedBy": ["o-9q9-actransit"], "identifiers": [{"identifier": "f-actransit-s-9803270", "tags": {"stop_lat": "37.675994", "stop_code": "53221", "stop_lon": "-122.110621", "parent_station": "", "stop_id": "9803270", "stop_name": "W Blossom Way:Meekland Av", "location_type": ""}}], "type": "Feature", "properties": {}}, {"onestopId": "s-9q9nmydgd6-lakechabot~edenmedical", "name": "Lake Chabot:Eden Medical Center", "tags": {}, "geometry": {"type": "Point", "coordinates": [-122.087183, 37.697454]}, "servedBy": ["o-9q9-actransit"], "identifiers": [{"identifier": "f-actransit-s-9902240", "tags": {"stop_lat": "37.697454", "stop_code": "51038", "stop_lon": "-122.087183", "parent_station": "", "stop_id": "9902240", "stop_name": "Lake Chabot:Eden Medical Center", "location_type": ""}}], "type": "Feature", "properties": {}}, {"onestopId": "s-9q9nmp27jw-e14th~bayfair", "name": "E 14th St:Bayfair Dr", "tags": {}, "geometry": {"type": "Point", "coordinates": [-122.123442, 37.701508]}, "servedBy": ["o-9q9-actransit"], "identifiers": [{"identifier": "f-actransit-s-1504180", "tags": {"stop_lat": "37.701508", "stop_code": "55401", "stop_lon": "-122.123442", "parent_station": "", "stop_id": "1504180", "stop_name": "E 14th St:Bayfair Dr", "location_type": ""}}], "type": "Feature", "properties": {}}, {"onestopId": "s-9q9nmhm4qt-meekland~paseogrande", "name": "Meekland Av:Paseo Grande", "tags": {}, "geometry": {"type": "Point", "coordinates": [-122.116875, 37.684893]}, "servedBy": ["o-9q9-actransit"], "identifiers": [{"identifier": "f-actransit-s-9802120", "tags": {"stop_lat": "37.684893", "stop_code": "55320", "stop_lon": "-122.116875", "parent_station": "", "stop_id": "9802120", "stop_name": "Meekland Av:Paseo Grande", "location_type": ""}}], "type": "Feature", "properties": {}}, {"onestopId": "s-9q9nmyqbcs-castrovalley~sanmiguel", "name": "Castro Valley Blvd:San Miguel Av", "tags": {}, "geometry": {"type": "Point", "coordinates": [-122.081721, 37.695618]}, "servedBy": ["o-9q9-actransit"], "identifiers": [{"identifier": "f-actransit-s-9800510", "tags": {"stop_lat": "37.695618", "stop_code": "59690", "stop_lon": "-122.081721", "parent_station": "", "stop_id": "9800510", "stop_name": "Castro Valley Blvd:San Miguel Av", "location_type": ""}}], "type": "Feature", "properties": {}}, {"onestopId": "s-9q9nmzkud7-somerset~alvertus", "name": "Somerset Av:Alvertus Av", "tags": {}, "geometry": {"type": "Point", "coordinates": [-122.084444, 37.701749]}, "servedBy": ["o-9q9-actransit"], "identifiers": [{"identifier": "f-actransit-s-9802960", "tags": {"stop_lat": "37.701749", "stop_code": "57742", "stop_lon": "-122.084444", "parent_station": "", "stop_id": "9802960", "stop_name": "Somerset Av:Alvertus Av", "location_type": ""}}], "type": "Feature", "properties": {}}, {"onestopId": "s-9q9nmxkyzb-stanton~acorn", "name": "Stanton Av:Acorn St", "tags": {}, "geometry": {"type": "Point", "coordinates": [-122.095186, 37.70212]}, "servedBy": ["o-9q9-actransit"], "identifiers": [{"identifier": "f-actransit-s-9803100", "tags": {"stop_lat": "37.702120", "stop_code": "57040", "stop_lon": "-122.095186", "parent_station": "", "stop_id": "9803100", "stop_name": "Stanton Av:Acorn St", "location_type": ""}}], "type": "Feature", "properties": {}}, {"onestopId": "s-9q9nm9wdyr-a~flagg", "name": "A St:Flagg St", "tags": {}, "geometry": {"type": "Point", "coordinates": [-122.092856, 37.669886]}, "servedBy": ["o-9q9-actransit"], "identifiers": [{"identifier": "f-actransit-s-0800200", "tags": {"stop_lat": "37.669886", "stop_code": "50580", "stop_lon": "-122.092856", "parent_station": "", "stop_id": "0800200", "stop_name": "A St:Flagg St", "location_type": ""}}], "type": "Feature", "properties": {}}, {"onestopId": "s-9q9nmce4wm-haywardbartstation", "name": "Hayward BART Station", "tags": {}, "geometry": {"type": "Point", "coordinates": [-122.086674, 37.669833]}, "servedBy": ["o-9q9-actransit"], "identifiers": [{"identifier": "f-actransit-s-0802130", "tags": {"stop_lat": "37.669833", "stop_code": "55662", "stop_lon": "-122.086674", "parent_station": "place_HBBA", "stop_id": "0802130", "stop_name": "Hayward BART Station", "location_type": ""}}], "type": "Feature", "properties": {}}, {"onestopId": "s-9q9nms4ndu-mission~medford", "name": "Mission Blvd:Medford Av", "tags": {}, "geometry": {"type": "Point", "coordinates": [-122.099179, 37.684245]}, "servedBy": ["o-9q9-actransit"], "identifiers": [{"identifier": "f-actransit-s-9802300", "tags": {"stop_lat": "37.684245", "stop_code": "52511", "stop_lon": "-122.099179", "parent_station": "", "stop_id": "9802300", "stop_name": "Mission Blvd:Medford Av", "location_type": ""}}], "type": "Feature", "properties": {}}, {"onestopId": "s-9q9nmtbp09-foothill~170th", "name": "Foothill Blvd:170th Av", "tags": {}, "geometry": {"type": "Point", "coordinates": [-122.102028, 37.693927]}, "servedBy": ["o-9q9-actransit"], "identifiers": [{"identifier": "f-actransit-s-9801280", "tags": {"stop_lat": "37.693927", "stop_code": "57894", "stop_lon": "-122.102028", "parent_station": "", "stop_id": "9801280", "stop_name": "Foothill Blvd:170th Av", "location_type": ""}}], "type": "Feature", "properties": {}}, {"onestopId": "s-9q9nmvb05h-john~castrovalley", "name": "John Dr:Castro Valley Blvd", "tags": {}, "geometry": {"type": "Point", "coordinates": [-122.090935, 37.692741]}, "servedBy": ["o-9q9-actransit"], "identifiers": [{"identifier": "f-actransit-s-9801790", "tags": {"stop_lat": "37.692741", "stop_code": "52324", "stop_lon": "-122.090935", "parent_station": "", "stop_id": "9801790", "stop_name": "John Dr:Castro Valley Blvd", "location_type": ""}}], "type": "Feature", "properties": {}}, {"onestopId": "s-9q9nm16fm0-hesperian~bartlett", "name": "Hesperian Blvd:Bartlett Av", "tags": {}, "geometry": {"type": "Point", "coordinates": [-122.12003, 37.668388]}, "servedBy": ["o-9q9-actransit"], "identifiers": [{"identifier": "f-actransit-s-0802260", "tags": {"stop_lat": "37.668388", "stop_code": "52588", "stop_lon": "-122.120030", "parent_station": "", "stop_id": "0802260", "stop_name": "Hesperian Blvd:Bartlett Av", "location_type": ""}}], "type": "Feature", "properties": {}}, {"onestopId": "s-9q9nmtbb2d-foothill~173rd", "name": "Foothill Blvd:173rd Av", "tags": {}, "geometry": {"type": "Point", "coordinates": [-122.100994, 37.692775]}, "servedBy": ["o-9q9-actransit"], "identifiers": [{"identifier": "f-actransit-s-9801290", "tags": {"stop_lat": "37.692775", "stop_code": "54568", "stop_lon": "-122.100994", "parent_station": "", "stop_id": "9801290", "stop_name": "Foothill Blvd:173rd Av", "location_type": ""}}], "type": "Feature", "properties": {}}, {"onestopId": "s-9q9nmfveyd-foothill~citysouthjctn", "name": "Foothill Blvd:City Center Dr (South Jctn)", "tags": {}, "geometry": {"type": "Point", "coordinates": [-122.083225, 37.676896]}, "servedBy": ["o-9q9-actransit"], "identifiers": [{"identifier": "f-actransit-s-0801840", "tags": {"stop_lat": "37.676896", "stop_code": "59450", "stop_lon": "-122.083225", "parent_station": "", "stop_id": "0801840", "stop_name": "Foothill Blvd:City Center Dr (South Jctn)", "location_type": ""}}], "type": "Feature", "properties": {}}, {"onestopId": "s-9q9nm4emc6-hacienda~viasegundo", "name": "Hacienda Av:Via Segundo", "tags": {}, "geometry": {"type": "Point", "coordinates": [-122.119498, 37.675867]}, "servedBy": ["o-9q9-actransit"], "identifiers": [{"identifier": "f-actransit-s-9801610", "tags": {"stop_lat": "37.675867", "stop_code": "53282", "stop_lon": "-122.119498", "parent_station": "", "stop_id": "9801610", "stop_name": "Hacienda Av:Via Segundo", "location_type": ""}}], "type": "Feature", "properties": {}}, {"onestopId": "s-9q9nmtqr6s-john~foothill", "name": "John Dr:Foothill Blvd", "tags": {}, "geometry": {"type": "Point", "coordinates": [-122.09336, 37.691239]}, "servedBy": ["o-9q9-actransit"], "identifiers": [{"identifier": "f-actransit-s-9801800", "tags": {"stop_lat": "37.691239", "stop_code": "52773", "stop_lon": "-122.093360", "parent_station": "", "stop_id": "9801800", "stop_name": "John Dr:Foothill Blvd", "location_type": ""}}], "type": "Feature", "properties": {}}, {"onestopId": "s-9q9nmp42jf-e14th~159th", "name": "E 14th St:159th Av", "tags": {}, "geometry": {"type": "Point", "coordinates": [-122.120677, 37.699598]}, "servedBy": ["o-9q9-actransit"], "identifiers": [{"identifier": "f-actransit-s-1504160", "tags": {"stop_lat": "37.699598", "stop_code": "55586", "stop_lon": "-122.120677", "parent_station": "", "stop_id": "1504160", "stop_name": "E 14th St:159th Av", "location_type": ""}}], "type": "Feature", "properties": {}}, {"onestopId": "s-9q9nm981h8-meekland~laurel", "name": "Meekland Av:Laurel Av", "tags": {}, "geometry": {"type": "Point", "coordinates": [-122.101853, 37.669548]}, "servedBy": ["o-9q9-actransit"], "identifiers": [{"identifier": "f-actransit-s-9802110", "tags": {"stop_lat": "37.669548", "stop_code": "53876", "stop_lon": "-122.101853", "parent_station": "", "stop_id": "9802110", "stop_name": "Meekland Av:Laurel Av", "location_type": ""}}], "type": "Feature", "properties": {}}, {"onestopId": "s-9q9nmr92uc-foothill~carolyn", "name": "Foothill Blvd:Carolyn St", "tags": {}, "geometry": {"type": "Point", "coordinates": [-122.111114, 37.702466]}, "servedBy": ["o-9q9-actransit"], "identifiers": [{"identifier": "f-actransit-s-9801320", "tags": {"stop_lat": "37.702466", "stop_code": "54134", "stop_lon": "-122.111114", "parent_station": "", "stop_id": "9801320", "stop_name": "Foothill Blvd:Carolyn St", "location_type": ""}}], "type": "Feature", "properties": {}}, {"onestopId": "s-9q9nm0v46e-wa~hesperian", "name": "W A St:Hesperian Blvd", "tags": {}, "geometry": {"type": "Point", "coordinates": [-122.117039, 37.665658]}, "servedBy": ["o-9q9-actransit"], "identifiers": [{"identifier": "f-actransit-s-0804930", "tags": {"stop_lat": "37.665658", "stop_code": "58874", "stop_lon": "-122.117039", "parent_station": "", "stop_id": "0804930", "stop_name": "W A St:Hesperian Blvd", "location_type": ""}}], "type": "Feature", "properties": {}}, {"onestopId": "s-9q9nmce8j3-haywardbartstation", "name": "Hayward BART Station", "tags": {}, "geometry": {"type": "Point", "coordinates": [-122.08603, 37.669381]}, "servedBy": ["o-9q9-actransit"], "identifiers": [{"identifier": "f-actransit-s-0802170", "tags": {"stop_lat": "37.669381", "stop_code": "55255", "stop_lon": "-122.086030", "parent_station": "place_HBBA", "stop_id": "0802170", "stop_name": "Hayward BART Station", "location_type": ""}}], "type": "Feature", "properties": {}}, {"onestopId": "s-9q9nmnfn9f-159th~e14th", "name": "159th Av:E 14th St", "tags": {}, "geometry": {"type": "Point", "coordinates": [-122.121197, 37.699342]}, "servedBy": ["o-9q9-actransit"], "identifiers": [{"identifier": "f-actransit-s-9800020", "tags": {"stop_lat": "37.699342", "stop_code": "58808", "stop_lon": "-122.121197", "parent_station": "", "stop_id": "9800020", "stop_name": "159th Av:E 14th St", "location_type": ""}}], "type": "Feature", "properties": {}}, {"onestopId": "s-9q9nm0sgzs-hesperian~wa", "name": "Hesperian Blvd:W A St", "tags": {}, "geometry": {"type": "Point", "coordinates": [-122.11717, 37.664546]}, "servedBy": ["o-9q9-actransit"], "identifiers": [{"identifier": "f-actransit-s-0802480", "tags": {"stop_lat": "37.664546", "stop_code": "55122", "stop_lon": "-122.117170", "parent_station": "", "stop_id": "0802480", "stop_name": "Hesperian Blvd:W A St", "location_type": ""}}], "type": "Feature", "properties": {}}, {"onestopId": "s-9q9nmgkxyh-city~foothillnorthjctn", "name": "City Center Dr:Foothill Blvd (North Jctn)", "tags": {}, "geometry": {"type": "Point", "coordinates": [-122.084622, 37.68034]}, "servedBy": ["o-9q9-actransit"], "identifiers": [{"identifier": "f-actransit-s-0801060", "tags": {"stop_lat": "37.680340", "stop_code": "55943", "stop_lon": "-122.084622", "parent_station": "", "stop_id": "0801060", "stop_name": "City Center Dr:Foothill Blvd (North Jctn)", "location_type": ""}}], "type": "Feature", "properties": {}}, {"onestopId": "s-9q9nmnpkh9-e14th~164th", "name": "E 14th St:164th Av", "tags": {}, "geometry": {"type": "Point", "coordinates": [-122.113869, 37.694786]}, "servedBy": ["o-9q9-actransit"], "identifiers": [{"identifier": "f-actransit-s-9800880", "tags": {"stop_lat": "37.694786", "stop_code": "55835", "stop_lon": "-122.113869", "parent_station": "", "stop_id": "9800880", "stop_name": "E 14th St:164th Av", "location_type": ""}}], "type": "Feature", "properties": {}}, {"onestopId": "s-9q9nmy59ke-castrovalley~lakechabot", "name": "Castro Valley Blvd:Lake Chabot Rd", "tags": {}, "geometry": {"type": "Point", "coordinates": [-122.08606, 37.694323]}, "servedBy": ["o-9q9-actransit"], "identifiers": [{"identifier": "f-actransit-s-9800450", "tags": {"stop_lat": "37.694323", "stop_code": "59446", "stop_lon": "-122.086060", "parent_station": "", "stop_id": "9800450", "stop_name": "Castro Valley Blvd:Lake Chabot Rd", "location_type": ""}}], "type": "Feature", "properties": {}}, {"onestopId": "s-9q9nmn14c9-elgin~videll", "name": "Elgin St:Videll St", "tags": {}, "geometry": {"type": "Point", "coordinates": [-122.122579, 37.694572]}, "servedBy": ["o-9q9-actransit"], "identifiers": [{"identifier": "f-actransit-s-9801090", "tags": {"stop_lat": "37.694572", "stop_code": "58430", "stop_lon": "-122.122579", "parent_station": "", "stop_id": "9801090", "stop_name": "Elgin St:Videll St", "location_type": ""}}], "type": "Feature", "properties": {}}, {"onestopId": "s-9q9nmbg3u7-grand~dean", "name": "Grand St:Dean St", "tags": {}, "geometry": {"type": "Point", "coordinates": [-122.086415, 37.665574]}, "servedBy": ["o-9q9-actransit"], "identifiers": [{"identifier": "f-actransit-s-0801960", "tags": {"stop_lat": "37.665574", "stop_code": "56760", "stop_lon": "-122.086415", "parent_station": "", "stop_id": "0801960", "stop_name": "Grand St:Dean St", "location_type": ""}}], "type": "Feature", "properties": {}}, {"onestopId": "s-9q9nmqdxcq-164th~gordon", "name": "164th St:Gordon Way", "tags": {}, "geometry": {"type": "Point", "coordinates": [-122.109546, 37.698206]}, "servedBy": ["o-9q9-actransit"], "identifiers": [{"identifier": "f-actransit-s-9800150", "tags": {"stop_lat": "37.698206", "stop_code": "57660", "stop_lon": "-122.109546", "parent_station": "", "stop_id": "9800150", "stop_name": "164th St:Gordon Way", "location_type": ""}}], "type": "Feature", "properties": {}}, {"onestopId": "s-9q9nmjg6pv-delano~ashland", "name": "Delano St:Ashland Av", "tags": {}, "geometry": {"type": "Point", "coordinates": [-122.119222, 37.693094]}, "servedBy": ["o-9q9-actransit"], "identifiers": [{"identifier": "f-actransit-s-9800820", "tags": {"stop_lat": "37.693094", "stop_code": "50778", "stop_lon": "-122.119222", "parent_station": "", "stop_id": "9800820", "stop_name": "Delano St:Ashland Av", "location_type": ""}}], "type": "Feature", "properties": {}}, {"onestopId": "s-9q9nmj5wu1-ashland~crespipl", "name": "Ashland Av:Crespi Pl", "tags": {}, "geometry": {"type": "Point", "coordinates": [-122.119043, 37.689766]}, "servedBy": ["o-9q9-actransit"], "identifiers": [{"identifier": "f-actransit-s-9800210", "tags": {"stop_lat": "37.689766", "stop_code": "59390", "stop_lon": "-122.119043", "parent_station": "", "stop_id": "9800210", "stop_name": "Ashland Av:Crespi Pl", "location_type": ""}}], "type": "Feature", "properties": {}}, {"onestopId": "s-9q9nm95n2z-a~meeklandaccess", "name": "A St:Meekland Av Access Rd", "tags": {}, "geometry": {"type": "Point", "coordinates": [-122.097893, 37.667737]}, "servedBy": ["o-9q9-actransit"], "identifiers": [{"identifier": "f-actransit-s-9800180", "tags": {"stop_lat": "37.667737", "stop_code": "57075", "stop_lon": "-122.097893", "parent_station": "", "stop_id": "9800180", "stop_name": "A St:Meekland Av Access Rd", "location_type": ""}}], "type": "Feature", "properties": {}}, {"onestopId": "s-9q9nmqubs9-foothill~miramonte", "name": "Foothill Blvd:Miramonte Av", "tags": {}, "geometry": {"type": "Point", "coordinates": [-122.106314, 37.698306]}, "servedBy": ["o-9q9-actransit"], "identifiers": [{"identifier": "f-actransit-s-9801420", "tags": {"stop_lat": "37.698306", "stop_code": "51014", "stop_lon": "-122.106314", "parent_station": "", "stop_id": "9801420", "stop_name": "Foothill Blvd:Miramonte Av", "location_type": ""}}], "type": "Feature", "properties": {}}, {"onestopId": "s-9q9nmcdv49-haywardbartstation", "name": "Hayward BART Station", "tags": {}, "geometry": {"type": "Point", "coordinates": [-122.08718, 37.670238]}, "servedBy": ["o-9q9-actransit"], "identifiers": [{"identifier": "f-actransit-s-0802020", "tags": {"stop_lat": "37.670238", "stop_code": "55532", "stop_lon": "-122.087180", "parent_station": "place_HBBA", "stop_id": "0802020", "stop_name": "Hayward BART Station", "location_type": ""}}], "type": "Feature", "properties": {}}, {"onestopId": "s-9q9nmynpbm-castrovalley~anita", "name": "Castro Valley Blvd:Anita Av", "tags": {}, "geometry": {"type": "Point", "coordinates": [-122.08281, 37.695452]}, "servedBy": ["o-9q9-actransit"], "identifiers": [{"identifier": "f-actransit-s-9800380", "tags": {"stop_lat": "37.695452", "stop_code": "54581", "stop_lon": "-122.082810", "parent_station": "", "stop_id": "9800380", "stop_name": "Castro Valley Blvd:Anita Av", "location_type": ""}}], "type": "Feature", "properties": {}}, {"onestopId": "s-9q9nmgqg4g-city~centennialhall", "name": "City Center Dr:Centennial Hall", "tags": {}, "geometry": {"type": "Point", "coordinates": [-122.081675, 37.679521]}, "servedBy": ["o-9q9-actransit"], "identifiers": [{"identifier": "f-actransit-s-0801030", "tags": {"stop_lat": "37.679521", "stop_code": "51710", "stop_lon": "-122.081675", "parent_station": "", "stop_id": "0801030", "stop_name": "City Center Dr:Centennial Hall", "location_type": ""}}], "type": "Feature", "properties": {}}, {"onestopId": "s-9q9nmxq35x-stanton~carlton", "name": "Stanton Av:Carlton Av", "tags": {}, "geometry": {"type": "Point", "coordinates": [-122.093315, 37.70117]}, "servedBy": ["o-9q9-actransit"], "identifiers": [{"identifier": "f-actransit-s-9803120", "tags": {"stop_lat": "37.701170", "stop_code": "54509", "stop_lon": "-122.093315", "parent_station": "", "stop_id": "9803120", "stop_name": "Stanton Av:Carlton Av", "location_type": ""}}], "type": "Feature", "properties": {}}, {"onestopId": "s-9q9nmrkex6-miramar~saratoga", "name": "Miramar Av:Saratoga St", "tags": {}, "geometry": {"type": "Point", "coordinates": [-122.106537, 37.701573]}, "servedBy": ["o-9q9-actransit"], "identifiers": [{"identifier": "f-actransit-s-9802180", "tags": {"stop_lat": "37.701573", "stop_code": "59122", "stop_lon": "-122.106537", "parent_station": "", "stop_id": "9802180", "stop_name": "Miramar Av:Saratoga St", "location_type": ""}}], "type": "Feature", "properties": {}}, {"onestopId": "s-9q9nmpypj5-foothill~manchester", "name": "Foothill Blvd:Manchester Rd", "tags": {}, "geometry": {"type": "Point", "coordinates": [-122.115562, 37.704926]}, "servedBy": ["o-9q9-actransit"], "identifiers": [{"identifier": "f-actransit-s-9801380", "tags": {"stop_lat": "37.704926", "stop_code": "50104", "stop_lon": "-122.115562", "parent_station": "", "stop_id": "9801380", "stop_name": "Foothill Blvd:Manchester Rd", "location_type": ""}}], "type": "Feature", "properties": {}}, {"onestopId": "s-9q9nmz9xb2-lakechabot~barlow", "name": "Lake Chabot Rd:Barlow Dr", "tags": {}, "geometry": {"type": "Point", "coordinates": [-122.088984, 37.703667]}, "servedBy": ["o-9q9-actransit"], "identifiers": [{"identifier": "f-actransit-s-9801910", "tags": {"stop_lat": "37.703667", "stop_code": "53431", "stop_lon": "-122.088984", "parent_station": "", "stop_id": "9801910", "stop_name": "Lake Chabot Rd:Barlow Dr", "location_type": ""}}], "type": "Feature", "properties": {}}, {"onestopId": "s-9q9nm944q4-meekland~a", "name": "Meekland:A St", "tags": {}, "geometry": {"type": "Point", "coordinates": [-122.099046, 37.667028]}, "servedBy": ["o-9q9-actransit"], "identifiers": [{"identifier": "f-actransit-s-0805820", "tags": {"stop_lat": "37.667028", "stop_code": "53819", "stop_lon": "-122.099046", "parent_station": "", "stop_id": "0805820", "stop_name": "Meekland:A St", "location_type": ""}}], "type": "Feature", "properties": {}}, {"onestopId": "s-9q9nmzrs21-somerset~sanmiguel", "name": "Somerset Av:San Miguel Av", "tags": {}, "geometry": {"type": "Point", "coordinates": [-122.080762, 37.701695]}, "servedBy": ["o-9q9-actransit"], "identifiers": [{"identifier": "f-actransit-s-9803020", "tags": {"stop_lat": "37.701695", "stop_code": "56749", "stop_lon": "-122.080762", "parent_station": "", "stop_id": "9803020", "stop_name": "Somerset Av:San Miguel Av", "location_type": ""}}], "type": "Feature", "properties": {}}, {"onestopId": "s-9q9nmz38c4-somerset~bernal", "name": "Somerset Av:Bernal St", "tags": {}, "geometry": {"type": "Point", "coordinates": [-122.088956, 37.701099]}, "servedBy": ["o-9q9-actransit"], "identifiers": [{"identifier": "f-actransit-s-9802980", "tags": {"stop_lat": "37.701099", "stop_code": "52789", "stop_lon": "-122.088956", "parent_station": "", "stop_id": "9802980", "stop_name": "Somerset Av:Bernal St", "location_type": ""}}], "type": "Feature", "properties": {}}, {"onestopId": "s-9q9nm423qz-hesperian~hacienda", "name": "Hesperian Blvd:Hacienda Av", "tags": {}, "geometry": {"type": "Point", "coordinates": [-122.123383, 37.673746]}, "servedBy": ["o-9q9-actransit"], "identifiers": [{"identifier": "f-actransit-s-9801720", "tags": {"stop_lat": "37.673746", "stop_code": "57787", "stop_lon": "-122.123383", "parent_station": "", "stop_id": "9801720", "stop_name": "Hesperian Blvd:Hacienda Av", "location_type": ""}}], "type": "Feature", "properties": {}}, {"onestopId": "s-9q9nmdnwrg-western~laurel", "name": "Western Av:Laurel Av", "tags": {}, "geometry": {"type": "Point", "coordinates": [-122.092784, 37.67321]}, "servedBy": ["o-9q9-actransit"], "identifiers": [{"identifier": "f-actransit-s-0805700", "tags": {"stop_lat": "37.673210", "stop_code": "56158", "stop_lon": "-122.092784", "parent_station": "", "stop_id": "0805700", "stop_name": "Western Av:Laurel Av", "location_type": ""}}], "type": "Feature", "properties": {}}, {"onestopId": "s-9q9nm3ymej-meekland~sunset", "name": "Meekland Av:Sunset Blvd", "tags": {}, "geometry": {"type": "Point", "coordinates": [-122.10432, 37.671718]}, "servedBy": ["o-9q9-actransit"], "identifiers": [{"identifier": "f-actransit-s-9802140", "tags": {"stop_lat": "37.671718", "stop_code": "54125", "stop_lon": "-122.104320", "parent_station": "", "stop_id": "9802140", "stop_name": "Meekland Av:Sunset Blvd", "location_type": ""}}], "type": "Feature", "properties": {}}, {"onestopId": "s-9q9nmmzvyw-foothill~170th", "name": "Foothill Blvd:170th Av", "tags": {}, "geometry": {"type": "Point", "coordinates": [-122.102108, 37.693742]}, "servedBy": ["o-9q9-actransit"], "identifiers": [{"identifier": "f-actransit-s-9801270", "tags": {"stop_lat": "37.693742", "stop_code": "56748", "stop_lon": "-122.102108", "parent_station": "", "stop_id": "9801270", "stop_name": "Foothill Blvd:170th Av", "location_type": ""}}], "type": "Feature", "properties": {}}, {"onestopId": "s-9q9nmp4egt-159th~e14th", "name": "159th Av:E 14th St", "tags": {}, "geometry": {"type": "Point", "coordinates": [-122.120437, 37.70026]}, "servedBy": ["o-9q9-actransit"], "identifiers": [{"identifier": "f-actransit-s-9800040", "tags": {"stop_lat": "37.700260", "stop_code": "51515", "stop_lon": "-122.120437", "parent_station": "", "stop_id": "9800040", "stop_name": "159th Av:E 14th St", "location_type": ""}}], "type": "Feature", "properties": {}}, {"onestopId": "s-9q9nmvb8z4-castrovalley~stanton", "name": "Castro Valley Blvd:Stanton Av", "tags": {}, "geometry": {"type": "Point", "coordinates": [-122.090067, 37.692858]}, "servedBy": ["o-9q9-actransit"], "identifiers": [{"identifier": "f-actransit-s-9800550", "tags": {"stop_lat": "37.692858", "stop_code": "55948", "stop_lon": "-122.090067", "parent_station": "", "stop_id": "9800550", "stop_name": "Castro Valley Blvd:Stanton Av", "location_type": ""}}], "type": "Feature", "properties": {}}, {"onestopId": "s-9q9nm62qyu-wblossom~hathaway", "name": "W Blossom Way:Hathaway Av", "tags": {}, "geometry": {"type": "Point", "coordinates": [-122.112398, 37.674676]}, "servedBy": ["o-9q9-actransit"], "identifiers": [{"identifier": "f-actransit-s-9803260", "tags": {"stop_lat": "37.674676", "stop_code": "55743", "stop_lon": "-122.112398", "parent_station": "", "stop_id": "9803260", "stop_name": "W Blossom Way:Hathaway Av", "location_type": ""}}], "type": "Feature", "properties": {}}, {"onestopId": "s-9q9nmm7uqd-e14th~170th", "name": "E 14th St:170th Av", "tags": {}, "geometry": {"type": "Point", "coordinates": [-122.107603, 37.690715]}, "servedBy": ["o-9q9-actransit"], "identifiers": [{"identifier": "f-actransit-s-9800930", "tags": {"stop_lat": "37.690715", "stop_code": "58622", "stop_lon": "-122.107603", "parent_station": "", "stop_id": "9800930", "stop_name": "E 14th St:170th Av", "location_type": ""}}], "type": "Feature", "properties": {}}, {"onestopId": "s-9q9nmjg6yv-delano~ashland", "name": "Delano St:Ashland Av", "tags": {}, "geometry": {"type": "Point", "coordinates": [-122.119267, 37.693222]}, "servedBy": ["o-9q9-actransit"], "identifiers": [{"identifier": "f-actransit-s-9800810", "tags": {"stop_lat": "37.693222", "stop_code": "53130", "stop_lon": "-122.119267", "parent_station": "", "stop_id": "9800810", "stop_name": "Delano St:Ashland Av", "location_type": ""}}], "type": "Feature", "properties": {}}, {"onestopId": "s-9q9nmqv0t4-foothill~montessorischool", "name": "Foothill Blvd:Montessori School", "tags": {}, "geometry": {"type": "Point", "coordinates": [-122.10595, 37.698311]}, "servedBy": ["o-9q9-actransit"], "identifiers": [{"identifier": "f-actransit-s-9801430", "tags": {"stop_lat": "37.698311", "stop_code": "56578", "stop_lon": "-122.105950", "parent_station": "", "stop_id": "9801430", "stop_name": "Foothill Blvd:Montessori School", "location_type": ""}}], "type": "Feature", "properties": {}}, {"onestopId": "s-9q9nmfw7j5-foothill~a", "name": "Foothill Blvd:A St", "tags": {}, "geometry": {"type": "Point", "coordinates": [-122.082258, 37.675398]}, "servedBy": ["o-9q9-actransit"], "identifiers": [{"identifier": "f-actransit-s-9902490", "tags": {"stop_lat": "37.675398", "stop_code": "51097", "stop_lon": "-122.082258", "parent_station": "", "stop_id": "9902490", "stop_name": "Foothill Blvd:A St", "location_type": ""}}], "type": "Feature", "properties": {}}, {"onestopId": "s-9q9nm1bgq3-bockman~viaarriba", "name": "Bockman Rd:Via Arriba", "tags": {}, "geometry": {"type": "Point", "coordinates": [-122.122717, 37.671314]}, "servedBy": ["o-9q9-actransit"], "identifiers": [{"identifier": "f-actransit-s-9804630", "tags": {"stop_lat": "37.671314", "stop_code": "53143", "stop_lon": "-122.122717", "parent_station": "", "stop_id": "9804630", "stop_name": "Bockman Rd:Via Arriba", "location_type": ""}}], "type": "Feature", "properties": {}}, {"onestopId": "s-9q9nmp77mg-159th~mateo", "name": "159th Av:Mateo St", "tags": {}, "geometry": {"type": "Point", "coordinates": [-122.119311, 37.701537]}, "servedBy": ["o-9q9-actransit"], "identifiers": [{"identifier": "f-actransit-s-9800070", "tags": {"stop_lat": "37.701537", "stop_code": "57769", "stop_lon": "-122.119311", "parent_station": "", "stop_id": "9800070", "stop_name": "159th Av:Mateo St", "location_type": ""}}], "type": "Feature", "properties": {}}, {"onestopId": "s-9q9nmcb9zq-western~a", "name": "Western Av:A St", "tags": {}, "geometry": {"type": "Point", "coordinates": [-122.090065, 37.67108]}, "servedBy": ["o-9q9-actransit"], "identifiers": [{"identifier": "f-actransit-s-0805710", "tags": {"stop_lat": "37.671080", "stop_code": "56168", "stop_lon": "-122.090065", "parent_station": "", "stop_id": "0805710", "stop_name": "Western Av:A St", "location_type": ""}}], "type": "Feature", "properties": {}}, {"onestopId": "s-9q9nm42szx-hacienda~hesperian", "name": "Hacienda Av:Hesperian Blvd", "tags": {}, "geometry": {"type": "Point", "coordinates": [-122.123006, 37.67435]}, "servedBy": ["o-9q9-actransit"], "identifiers": [{"identifier": "f-actransit-s-9801600", "tags": {"stop_lat": "37.674350", "stop_code": "57858", "stop_lon": "-122.123006", "parent_station": "", "stop_id": "9801600", "stop_name": "Hacienda Av:Hesperian Blvd", "location_type": ""}}], "type": "Feature", "properties": {}}, {"onestopId": "s-9q9nmr5q1e-foothill~164th", "name": "Foothill Blvd:164th St", "tags": {}, "geometry": {"type": "Point", "coordinates": [-122.108499, 37.700632]}, "servedBy": ["o-9q9-actransit"], "identifiers": [{"identifier": "f-actransit-s-9801240", "tags": {"stop_lat": "37.700632", "stop_code": "56764", "stop_lon": "-122.108499", "parent_station": "", "stop_id": "9801240", "stop_name": "Foothill Blvd:164th St", "location_type": ""}}], "type": "Feature", "properties": {}}, {"onestopId": "s-9q9nmxmjdd-stanton~acorn", "name": "Stanton Av:Acorn St", "tags": {}, "geometry": {"type": "Point", "coordinates": [-122.095069, 37.701916]}, "servedBy": ["o-9q9-actransit"], "identifiers": [{"identifier": "f-actransit-s-9803090", "tags": {"stop_lat": "37.701916", "stop_code": "56794", "stop_lon": "-122.095069", "parent_station": "", "stop_id": "9803090", "stop_name": "Stanton Av:Acorn St", "location_type": ""}}], "type": "Feature", "properties": {}}, {"onestopId": "s-9q9nmce807-haywardbartstation", "name": "Hayward BART Station", "tags": {}, "geometry": {"type": "Point", "coordinates": [-122.086244, 37.669389]}, "servedBy": ["o-9q9-actransit"], "identifiers": [{"identifier": "f-actransit-s-0802080", "tags": {"stop_lat": "37.669389", "stop_code": "52522", "stop_lon": "-122.086244", "parent_station": "place_HBBA", "stop_id": "0802080", "stop_name": "Hayward BART Station", "location_type": ""}}], "type": "Feature", "properties": {}}, {"onestopId": "s-9q9nmfws7j-foothill~a", "name": "Foothill Blvd:A St", "tags": {}, "geometry": {"type": "Point", "coordinates": [-122.082009, 37.675626]}, "servedBy": ["o-9q9-actransit"], "identifiers": [{"identifier": "f-actransit-s-0801820", "tags": {"stop_lat": "37.675626", "stop_code": "54490", "stop_lon": "-122.082009", "parent_station": "", "stop_id": "0801820", "stop_name": "Foothill Blvd:A St", "location_type": ""}}], "type": "Feature", "properties": {}}, {"onestopId": "s-9q9nm3p0h9-a~hathaway", "name": "A St:Hathaway Av", "tags": {}, "geometry": {"type": "Point", "coordinates": [-122.103222, 37.666634]}, "servedBy": ["o-9q9-actransit"], "identifiers": [{"identifier": "f-actransit-s-0800230", "tags": {"stop_lat": "37.666634", "stop_code": "53644", "stop_lon": "-122.103222", "parent_station": "", "stop_id": "0800230", "stop_name": "A St:Hathaway Av", "location_type": ""}}], "type": "Feature", "properties": {}}, {"onestopId": "s-9q9nmfd8k2-mission~grace", "name": "Mission Blvd:Grace St", "tags": {}, "geometry": {"type": "Point", "coordinates": [-122.087448, 37.674909]}, "servedBy": ["o-9q9-actransit"], "identifiers": [{"identifier": "f-actransit-s-0803460", "tags": {"stop_lat": "37.674909", "stop_code": "56345", "stop_lon": "-122.087448", "parent_station": "", "stop_id": "0803460", "stop_name": "Mission Blvd:Grace St", "location_type": ""}}], "type": "Feature", "properties": {}}, {"onestopId": "s-9q9nm941gs-meekland~a", "name": "Meekland:A St", "tags": {}, "geometry": {"type": "Point", "coordinates": [-122.099144, 37.66695]},