{"prefix": "9q9kc", "type": "FeatureCollection", "properties": {}, "features": [{"onestopId": "s-9q9kcvp0y9-smain~corning", "name": "S Main St:Corning Av", "tags": {}, "geometry": {"type": "Point", "coordinates": [-121.905382, 37.425066]}, "servedBy": ["o-9q9-actransit"], "identifiers": [{"identifier": "f-actransit-s-9802710", "tags": {"stop_lat": "37.425066", "stop_code": "58873", "stop_lon": "-121.905382", "parent_station": "", "stop_id": "9802710", "stop_name": "S Main St:Corning Av", "location_type": ""}}], "type": "Feature", "properties": {}}, {"onestopId": "s-9q9kcvwqjk-smain~serra", "name": "S Main St:Serra Way", "tags": {}, "geometry": {"type": "Point", "coordinates": [-121.906468, 37.428727]}, "servedBy": ["o-9q9-actransit"], "identifiers": [{"identifier": "f-actransit-s-9802790", "tags": {"stop_lat": "37.428727", "stop_code": "54887", "stop_lon": "-121.906468", "parent_station": "", "stop_id": "9802790", "stop_name": "S Main St:Serra Way", "location_type": ""}}], "type": "Feature", "properties": {}}, {"onestopId": "s-9q9kcyjy3c-nmain~calaveras237", "name": "N Main St:Calaveras Blvd (Hwy 237)", "tags": {}, "geometry": {"type": "Point", "coordinates": [-121.90731, 37.4315]}, "servedBy": ["o-9q9-actransit"], "identifiers": [{"identifier": "f-actransit-s-9802320", "tags": {"stop_lat": "37.431500", "stop_code": "57647", "stop_lon": "-121.907310", "parent_station": "", "stop_id": "9802320", "stop_name": "N Main St:Calaveras Blvd (Hwy 237)", "location_type": ""}}], "type": "Feature", "properties": {}}, {"onestopId": "s-9q9kcvwhp4-serry~main", "name": "Serry Way:Main St", "tags": {}, "geometry": {"type": "Point", "coordinates": [-121.906742, 37.428371]}, "servedBy": ["o-9q9-actransit"], "identifiers": [{"identifier": "f-actransit-s-2300080", "tags": {"stop_lat": "37.428371", "stop_code": "50306", "stop_lon": "-121.906742", "parent_station": "", "stop_id": "2300080", "stop_name": "Serry Way:Main St", "location_type": ""}}], "type": "Feature", "properties": {}}, {"onestopId": "s-9q9kcury8v-smain~615", "name": "S Main St:#615", "tags": {}, "geometry": {"type": "Point", "coordinates": [-121.9046, 37.421954]}, "servedBy": ["o-9q9-actransit"], "identifiers": [{"identifier": "f-actransit-s-9802700", "tags": {"stop_lat": "37.421954", "stop_code": "56545", "stop_lon": "-121.904600", "parent_station": "", "stop_id": "9802700", "stop_name": "S Main St:#615", "location_type": ""}}], "type": "Feature", "properties": {}}, {"onestopId": "s-9q9kcuzphq-smain~corning", "name": "S Main St:Corning Av", "tags": {}, "geometry": {"type": "Point", "coordinates": [-121.905479, 37.42479]}, "servedBy": ["o-9q9-actransit"], "identifiers": [{"identifier": "f-actransit-s-9802720", "tags": {"stop_lat": "37.424790", "stop_code": "53772", "stop_lon": "-121.905479", "parent_station": "", "stop_id": "9802720", "stop_name": "S Main St:Corning Av", "location_type": ""}}], "type": "Feature", "properties": {}}, {"onestopId": "s-9q9kcurwjk-smain~615", "name": "S Main St:#615", "tags": {}, "geometry": {"type": "Point", "coordinates": [-121.904754, 37.421862]}, "servedBy": ["o-9q9-actransit"], "identifiers": [{"identifier": "f-actransit-s-9802690", "tags": {"stop_lat": "37.421862", "stop_code": "56682", "stop_lon": "-121.904754", "parent_station": "", "stop_id": "9802690", "stop_name": "S Main St:#615", "location_type": ""}}], "type": "Feature", "properties": {}}]}