{"prefix": "9q9k1", "type": "FeatureCollection", "properties": {}, "features": [{"onestopId": "s-9q9k19hh8v-leigh~potrero", "name": "LEIGH & POTRERO", "tags": {}, "geometry": {"type": "Point", "coordinates": [-121.920740401, 37.271920335]}, "servedBy": ["o-9q9-vta"], "identifiers": [{"identifier": "f-vta-s-3122", "tags": {"stop_lat": "37.271920334999997", "zone_id": "1", "stop_lon": "-121.920740401", "stop_id": "3122", "stop_desc": "", "stop_name": "LEIGH & POTRERO"}}], "type": "Feature", "properties": {}}, {"onestopId": "s-9q9k10hcwm-bascom~camden", "name": "BASCOM & CAMDEN", "tags": {}, "geometry": {"type": "Point", "coordinates": [-121.941446697, 37.26591059]}, "servedBy": ["o-9q9-vta"], "identifiers": [{"identifier": "f-vta-s-2889", "tags": {"stop_lat": "37.265910589999997", "zone_id": "1", "stop_lon": "-121.941446697", "stop_id": "2889", "stop_desc": "", "stop_name": "BASCOM & CAMDEN"}}], "type": "Feature", "properties": {}}, {"onestopId": "s-9q9k19f6wz-curtner~leigh", "name": "CURTNER & LEIGH", "tags": {}, "geometry": {"type": "Point", "coordinates": [-121.922888405, 37.275705182]}, "servedBy": ["o-9q9-vta"], "identifiers": [{"identifier": "f-vta-s-921", "tags": {"stop_lat": "37.275705182000003", "zone_id": "1", "stop_lon": "-121.92288840499999", "stop_id": "921", "stop_desc": "", "stop_name": "CURTNER & LEIGH"}}], "type": "Feature", "properties": {}}, {"onestopId": "s-9q9k1g1mu5-meridian~maykirk", "name": "MERIDIAN & MAYKIRK", "tags": {}, "geometry": {"type": "Point", "coordinates": [-121.913387271, 37.283111016]}, "servedBy": ["o-9q9-vta"], "identifiers": [{"identifier": "f-vta-s-2922", "tags": {"stop_lat": "37.283111015999999", "zone_id": "1", "stop_lon": "-121.913387271", "stop_id": "2922", "stop_desc": "", "stop_name": "MERIDIAN & MAYKIRK"}}], "type": "Feature", "properties": {}}, {"onestopId": "s-9q9k18ewhk-leigh~orangegrove", "name": "LEIGH & ORANGE GROVE", "tags": {}, "geometry": {"type": "Point", "coordinates": [-121.92127152, 37.26942756]}, "servedBy": ["o-9q9-vta"], "identifiers": [{"identifier": "f-vta-s-3160", "tags": {"stop_lat": "37.269427559999997", "zone_id": "1", "stop_lon": "-121.92127152", "stop_id": "3160", "stop_desc": "", "stop_name": "LEIGH & ORANGE GROVE"}}], "type": "Feature", "properties": {}}, {"onestopId": "s-9q9k1byzgp-meridian~foxworthy", "name": "MERIDIAN & FOXWORTHY", "tags": {}, "geometry": {"type": "Point", "coordinates": [-121.905879091, 37.271115095]}, "servedBy": ["o-9q9-vta"], "identifiers": [{"identifier": "f-vta-s-2918", "tags": {"stop_lat": "37.271115094999999", "zone_id": "1", "stop_lon": "-121.905879091", "stop_id": "2918", "stop_desc": "", "stop_name": "MERIDIAN & FOXWORTHY"}}], "type": "Feature", "properties": {}}, {"onestopId": "s-9q9k15vuw8-campbell~gilman", "name": "CAMPBELL & GILMAN", "tags": {}, "geometry": {"type": "Point", "coordinates": [-121.940056496, 37.286998957]}, "servedBy": ["o-9q9-vta"], "identifiers": [{"identifier": "f-vta-s-911", "tags": {"stop_lat": "37.286998957000002", "zone_id": "1", "stop_lon": "-121.940056496", "stop_id": "911", "stop_desc": "", "stop_name": "CAMPBELL & GILMAN"}}], "type": "Feature", "properties": {}}, {"onestopId": "s-9q9k12k0h7-union~foxworthy", "name": "UNION & FOXWORTHY", "tags": {}, "geometry": {"type": "Point", "coordinates": [-121.93157561, 37.267018243]}, "servedBy": ["o-9q9-vta"], "identifiers": [{"identifier": "f-vta-s-1690", "tags": {"stop_lat": "37.267018243000003", "zone_id": "1", "stop_lon": "-121.93157561", "stop_id": "1690", "stop_desc": "", "stop_name": "UNION & FOXWORTHY"}}], "type": "Feature", "properties": {}}, {"onestopId": "s-9q9k1t6tqb-leigh~hamilton", "name": "LEIGH & HAMILTON", "tags": {}, "geometry": {"type": "Point", "coordinates": [-121.922540065, 37.295368584]}, "servedBy": ["o-9q9-vta"], "identifiers": [{"identifier": "f-vta-s-3128", "tags": {"stop_lat": "37.295368584000002", "zone_id": "1", "stop_lon": "-121.92254006500001", "stop_id": "3128", "stop_desc": "", "stop_name": "LEIGH & HAMILTON"}}], "type": "Feature", "properties": {}}, {"onestopId": "s-9q9k1qjj1u-bascomstation1", "name": "BASCOM STATION (1)", "tags": {}, "geometry": {"type": "Point", "coordinates": [-121.93030419, 37.29946665]}, "servedBy": ["o-9q9-vta"], "identifiers": [{"identifier": "f-vta-s-5384", "tags": {"stop_lat": "37.299466649999999", "zone_id": "1", "stop_lon": "-121.93030419", "stop_id": "5384", "stop_desc": "", "stop_name": "BASCOM STATION (1)"}}], "type": "Feature", "properties": {}}, {"onestopId": "s-9q9k1t5nve-hamilton~leigh", "name": "HAMILTON & LEIGH", "tags": {}, "geometry": {"type": "Point", "coordinates": [-121.921905552, 37.294266373]}, "servedBy": ["o-9q9-vta"], "identifiers": [{"identifier": "f-vta-s-4110", "tags": {"stop_lat": "37.294266372999999", "zone_id": "1", "stop_lon": "-121.921905552", "stop_id": "4110", "stop_desc": "", "stop_name": "HAMILTON & LEIGH"}}], "type": "Feature", "properties": {}}, {"onestopId": "s-9q9k15ex0b-orchardcity~central", "name": "ORCHARD CITY & CENTRAL", "tags": {}, "geometry": {"type": "Point", "coordinates": [-121.943398242, 37.286057954]}, "servedBy": ["o-9q9-vta"], "identifiers": [{"identifier": "f-vta-s-910", "tags": {"stop_lat": "37.286057954", "zone_id": "1", "stop_lon": "-121.943398242", "stop_id": "910", "stop_desc": "", "stop_name": "ORCHARD CITY & CENTRAL"}}], "type": "Feature", "properties": {}}, {"onestopId": "s-9q9k1bhydk-hillsdale~kirk", "name": "HILLSDALE & KIRK", "tags": {}, "geometry": {"type": "Point", "coordinates": [-121.908656204, 37.266765661]}, "servedBy": ["o-9q9-vta"], "identifiers": [{"identifier": "f-vta-s-1732", "tags": {"stop_lat": "37.266765661000001", "zone_id": "1", "stop_lon": "-121.908656204", "stop_id": "1732", "stop_desc": "", "stop_name": "HILLSDALE & KIRK"}}], "type": "Feature", "properties": {}}, {"onestopId": "s-9q9k1q5fqj-bascom~pamlar", "name": "BASCOM & PAMLAR", "tags": {}, "geometry": {"type": "Point", "coordinates": [-121.931838427, 37.298997158]}, "servedBy": ["o-9q9-vta"], "identifiers": [{"identifier": "f-vta-s-2879", "tags": {"stop_lat": "37.298997157999999", "zone_id": "1", "stop_lon": "-121.931838427", "stop_id": "2879", "stop_desc": "", "stop_name": "BASCOM & PAMLAR"}}], "type": "Feature", "properties": {}}, {"onestopId": "s-9q9k1zqeeu-willow~cherry", "name": "WILLOW & CHERRY", "tags": {}, "geometry": {"type": "Point", "coordinates": [-121.906191029, 37.306074444]}, "servedBy": ["o-9q9-vta"], "identifiers": [{"identifier": "f-vta-s-741", "tags": {"stop_lat": "37.306074443999997", "zone_id": "1", "stop_lon": "-121.906191029", "stop_id": "741", "stop_desc": "", "stop_name": "WILLOW & CHERRY"}}], "type": "Feature", "properties": {}}, {"onestopId": "s-9q9k1vc5v2-meridian~blackford", "name": "MERIDIAN & BLACKFORD", "tags": {}, "geometry": {"type": "Point", "coordinates": [-121.913680493, 37.297856512]}, "servedBy": ["o-9q9-vta"], "identifiers": [{"identifier": "f-vta-s-2960", "tags": {"stop_lat": "37.297856512000003", "zone_id": "1", "stop_lon": "-121.913680493", "stop_id": "2960", "stop_desc": "", "stop_name": "MERIDIAN & BLACKFORD"}}], "type": "Feature", "properties": {}}, {"onestopId": "s-9q9k1grf69-curtner~booksin", "name": "CURTNER & BOOKSIN", "tags": {}, "geometry": {"type": "Point", "coordinates": [-121.904530561, 37.283871975]}, "servedBy": ["o-9q9-vta"], "identifiers": [{"identifier": "f-vta-s-967", "tags": {"stop_lat": "37.283871974999997", "zone_id": "1", "stop_lon": "-121.904530561", "stop_id": "967", "stop_desc": "", "stop_name": "CURTNER & BOOKSIN"}}], "type": "Feature", "properties": {}}, {"onestopId": "s-9q9k1ycw92-willow~meridian", "name": "WILLOW & MERIDIAN", "tags": {}, "geometry": {"type": "Point", "coordinates": [-121.913159387, 37.303823631]}, "servedBy": ["o-9q9-vta"], "identifiers": [{"identifier": "f-vta-s-739", "tags": {"stop_lat": "37.303823631", "zone_id": "1", "stop_lon": "-121.91315938699999", "stop_id": "739", "stop_desc": "", "stop_name": "WILLOW & MERIDIAN"}}], "type": "Feature", "properties": {}}, {"onestopId": "s-9q9k135xbs-curtner~union", "name": "CURTNER & UNION", "tags": {}, "geometry": {"type": "Point", "coordinates": [-121.932420582, 37.272475017]}, "servedBy": ["o-9q9-vta"], "identifiers": [{"identifier": "f-vta-s-919", "tags": {"stop_lat": "37.272475016999998", "zone_id": "1", "stop_lon": "-121.93242058200001", "stop_id": "919", "stop_desc": "", "stop_name": "CURTNER & UNION"}}], "type": "Feature", "properties": {}}, {"onestopId": "s-9q9k16gzyy-bascom~apricot", "name": "BASCOM & APRICOT", "tags": {}, "geometry": {"type": "Point", "coordinates": [-121.931810562, 37.282097011]}, "servedBy": ["o-9q9-vta"], "identifiers": [{"identifier": "f-vta-s-915", "tags": {"stop_lat": "37.282097010999998", "zone_id": "1", "stop_lon": "-121.931810562", "stop_id": "915", "stop_desc": "", "stop_name": "BASCOM & APRICOT"}}], "type": "Feature", "properties": {}}, {"onestopId": "s-9q9k184ft9-leigh~geneva", "name": "LEIGH & GENEVA", "tags": {}, "geometry": {"type": "Point", "coordinates": [-121.922251954, 37.26606474]}, "servedBy": ["o-9q9-vta"], "identifiers": [{"identifier": "f-vta-s-3120", "tags": {"stop_lat": "37.266064739999997", "zone_id": "1", "stop_lon": "-121.922251954", "stop_id": "3120", "stop_desc": "", "stop_name": "LEIGH & GENEVA"}}], "type": "Feature", "properties": {}}, {"onestopId": "s-9q9k17gfnd-bascom~campbell", "name": "BASCOM & CAMPBELL", "tags": {}, "geometry": {"type": "Point", "coordinates": [-121.931822567, 37.286579487]}, "servedBy": ["o-9q9-vta"], "identifiers": [{"identifier": "f-vta-s-913", "tags": {"stop_lat": "37.286579486999997", "zone_id": "1", "stop_lon": "-121.931822567", "stop_id": "913", "stop_desc": "", "stop_name": "BASCOM & CAMPBELL"}}], "type": "Feature", "properties": {}}, {"onestopId": "s-9q9k1m0v9m-hamiltonstation0", "name": "HAMILTON STATION (0)", "tags": {}, "geometry": {"type": "Point", "coordinates": [-121.93616684, 37.29406405]}, "servedBy": ["o-9q9-vta"], "identifiers": [{"identifier": "f-vta-s-5378", "tags": {"stop_lat": "37.294064050000003", "zone_id": "1", "stop_lon": "-121.93616684", "stop_id": "5378", "stop_desc": "", "stop_name": "HAMILTON STATION (0)"}}], "type": "Feature", "properties": {}}, {"onestopId": "s-9q9k17knwh-bascom~elsolyo", "name": "BASCOM & EL SOLYO", "tags": {}, "geometry": {"type": "Point", "coordinates": [-121.931498842, 37.284619793]}, "servedBy": ["o-9q9-vta"], "identifiers": [{"identifier": "f-vta-s-979", "tags": {"stop_lat": "37.284619792999997", "zone_id": "1", "stop_lon": "-121.931498842", "stop_id": "979", "stop_desc": "", "stop_name": "BASCOM & EL SOLYO"}}], "type": "Feature", "properties": {}}, {"onestopId": "s-9q9k1zrqw5-willow~carolyn", "name": "WILLOW & CAROLYN", "tags": {}, "geometry": {"type": "Point", "coordinates": [-121.905061762, 37.306583006]}, "servedBy": ["o-9q9-vta"], "identifiers": [{"identifier": "f-vta-s-742", "tags": {"stop_lat": "37.306583005999997", "zone_id": "1", "stop_lon": "-121.905061762", "stop_id": "742", "stop_desc": "", "stop_name": "WILLOW & CAROLYN"}}], "type": "Feature", "properties": {}}, {"onestopId": "s-9q9k1qs4v0-bascom~stokes", "name": "BASCOM & STOKES", "tags": {}, "geometry": {"type": "Point", "coordinates": [-121.931546498, 37.301803949]}, "servedBy": ["o-9q9-vta"], "identifiers": [{"identifier": "f-vta-s-2817", "tags": {"stop_lat": "37.301803949000004", "zone_id": "1", "stop_lon": "-121.931546498", "stop_id": "2817", "stop_desc": "", "stop_name": "BASCOM & STOKES"}}], "type": "Feature", "properties": {}}, {"onestopId": "s-9q9k15ee8v-campbellstation1", "name": "CAMPBELL STATION (1)", "tags": {}, "geometry": {"type": "Point", "coordinates": [-121.94339544, 37.28548307]}, "servedBy": ["o-9q9-vta"], "identifiers": [{"identifier": "f-vta-s-5386", "tags": {"stop_lat": "37.285483069999998", "zone_id": "1", "stop_lon": "-121.94339544", "stop_id": "5386", "stop_desc": "", "stop_name": "CAMPBELL STATION (1)"}}], "type": "Feature", "properties": {}}, {"onestopId": "s-9q9k1481ry-winchesterstation0", "name": "WINCHESTER STATION (0)", "tags": {}, "geometry": {"type": "Point", "coordinates": [-121.94790653, 37.27960951]}, "servedBy": ["o-9q9-vta"], "identifiers": [{"identifier": "f-vta-s-5380", "tags": {"stop_lat": "37.27960951", "zone_id": "1", "stop_lon": "-121.94790653", "stop_id": "5380", "stop_desc": "", "stop_name": "WINCHESTER STATION (0)"}}], "type": "Feature", "properties": {}}, {"onestopId": "s-9q9k177yyc-bascom~elsolyo", "name": "BASCOM & EL SOLYO", "tags": {}, "geometry": {"type": "Point", "coordinates": [-121.931814494, 37.284646537]}, "servedBy": ["o-9q9-vta"], "identifiers": [{"identifier": "f-vta-s-914", "tags": {"stop_lat": "37.284646537", "zone_id": "1", "stop_lon": "-121.93181449399999", "stop_id": "914", "stop_desc": "", "stop_name": "BASCOM & EL SOLYO"}}], "type": "Feature", "properties": {}}, {"onestopId": "s-9q9k1mpqer-hamilton~april", "name": "HAMILTON & APRIL", "tags": {}, "geometry": {"type": "Point", "coordinates": [-121.927150224, 37.294247374]}, "servedBy": ["o-9q9-vta"], "identifiers": [{"identifier": "f-vta-s-4108", "tags": {"stop_lat": "37.294247374000001", "zone_id": "1", "stop_lon": "-121.927150224", "stop_id": "4108", "stop_desc": "", "stop_name": "HAMILTON & APRIL"}}], "type": "Feature", "properties": {}}, {"onestopId": "s-9q9k1jhn0m-hamilton~harrison", "name": "HAMILTON & HARRISON", "tags": {}, "geometry": {"type": "Point", "coordinates": [-121.942732288, 37.294148408]}, "servedBy": ["o-9q9-vta"], "identifiers": [{"identifier": "f-vta-s-4105", "tags": {"stop_lat": "37.294148407999998", "zone_id": "1", "stop_lon": "-121.942732288", "stop_id": "4105", "stop_desc": "", "stop_name": "HAMILTON & HARRISON"}}], "type": "Feature", "properties": {}}, {"onestopId": "s-9q9k133zfc-bascom~union", "name": "BASCOM & UNION", "tags": {}, "geometry": {"type": "Point", "coordinates": [-121.934732605, 37.273829956]}, "servedBy": ["o-9q9-vta"], "identifiers": [{"identifier": "f-vta-s-2886", "tags": {"stop_lat": "37.273829956", "zone_id": "1", "stop_lon": "-121.93473260499999", "stop_id": "2886", "stop_desc": "", "stop_name": "BASCOM & UNION"}}], "type": "Feature", "properties": {}}, {"onestopId": "s-9q9k1dr0qn-curtner~dumbarton", "name": "CURTNER & DUMBARTON", "tags": {}, "geometry": {"type": "Point", "coordinates": [-121.916397254, 37.278063569]}, "servedBy": ["o-9q9-vta"], "identifiers": [{"identifier": "f-vta-s-923", "tags": {"stop_lat": "37.278063568999997", "zone_id": "1", "stop_lon": "-121.916397254", "stop_id": "923", "stop_desc": "", "stop_name": "CURTNER & DUMBARTON"}}], "type": "Feature", "properties": {}}, {"onestopId": "s-9q9k1v283g-hamilton~meridian", "name": "HAMILTON & MERIDIAN", "tags": {}, "geometry": {"type": "Point", "coordinates": [-121.914513704, 37.294527355]}, "servedBy": ["o-9q9-vta"], "identifiers": [{"identifier": "f-vta-s-4186", "tags": {"stop_lat": "37.294527355", "zone_id": "1", "stop_lon": "-121.914513704", "stop_id": "4186", "stop_desc": "", "stop_name": "HAMILTON & MERIDIAN"}}], "type": "Feature", "properties": {}}, {"onestopId": "s-9q9k1qjrmh-bascomstation0", "name": "BASCOM STATION (0)", "tags": {}, "geometry": {"type": "Point", "coordinates": [-121.92983014, 37.29985056]}, "servedBy": ["o-9q9-vta"], "identifiers": [{"identifier": "f-vta-s-5377", "tags": {"stop_lat": "37.299850560000003", "zone_id": "1", "stop_lon": "-121.92983014000001", "stop_id": "5377", "stop_desc": "", "stop_name": "BASCOM STATION (0)"}}], "type": "Feature", "properties": {}}, {"onestopId": "s-9q9k1xe4gb-leigh~southwestexpwy", "name": "LEIGH & SOUTHWEST EXPWY", "tags": {}, "geometry": {"type": "Point", "coordinates": [-121.921979835, 37.307296567]}, "servedBy": ["o-9q9-vta"], "identifiers": [{"identifier": "f-vta-s-3132", "tags": {"stop_lat": "37.307296567000002", "zone_id": "1", "stop_lon": "-121.921979835", "stop_id": "3132", "stop_desc": "", "stop_name": "LEIGH & SOUTHWEST EXPWY"}}], "type": "Feature", "properties": {}}, {"onestopId": "s-9q9k1bqux5-hillsdale~meridian", "name": "HILLSDALE & MERIDIAN", "tags": {}, "geometry": {"type": "Point", "coordinates": [-121.905707853, 37.267787582]}, "servedBy": ["o-9q9-vta"], "identifiers": [{"identifier": "f-vta-s-1731", "tags": {"stop_lat": "37.267787581999997", "zone_id": "1", "stop_lon": "-121.905707853", "stop_id": "1731", "stop_desc": "", "stop_name": "HILLSDALE & MERIDIAN"}}], "type": "Feature", "properties": {}}, {"onestopId": "s-9q9k1s6v05-leigh~mcbain", "name": "LEIGH & MC BAIN", "tags": {}, "geometry": {"type": "Point", "coordinates": [-121.922490081, 37.289848133]}, "servedBy": ["o-9q9-vta"], "identifiers": [{"identifier": "f-vta-s-3127", "tags": {"stop_lat": "37.289848133", "zone_id": "1", "stop_lon": "-121.92249008100001", "stop_id": "3127", "stop_desc": "", "stop_name": "LEIGH & MC BAIN"}}], "type": "Feature", "properties": {}}, {"onestopId": "s-9q9k19f7t4-curtner~leigh", "name": "CURTNER & LEIGH", "tags": {}, "geometry": {"type": "Point", "coordinates": [-121.922955968, 37.275853168]}, "servedBy": ["o-9q9-vta"], "identifiers": [{"identifier": "f-vta-s-972", "tags": {"stop_lat": "37.275853167999998", "zone_id": "1", "stop_lon": "-121.922955968", "stop_id": "972", "stop_desc": "", "stop_name": "CURTNER & LEIGH"}}], "type": "Feature", "properties": {}}, {"onestopId": "s-9q9k1k5by0-bascom~fewtrell", "name": "BASCOM & FEWTRELL", "tags": {}, "geometry": {"type": "Point", "coordinates": [-121.931841655, 37.287728322]}, "servedBy": ["o-9q9-vta"], "identifiers": [{"identifier": "f-vta-s-2882", "tags": {"stop_lat": "37.287728322", "zone_id": "1", "stop_lon": "-121.931841655", "stop_id": "2882", "stop_desc": "", "stop_name": "BASCOM & FEWTRELL"}}], "type": "Feature", "properties": {}}, {"onestopId": "s-9q9k1kspyp-bascom~campisi", "name": "BASCOM & CAMPISI", "tags": {}, "geometry": {"type": "Point", "coordinates": [-121.931503522, 37.291717468]}, "servedBy": ["o-9q9-vta"], "identifiers": [{"identifier": "f-vta-s-2814", "tags": {"stop_lat": "37.291717468000002", "zone_id": "1", "stop_lon": "-121.931503522", "stop_id": "2814", "stop_desc": "", "stop_name": "BASCOM & CAMPISI"}}], "type": "Feature", "properties": {}}, {"onestopId": "s-9q9k1z3m2z-meridian~westwood", "name": "MERIDIAN & WESTWOOD", "tags": {}, "geometry": {"type": "Point", "coordinates": [-121.913530384, 37.306390899]}, "servedBy": ["o-9q9-vta"], "identifiers": [{"identifier": "f-vta-s-809", "tags": {"stop_lat": "37.306390899", "zone_id": "1", "stop_lon": "-121.913530384", "stop_id": "809", "stop_desc": "", "stop_name": "MERIDIAN & WESTWOOD"}}], "type": "Feature", "properties": {}}, {"onestopId": "s-9q9k1ct68h-meridian~husted", "name": "MERIDIAN & HUSTED", "tags": {}, "geometry": {"type": "Point", "coordinates": [-121.908069668, 37.274318729]}, "servedBy": ["o-9q9-vta"], "identifiers": [{"identifier": "f-vta-s-2919", "tags": {"stop_lat": "37.274318729000001", "zone_id": "1", "stop_lon": "-121.908069668", "stop_id": "2919", "stop_desc": "", "stop_name": "MERIDIAN & HUSTED"}}], "type": "Feature", "properties": {}}, {"onestopId": "s-9q9k1z597m-willow~gleneyre", "name": "WILLOW & GLEN EYRE", "tags": {}, "geometry": {"type": "Point", "coordinates": [-121.910333698, 37.304321449]}, "servedBy": ["o-9q9-vta"], "identifiers": [{"identifier": "f-vta-s-807", "tags": {"stop_lat": "37.304321449", "zone_id": "1", "stop_lon": "-121.910333698", "stop_id": "807", "stop_desc": "", "stop_name": "WILLOW & GLEN EYRE"}}], "type": "Feature", "properties": {}}, {"onestopId": "s-9q9k130tp3-bascom~curtner", "name": "BASCOM & CURTNER", "tags": {}, "geometry": {"type": "Point", "coordinates": [-121.936252686, 37.271983312]}, "servedBy": ["o-9q9-vta"], "identifiers": [{"identifier": "f-vta-s-2887", "tags": {"stop_lat": "37.271983312000003", "zone_id": "1", "stop_lon": "-121.936252686", "stop_id": "2887", "stop_desc": "", "stop_name": "BASCOM & CURTNER"}}], "type": "Feature", "properties": {}}, {"onestopId": "s-9q9k1g1hw2-meridian~maykirk", "name": "MERIDIAN & MAYKIRK", "tags": {}, "geometry": {"type": "Point", "coordinates": [-121.91363962, 37.282879749]}, "servedBy": ["o-9q9-vta"], "identifiers": [{"identifier": "f-vta-s-2964", "tags": {"stop_lat": "37.282879749000003", "zone_id": "1", "stop_lon": "-121.91363962", "stop_id": "2964", "stop_desc": "", "stop_name": "MERIDIAN & MAYKIRK"}}], "type": "Feature", "properties": {}}, {"onestopId": "s-9q9k1vhfyf-hamilton~gaton", "name": "HAMILTON & GATON", "tags": {}, "geometry": {"type": "Point", "coordinates": [-121.908461427, 37.293574393]}, "servedBy": ["o-9q9-vta"], "identifiers": [{"identifier": "f-vta-s-4114", "tags": {"stop_lat": "37.293574393", "zone_id": "1", "stop_lon": "-121.90846142700001", "stop_id": "4114", "stop_desc": "", "stop_name": "HAMILTON & GATON"}}], "type": "Feature", "properties": {}}, {"onestopId": "s-9q9k1m0wsk-hamiltonlightrail", "name": "HAMILTON LIGHT RAIL", "tags": {}, "geometry": {"type": "Point", "coordinates": [-121.936386, 37.294229]}, "servedBy": ["o-9q9-vta"], "identifiers": [{"identifier": "f-vta-s-5402", "tags": {"stop_lat": "37.294229000000001", "zone_id": "1", "stop_lon": "-121.936386", "stop_id": "5402", "stop_desc": "", "stop_name": "HAMILTON LIGHT RAIL"}}], "type": "Feature", "properties": {}}, {"onestopId": "s-9q9k1z9r5m-meridian~curci", "name": "MERIDIAN & CURCI", "tags": {}, "geometry": {"type": "Point", "coordinates": [-121.913424, 37.308053]}, "servedBy": ["o-9q9-vta"], "identifiers": [{"identifier": "f-vta-s-5696", "tags": {"stop_lat": "37.308053000000001", "zone_id": "1", "stop_lon": "-121.91342400000001", "stop_id": "5696", "stop_desc": "", "stop_name": "MERIDIAN & CURCI"}}], "type": "Feature", "properties": {}}, {"onestopId": "s-9q9k13xesk-curtner~lawrence", "name": "CURTNER & ST LAWRENCE", "tags": {}, "geometry": {"type": "Point", "coordinates": [-121.926769963, 37.274488071]}, "servedBy": ["o-9q9-vta"], "identifiers": [{"identifier": "f-vta-s-973", "tags": {"stop_lat": "37.274488071", "zone_id": "1", "stop_lon": "-121.926769963", "stop_id": "973", "stop_desc": "", "stop_name": "CURTNER & ST LAWRENCE"}}], "type": "Feature", "properties": {}}, {"onestopId": "s-9q9k15ey1e-campbellstation0", "name": "CAMPBELL STATION (0)", "tags": {}, "geometry": {"type": "Point", "coordinates": [-121.94302735, 37.28589993]}, "servedBy": ["o-9q9-vta"], "identifiers": [{"identifier": "f-vta-s-5379", "tags": {"stop_lat": "37.285899929999999", "zone_id": "1", "stop_lon": "-121.94302734999999", "stop_id": "5379", "stop_desc": "", "stop_name": "CAMPBELL STATION (0)"}}], "type": "Feature", "properties": {}}, {"onestopId": "s-9q9k1tjr59-hamilton~grace", "name": "HAMILTON & GRACE", "tags": {}, "geometry": {"type": "Point", "coordinates": [-121.918901307, 37.294301227]}, "servedBy": ["o-9q9-vta"], "identifiers": [{"identifier": "f-vta-s-4111", "tags": {"stop_lat": "37.294301226999998", "zone_id": "1", "stop_lon": "-121.918901307", "stop_id": "4111", "stop_desc": "", "stop_name": "HAMILTON & GRACE"}}], "type": "Feature", "properties": {}}, {"onestopId": "s-9q9k1tdrpb-leigh~hamiltonplace", "name": "LEIGH & HAMILTON PLACE", "tags": {}, "geometry": {"type": "Point", "coordinates": [-121.922837754, 37.297039686]}, "servedBy": ["o-9q9-vta"], "identifiers": [{"identifier": "f-vta-s-3152", "tags": {"stop_lat": "37.297039685999998", "zone_id": "1", "stop_lon": "-121.922837754", "stop_id": "3152", "stop_desc": "", "stop_name": "LEIGH & HAMILTON PLACE"}}], "type": "Feature", "properties": {}}, {"onestopId": "s-9q9k10x5yy-bascom~jewell", "name": "BASCOM & JEWELL", "tags": {}, "geometry": {"type": "Point", "coordinates": [-121.938335992, 37.269049225]}, "servedBy": ["o-9q9-vta"], "identifiers": [{"identifier": "f-vta-s-2805", "tags": {"stop_lat": "37.269049225000003", "zone_id": "1", "stop_lon": "-121.93833599200001", "stop_id": "2805", "stop_desc": "", "stop_name": "BASCOM & JEWELL"}}], "type": "Feature", "properties": {}}, {"onestopId": "s-9q9k1zhyq3-willow~caminoramon", "name": "WILLOW & CAMINO RAMON", "tags": {}, "geometry": {"type": "Point", "coordinates": [-121.908484432, 37.305155442]}, "servedBy": ["o-9q9-vta"], "identifiers": [{"identifier": "f-vta-s-806", "tags": {"stop_lat": "37.305155442", "zone_id": "1", "stop_lon": "-121.90848443199999", "stop_id": "806", "stop_desc": "", "stop_name": "WILLOW & CAMINO RAMON"}}], "type": "Feature", "properties": {}}, {"onestopId": "s-9q9k17csku-campbell~union", "name": "CAMPBELL & UNION", "tags": {}, "geometry": {"type": "Point", "coordinates": [-121.934985706, 37.286979247]}, "servedBy": ["o-9q9-vta"], "identifiers": [{"identifier": "f-vta-s-912", "tags": {"stop_lat": "37.286979246999998", "zone_id": "1", "stop_lon": "-121.93498570600001", "stop_id": "912", "stop_desc": "", "stop_name": "CAMPBELL & UNION"}}], "type": "Feature", "properties": {}}, {"onestopId": "s-9q9k1d6jky-leigh~harris", "name": "LEIGH & HARRIS", "tags": {}, "geometry": {"type": "Point", "coordinates": [-121.923316052, 37.278922843]}, "servedBy": ["o-9q9-vta"], "identifiers": [{"identifier": "f-vta-s-3124", "tags": {"stop_lat": "37.278922842999997", "zone_id": "1", "stop_lon": "-121.923316052", "stop_id": "3124", "stop_desc": "", "stop_name": "LEIGH & HARRIS"}}], "type": "Feature", "properties": {}}, {"onestopId": "s-9q9k1g9nz5-meridian~drycreek", "name": "MERIDIAN & DRY CREEK", "tags": {}, "geometry": {"type": "Point", "coordinates": [-121.913608142, 37.286028991]}, "servedBy": ["o-9q9-vta"], "identifiers": [{"identifier": "f-vta-s-2963", "tags": {"stop_lat": "37.286028991000002", "zone_id": "1", "stop_lon": "-121.913608142", "stop_id": "2963", "stop_desc": "", "stop_name": "MERIDIAN & DRY CREEK"}}], "type": "Feature", "properties": {}}, {"onestopId": "s-9q9k1t1ngg-hamilton~nottingham", "name": "HAMILTON & NOTTINGHAM", "tags": {}, "geometry": {"type": "Point", "coordinates": [-121.924735166, 37.294269313]}, "servedBy": ["o-9q9-vta"], "identifiers": [{"identifier": "f-vta-s-4109", "tags": {"stop_lat": "37.294269313000001", "zone_id": "1", "stop_lon": "-121.924735166", "stop_id": "4109", "stop_desc": "", "stop_name": "HAMILTON & NOTTINGHAM"}}], "type": "Feature", "properties": {}}, {"onestopId": "s-9q9k16sjyr-bascom~drycreekfs", "name": "BASCOM & DRY CREEK (FS)", "tags": {}, "geometry": {"type": "Point", "coordinates": [-121.9314931, 37.28038707]}, "servedBy": ["o-9q9-vta"], "identifiers": [{"identifier": "f-vta-s-977", "tags": {"stop_lat": "37.280387070000003", "zone_id": "1", "stop_lon": "-121.9314931", "stop_id": "977", "stop_desc": "", "stop_name": "BASCOM & DRY CREEK (FS)"}}], "type": "Feature", "properties": {}}, {"onestopId": "s-9q9k1vp0pn-hamilton~hicks", "name": "HAMILTON & HICKS", "tags": {}, "geometry": {"type": "Point", "coordinates": [-121.905365747, 37.293126669]}, "servedBy": ["o-9q9-vta"], "identifiers": [{"identifier": "f-vta-s-4115", "tags": {"stop_lat": "37.293126669000003", "zone_id": "1", "stop_lon": "-121.905365747", "stop_id": "4115", "stop_desc": "", "stop_name": "HAMILTON & HICKS"}}], "type": "Feature", "properties": {}}, {"onestopId": "s-9q9k1gj8by-curtner~briarwood", "name": "CURTNER & BRIARWOOD", "tags": {}, "geometry": {"type": "Point", "coordinates": [-121.907694132, 37.282266479]}, "servedBy": ["o-9q9-vta"], "identifiers": [{"identifier": "f-vta-s-925", "tags": {"stop_lat": "37.282266479", "zone_id": "1", "stop_lon": "-121.907694132", "stop_id": "925", "stop_desc": "", "stop_name": "CURTNER & BRIARWOOD"}}], "type": "Feature", "properties": {}}, {"onestopId": "s-9q9k1b4bw6-hillsdale~kilo", "name": "HILLSDALE & KILO", "tags": {}, "geometry": {"type": "Point", "coordinates": [-121.911231226, 37.265723682]}, "servedBy": ["o-9q9-vta"], "identifiers": [{"identifier": "f-vta-s-1695", "tags": {"stop_lat": "37.265723682000001", "zone_id": "1", "stop_lon": "-121.911231226", "stop_id": "1695", "stop_desc": "", "stop_name": "HILLSDALE & KILO"}}], "type": "Feature", "properties": {}}, {"onestopId": "s-9q9k1d3un8-leigh~harris", "name": "LEIGH & HARRIS", "tags": {}, "geometry": {"type": "Point", "coordinates": [-121.923584924, 37.278676396]}, "servedBy": ["o-9q9-vta"], "identifiers": [{"identifier": "f-vta-s-3157", "tags": {"stop_lat": "37.278676396000002", "zone_id": "1", "stop_lon": "-121.923584924", "stop_id": "3157", "stop_desc": "", "stop_name": "LEIGH & HARRIS"}}], "type": "Feature", "properties": {}}, {"onestopId": "s-9q9k1vc3dy-meridian~willowbrae", "name": "MERIDIAN & WILLOW BRAE", "tags": {}, "geometry": {"type": "Point", "coordinates": [-121.913443972, 37.29750051]}, "servedBy": ["o-9q9-vta"], "identifiers": [{"identifier": "f-vta-s-2926", "tags": {"stop_lat": "37.297500509999999", "zone_id": "1", "stop_lon": "-121.913443972", "stop_id": "2926", "stop_desc": "", "stop_name": "MERIDIAN & WILLOW BRAE"}}], "type": "Feature", "properties": {}}, {"onestopId": "s-9q9k1rknef-bascom~leon", "name": "BASCOM & LEON", "tags": {}, "geometry": {"type": "Point", "coordinates": [-121.931599104, 37.306581932]}, "servedBy": ["o-9q9-vta"], "identifiers": [{"identifier": "f-vta-s-2819", "tags": {"stop_lat": "37.306581932", "zone_id": "1", "stop_lon": "-121.931599104", "stop_id": "2819", "stop_desc": "", "stop_name": "BASCOM & LEON"}}], "type": "Feature", "properties": {}}, {"onestopId": "s-9q9k135e0y-union~lantz", "name": "UNION & LANTZ", "tags": {}, "geometry": {"type": "Point", "coordinates": [-121.932414596, 37.271667757]}, "servedBy": ["o-9q9-vta"], "identifiers": [{"identifier": "f-vta-s-2811", "tags": {"stop_lat": "37.271667757000003", "zone_id": "1", "stop_lon": "-121.932414596", "stop_id": "2811", "stop_desc": "", "stop_name": "UNION & LANTZ"}}], "type": "Feature", "properties": {}}, {"onestopId": "s-9q9k1keyvf-bascom~campisi", "name": "BASCOM & CAMPISI", "tags": {}, "geometry": {"type": "Point", "coordinates": [-121.931854044, 37.291514642]}, "servedBy": ["o-9q9-vta"], "identifiers": [{"identifier": "f-vta-s-2881", "tags": {"stop_lat": "37.291514642000003", "zone_id": "1", "stop_lon": "-121.931854044", "stop_id": "2881", "stop_desc": "", "stop_name": "BASCOM & CAMPISI"}}], "type": "Feature", "properties": {}}, {"onestopId": "s-9q9k1ychu1-meridian~willow", "name": "MERIDIAN & WILLOW", "tags": {}, "geometry": {"type": "Point", "coordinates": [-121.913732418, 37.303526501]}, "servedBy": ["o-9q9-vta"], "identifiers": [{"identifier": "f-vta-s-2958", "tags": {"stop_lat": "37.303526501", "zone_id": "1", "stop_lon": "-121.913732418", "stop_id": "2958", "stop_desc": "", "stop_name": "MERIDIAN & WILLOW"}}], "type": "Feature", "properties": {}}, {"onestopId": "s-9q9k17h0n3-bascom~drycreekmd", "name": "BASCOM & DRY CREEK (MD)", "tags": {}, "geometry": {"type": "Point", "coordinates": [-121.931490601, 37.282114248]}, "servedBy": ["o-9q9-vta"], "identifiers": [{"identifier": "f-vta-s-978", "tags": {"stop_lat": "37.282114247999999", "zone_id": "1", "stop_lon": "-121.93149060099999", "stop_id": "978", "stop_desc": "", "stop_name": "BASCOM & DRY CREEK (MD)"}}], "type": "Feature", "properties": {}}, {"onestopId": "s-9q9k13xd3c-curtner~newjersey", "name": "CURTNER & NEW JERSEY", "tags": {}, "geometry": {"type": "Point", "coordinates": [-121.926876812, 37.274259887]}, "servedBy": ["o-9q9-vta"], "identifiers": [{"identifier": "f-vta-s-920", "tags": {"stop_lat": "37.274259886999999", "zone_id": "1", "stop_lon": "-121.926876812", "stop_id": "920", "stop_desc": "", "stop_name": "CURTNER & NEW JERSEY"}}], "type": "Feature", "properties": {}}, {"onestopId": "s-9q9k1y3r1u-meridian~minnesota", "name": "MERIDIAN & MINNESOTA", "tags": {}, "geometry": {"type": "Point", "coordinates": [-121.913489176, 37.301183115]}, "servedBy": ["o-9q9-vta"], "identifiers": [{"identifier": "f-vta-s-2927", "tags": {"stop_lat": "37.301183115000001", "zone_id": "1", "stop_lon": "-121.913489176", "stop_id": "2927", "stop_desc": "", "stop_name": "MERIDIAN & MINNESOTA"}}], "type": "Feature", "properties": {}}, {"onestopId": "s-9q9k1mjn26-hamilton~bascom", "name": "HAMILTON & BASCOM", "tags": {}, "geometry": {"type": "Point", "coordinates": [-121.930372757, 37.294177577]}, "servedBy": ["o-9q9-vta"], "identifiers": [{"identifier": "f-vta-s-4107", "tags": {"stop_lat": "37.294177576999999", "zone_id": "1", "stop_lon": "-121.930372757", "stop_id": "4107", "stop_desc": "", "stop_name": "HAMILTON & BASCOM"}}], "type": "Feature", "properties": {}}, {"onestopId": "s-9q9k1vp3dp-hamilton~hicks", "name": "HAMILTON & HICKS", "tags": {}, "geometry": {"type": "Point", "coordinates": [-121.905240201, 37.29338892]}, "servedBy": ["o-9q9-vta"], "identifiers": [{"identifier": "f-vta-s-4184", "tags": {"stop_lat": "37.293388919999998", "zone_id": "1", "stop_lon": "-121.905240201", "stop_id": "4184", "stop_desc": "", "stop_name": "HAMILTON & HICKS"}}], "type": "Feature", "properties": {}}, {"onestopId": "s-9q9k1u3qu4-meridian~gaton", "name": "MERIDIAN & GATON", "tags": {}, "geometry": {"type": "Point", "coordinates": [-121.913391377, 37.290140716]}, "servedBy": ["o-9q9-vta"], "identifiers": [{"identifier": "f-vta-s-2924", "tags": {"stop_lat": "37.290140716000003", "zone_id": "1", "stop_lon": "-121.913391377", "stop_id": "2924", "stop_desc": "", "stop_name": "MERIDIAN & GATON"}}], "type": "Feature", "properties": {}}, {"onestopId": "s-9q9k1v4p2c-hamilton~meridian", "name": "HAMILTON & MERIDIAN", "tags": {}, "geometry": {"type": "Point", "coordinates": [-121.912500966, 37.294343072]}, "servedBy": ["o-9q9-vta"], "identifiers": [{"identifier": "f-vta-s-4113", "tags": {"stop_lat": "37.294343071999997", "zone_id": "1", "stop_lon": "-121.912500966", "stop_id": "4113", "stop_desc": "", "stop_name": "HAMILTON & MERIDIAN"}}], "type": "Feature", "properties": {}}, {"onestopId": "s-9q9k1x4bnr-leigh~derose", "name": "LEIGH & DE ROSE", "tags": {}, "geometry": {"type": "Point", "coordinates": [-121.922219129, 37.304119421]}, "servedBy": ["o-9q9-vta"], "identifiers": [{"identifier": "f-vta-s-3131", "tags": {"stop_lat": "37.304119421000003", "zone_id": "1", "stop_lon": "-121.922219129", "stop_id": "3131", "stop_desc": "", "stop_name": "LEIGH & DE ROSE"}}], "type": "Feature", "properties": {}}, {"onestopId": "s-9q9k1u95y9-meridian~mountvernon", "name": "MERIDIAN & MOUNT VERNON", "tags": {}, "geometry": {"type": "Point", "coordinates": [-121.91362267, 37.290997039]}, "servedBy": ["o-9q9-vta"], "identifiers": [{"identifier": "f-vta-s-2962", "tags": {"stop_lat": "37.290997038999997", "zone_id": "1", "stop_lon": "-121.91362267", "stop_id": "2962", "stop_desc": "", "stop_name": "MERIDIAN & MOUNT VERNON"}}], "type": "Feature", "properties": {}}, {"onestopId": "s-9q9k1656hw-bascom~surrey", "name": "BASCOM & SURREY", "tags": {}, "geometry": {"type": "Point", "coordinates": [-121.932598864, 37.276987681]}, "servedBy": ["o-9q9-vta"], "identifiers": [{"identifier": "f-vta-s-917", "tags": {"stop_lat": "37.276987681000001", "zone_id": "1", "stop_lon": "-121.932598864", "stop_id": "917", "stop_desc": "", "stop_name": "BASCOM & SURREY"}}], "type": "Feature", "properties": {}}, {"onestopId": "s-9q9k1qh5t3-bascom~pamlar", "name": "BASCOM & PAMLAR", "tags": {}, "geometry": {"type": "Point", "coordinates": [-121.93152826, 37.299192281]}, "servedBy": ["o-9q9-vta"], "identifiers": [{"identifier": "f-vta-s-2816", "tags": {"stop_lat": "37.299192281000003", "zone_id": "1", "stop_lon": "-121.93152825999999", "stop_id": "2816", "stop_desc": "", "stop_name": "BASCOM & PAMLAR"}}], "type": "Feature", "properties": {}}, {"onestopId": "s-9q9k1zjjck-willow~caminoramon", "name": "WILLOW & CAMINO RAMON", "tags": {}, "geometry": {"type": "Point", "coordinates": [-121.908358062, 37.305087973]}, "servedBy": ["o-9q9-vta"], "identifiers": [{"identifier": "f-vta-s-740", "tags": {"stop_lat": "37.305087972999999", "zone_id": "1", "stop_lon": "-121.908358062", "stop_id": "740", "stop_desc": "", "stop_name": "WILLOW & CAMINO RAMON"}}], "type": "Feature", "properties": {}}, {"onestopId": "s-9q9k136xq5-union~bascom", "name": "UNION & BASCOM", "tags": {}, "geometry": {"type": "Point", "coordinates": [-121.933554494, 37.273756123]}, "servedBy": ["o-9q9-vta"], "identifiers": [{"identifier": "f-vta-s-918", "tags": {"stop_lat": "37.273756122999998", "zone_id": "1", "stop_lon": "-121.93355449400001", "stop_id": "918", "stop_desc": "", "stop_name": "UNION & BASCOM"}}], "type": "Feature", "properties": {}}, {"onestopId": "s-9q9k19fwh1-leigh~curtner", "name": "LEIGH & CURTNER", "tags": {}, "geometry": {"type": "Point", "coordinates": [-121.922660206, 37.276276408]}, "servedBy": ["o-9q9-vta"], "identifiers": [{"identifier": "f-vta-s-3123", "tags": {"stop_lat": "37.276276408000001", "zone_id": "1", "stop_lon": "-121.922660206", "stop_id": "3123", "stop_desc": "", "stop_name": "LEIGH & CURTNER"}}], "type": "Feature", "properties": {}}, {"onestopId": "s-9q9k16egnn-bascom~drycreek", "name": "BASCOM & DRY CREEK", "tags": {}, "geometry": {"type": "Point", "coordinates": [-121.931847922, 37.279905616]}, "servedBy": ["o-9q9-vta"], "identifiers": [{"identifier": "f-vta-s-916", "tags": {"stop_lat": "37.279905616000001", "zone_id": "1", "stop_lon": "-121.931847922", "stop_id": "916", "stop_desc": "", "stop_name": "BASCOM & DRY CREEK"}}], "type": "Feature", "properties": {}}, {"onestopId": "s-9q9k1fdk7p-meridian~curtner", "name": "MERIDIAN & CURTNER", "tags": {}, "geometry": {"type": "Point", "coordinates": [-121.912060652, 37.280127688]}, "servedBy": ["o-9q9-vta"], "identifiers": [{"identifier": "f-vta-s-2921", "tags": {"stop_lat": "37.280127688", "zone_id": "1", "stop_lon": "-121.91206065199999", "stop_id": "2921", "stop_desc": "", "stop_name": "MERIDIAN & CURTNER"}}], "type": "Feature", "properties": {}}, {"onestopId": "s-9q9k1m07rz-hamiltonstation1", "name": "HAMILTON STATION (1)", "tags": {}, "geometry": {"type": "Point", "coordinates": [-121.93657642, 37.29369104]}, "servedBy": ["o-9q9-vta"], "identifiers": [{"identifier": "f-vta-s-5385", "tags": {"stop_lat": "37.293691039999999", "zone_id": "1", "stop_lon": "-121.93657641999999", "stop_id": "5385", "stop_desc": "", "stop_name": "HAMILTON STATION (1)"}}], "type": "Feature", "properties": {}}, {"onestopId": "s-9q9k1e4c7z-leigh~drycreek", "name": "LEIGH & DRY CREEK", "tags": {}, "geometry": {"type": "Point", "coordinates": [-121.92232877, 37.282357399]}, "servedBy": ["o-9q9-vta"], "identifiers": [{"identifier": "f-vta-s-3125", "tags": {"stop_lat": "37.282357398999999", "zone_id": "1", "stop_lon": "-121.92232876999999", "stop_id": "3125", "stop_desc": "", "stop_name": "LEIGH & DRY CREEK"}}], "type": "Feature", "properties": {}}, {"onestopId": "s-9q9k1efdh0-leigh~campbell", "name": "LEIGH & CAMPBELL", "tags": {}, "geometry": {"type": "Point", "coordinates": [-121.922659344, 37.286571298]}, "servedBy": ["o-9q9-vta"], "identifiers": [{"identifier": "f-vta-s-3155", "tags": {"stop_lat": "37.286571297999998", "zone_id": "1", "stop_lon": "-121.922659344", "stop_id": "3155", "stop_desc": "", "stop_name": "LEIGH & CAMPBELL"}}], "type": "Feature", "properties": {}}, {"onestopId": "s-9q9k13dy1k-bascom~elden", "name": "BASCOM & ELDEN", "tags": {}, "geometry": {"type": "Point", "coordinates": [-121.933425586, 37.274916314]}, "servedBy": ["o-9q9-vta"], "identifiers": [{"identifier": "f-vta-s-975", "tags": {"stop_lat": "37.274916314000002", "zone_id": "1", "stop_lon": "-121.933425586", "stop_id": "975", "stop_desc": "", "stop_name": "BASCOM & ELDEN"}}], "type": "Feature", "properties": {}}, {"onestopId": "s-9q9k1brwfe-meridian~hillsdale", "name": "MERIDIAN & HILLSDALE", "tags": {}, "geometry": {"type": "Point", "coordinates": [-121.904866209, 37.268176574]}, "servedBy": ["o-9q9-vta"], "identifiers": [{"identifier": "f-vta-s-2969", "tags": {"stop_lat": "37.268176574000002", "zone_id": "1", "stop_lon": "-121.90486620900001", "stop_id": "2969", "stop_desc": "", "stop_name": "MERIDIAN & HILLSDALE"}}], "type": "Feature", "properties": {}}, {"onestopId": "s-9q9k1f9zp0-meridian~curtner", "name": "MERIDIAN & CURTNER", "tags": {}, "geometry": {"type": "Point", "coordinates": [-121.912577659, 37.280560224]}, "servedBy": ["o-9q9-vta"], "identifiers": [{"identifier": "f-vta-s-2965", "tags": {"stop_lat": "37.280560223999998", "zone_id": "1", "stop_lon": "-121.91257765899999", "stop_id": "2965", "stop_desc": "", "stop_name": "MERIDIAN & CURTNER"}}], "type": "Feature", "properties": {}}, {"onestopId": "s-9q9k1m1xve-hamilton~creekside", "name": "HAMILTON & CREEKSIDE", "tags": {}, "geometry": {"type": "Point", "coordinates": [-121.934957733, 37.294440384]}, "servedBy": ["o-9q9-vta"], "identifiers": [{"identifier": "f-vta-s-4191", "tags": {"stop_lat": "37.294440383999998", "zone_id": "1", "stop_lon": "-121.934957733", "stop_id": "4191", "stop_desc": "", "stop_name": "HAMILTON & CREEKSIDE"}}], "type": "Feature", "properties": {}}, {"onestopId": "s-9q9k18uhbz-leigh~mesita", "name": "LEIGH & MESITA", "tags": {}, "geometry": {"type": "Point", "coordinates": [-121.920738104, 37.270602523]}, "servedBy": ["o-9q9-vta"], "identifiers": [{"identifier": "f-vta-s-3121", "tags": {"stop_lat": "37.270602523000001", "zone_id": "1", "stop_lon": "-121.92073810399999", "stop_id": "3121", "stop_desc": "", "stop_name": "LEIGH & MESITA"}}], "type": "Feature", "properties": {}}, {"onestopId": "s-9q9k1z129m-meridian~willow", "name": "MERIDIAN & WILLOW", "tags": {}, "geometry": {"type": "Point", "coordinates": [-121.913509171, 37.304194633]}, "servedBy": ["o-9q9-vta"], "identifiers": [{"identifier": "f-vta-s-808", "tags": {"stop_lat": "37.304194633000002", "zone_id": "1", "stop_lon": "-121.913509171", "stop_id": "808", "stop_desc": "", "stop_name": "MERIDIAN & WILLOW"}}], "type": "Feature", "properties": {}}, {"onestopId": "s-9q9k135jwb-union~lantz", "name": "UNION & LANTZ", "tags": {}, "geometry": {"type": "Point", "coordinates": [-121.932839198, 37.272064487]}, "servedBy": ["o-9q9-vta"], "identifiers": [{"identifier": "f-vta-s-2883", "tags": {"stop_lat": "37.272064487000002", "zone_id": "1", "stop_lon": "-121.932839198", "stop_id": "2883", "stop_desc": "", "stop_name": "UNION & LANTZ"}}], "type": "Feature", "properties": {}}, {"onestopId": "s-9q9k1h5cg3-civc~central", "name": "CIVC CENTER & CENTRAL", "tags": {}, "geometry": {"type": "Point", "coordinates": [-121.942952842, 37.287904373]}, "servedBy": ["o-9q9-vta"], "identifiers": [{"identifier": "f-vta-s-983", "tags": {"stop_lat": "37.287904373000003", "zone_id": "1", "stop_lon": "-121.942952842", "stop_id": "983", "stop_desc": "", "stop_name": "CIVC CENTER & CENTRAL"}}], "type": "Feature", "properties": {}}, {"onestopId": "s-9q9k1rhjsx-bascom~downing", "name": "BASCOM & DOWNING", "tags": {}, "geometry": {"type": "Point", "coordinates": [-121.931568075, 37.305061482]}, "servedBy": ["o-9q9-vta"], "identifiers": [{"identifier": "f-vta-s-2818", "tags": {"stop_lat": "37.305061481999999", "zone_id": "1", "stop_lon": "-121.931568075", "stop_id": "2818", "stop_desc": "", "stop_name": "BASCOM & DOWNING"}}], "type": "Feature", "properties": {}}, {"onestopId": "s-9q9k17fvkt-campbell~bascom", "name": "CAMPBELL & BASCOM", "tags": {}, "geometry": {"type": "Point", "coordinates": [-121.933281187, 37.287155716]}, "servedBy": ["o-9q9-vta"], "identifiers": [{"identifier": "f-vta-s-980", "tags": {"stop_lat": "37.287155716000001", "zone_id": "1", "stop_lon": "-121.93328118700001", "stop_id": "980", "stop_desc": "", "stop_name": "CAMPBELL & BASCOM"}}], "type": "Feature", "properties": {}}, {"onestopId": "s-9q9k133dur-bascom~curtner", "name": "BASCOM & CURTNER", "tags": {}, "geometry": {"type": "Point", "coordinates": [-121.935010423, 37.273003244]}, "servedBy": ["o-9q9-vta"], "identifiers": [{"identifier": "f-vta-s-2812", "tags": {"stop_lat": "37.273003244000002", "zone_id": "1", "stop_lon": "-121.93501042299999", "stop_id": "2812", "stop_desc": "", "stop_name": "BASCOM & CURTNER"}}], "type": "Feature", "properties": {}}, {"onestopId": "s-9q9k1m4nmb-hamilton~creekside", "name": "HAMILTON & CREEKSIDE", "tags": {}, "geometry": {"type": "Point", "coordinates": [-121.934255972, 37.294167762]}, "servedBy": ["o-9q9-vta"], "identifiers": [{"identifier": "f-vta-s-4106", "tags": {"stop_lat": "37.294167762000001", "zone_id": "1", "stop_lon": "-121.934255972", "stop_id": "4106", "stop_desc": "", "stop_name": "HAMILTON & CREEKSIDE"}}], "type": "Feature", "properties": {}}, {"onestopId": "s-9q9k1f5cx1-meridian~andalusia", "name": "MERIDIAN & ANDALUSIA", "tags": {}, "geometry": {"type": "Point", "coordinates": [-121.909823452, 37.276876589]}, "servedBy": ["o-9q9-vta"], "identifiers": [{"identifier": "f-vta-s-2920", "tags": {"stop_lat": "37.276876588999997", "zone_id": "1", "stop_lon": "-121.909823452", "stop_id": "2920", "stop_desc": "", "stop_name": "MERIDIAN & ANDALUSIA"}}], "type": "Feature", "properties": {}}, {"onestopId": "s-9q9k1bygnw-meridian~foxworthy", "name": "MERIDIAN & FOXWORTHY", "tags": {}, "geometry": {"type": "Point", "coordinates": [-121.905732567, 37.270295494]}, "servedBy": ["o-9q9-vta"], "identifiers": [{"identifier": "f-vta-s-2968", "tags": {"stop_lat": "37.270295494000003", "zone_id": "1", "stop_lon": "-121.905732567", "stop_id": "2968", "stop_desc": "", "stop_name": "MERIDIAN & FOXWORTHY"}}], "type": "Feature", "properties": {}}, {"onestopId": "s-9q9k19ft0u-leigh~curtner", "name": "LEIGH & CURTNER", "tags": {}, "geometry": {"type": "Point", "coordinates": [-121.922796636, 37.276119823]}, "servedBy": ["o-9q9-vta"], "identifiers": [{"identifier": "f-vta-s-3158", "tags": {"stop_lat": "37.276119823000002", "zone_id": "1", "stop_lon": "-121.922796636", "stop_id": "3158", "stop_desc": "", "stop_name": "LEIGH & CURTNER"}}], "type": "Feature", "properties": {}}, {"onestopId": "s-9q9k1r7uks-bascom~leon", "name": "BASCOM & LEON", "tags": {}, "geometry": {"type": "Point", "coordinates": [-121.931907722, 37.306203832]}, "servedBy": ["o-9q9-vta"], "identifiers": [{"identifier": "f-vta-s-2876", "tags": {"stop_lat": "37.306203832000001", "zone_id": "1", "stop_lon": "-121.93190772200001", "stop_id": "2876", "stop_desc": "", "stop_name": "BASCOM & LEON"}}], "type": "Feature", "properties": {}}, {"onestopId": "s-9q9k167fpz-bascom~unemploymentoffice", "name": "BASCOM @ UNEMPLOYMENT OFFICE", "tags": {}, "geometry": {"type": "Point", "coordinates": [-121.931764481, 37.278369898]}, "servedBy": ["o-9q9-vta"], "identifiers": [{"identifier": "f-vta-s-976", "tags": {"stop_lat": "37.278369898000001", "zone_id": "1", "stop_lon": "-121.931764481", "stop_id": "976", "stop_desc": "", "stop_name": "BASCOM @ UNEMPLOYMENT OFFICE"}}], "type": "Feature", "properties": {}}, {"onestopId": "s-9q9k1q7zm9-bascom~stokes", "name": "BASCOM & STOKES", "tags": {}, "geometry": {"type": "Point", "coordinates": [-121.931863466, 37.301210203]}, "servedBy": ["o-9q9-vta"], "identifiers": [{"identifier": "f-vta-s-2878", "tags": {"stop_lat": "37.301210202999997", "zone_id": "1", "stop_lon": "-121.931863466", "stop_id": "2878", "stop_desc": "", "stop_name": "BASCOM & STOKES"}}], "type": "Feature", "properties": {}}, {"onestopId": "s-9q9k12kk0v-union~foxworthy", "name": "UNION & FOXWORTHY", "tags": {}, "geometry": {"type": "Point", "coordinates": [-121.931376891, 37.267714678]}, "servedBy": ["o-9q9-vta"], "identifiers": [{"identifier": "f-vta-s-2810", "tags": {"stop_lat": "37.267714677999997", "zone_id": "1", "stop_lon": "-121.931376891", "stop_id": "2810", "stop_desc": "", "stop_name": "UNION & FOXWORTHY"}}], "type": "Feature", "properties": {}}, {"onestopId": "s-9q9k1bjxf4-hillsdale~kirk", "name": "HILLSDALE & KIRK", "tags": {}, "geometry": {"type": "Point", "coordinates": [-121.907633626, 37.26696774]}, "servedBy": ["o-9q9-vta"], "identifiers": [{"identifier": "f-vta-s-1696", "tags": {"stop_lat": "37.266967739999998", "zone_id": "1", "stop_lon": "-121.90763362600001", "stop_id": "1696", "stop_desc": "", "stop_name": "HILLSDALE & KIRK"}}], "type": "Feature", "properties": {}}, {"onestopId": "s-9q9k1zrrjr-willow~carolyn", "name": "WILLOW & CAROLYN", "tags": {}, "geometry": {"type": "Point", "coordinates": [-121.905093383, 37.306691106]}, "servedBy": ["o-9q9-vta"], "identifiers": [{"identifier": "f-vta-s-805", "tags": {"stop_lat": "37.306691106000002", "zone_id": "1", "stop_lon": "-121.90509338299999", "stop_id": "805", "stop_desc": "", "stop_name": "WILLOW & CAROLYN"}}], "type": "Feature", "properties": {}}, {"onestopId": "s-9q9k1w6rn6-leigh~stokes", "name": "LEIGH & STOKES", "tags": {}, "geometry": {"type": "Point", "coordinates": [-121.922911092, 37.3011739]}, "servedBy": ["o-9q9-vta"], "identifiers": [{"identifier": "f-vta-s-3151", "tags": {"stop_lat": "37.301173900000002", "zone_id": "1", "stop_lon": "-121.92291109200001", "stop_id": "3151", "stop_desc": "", "stop_name": "LEIGH & STOKES"}}], "type": "Feature", "properties": {}}, {"onestopId": "s-9q9k1v1jnq-meridian~hamilton", "name": "MERIDIAN & HAMILTON", "tags": {}, "geometry": {"type": "Point", "coordinates": [-121.913637982, 37.293983026]}, "servedBy": ["o-9q9-vta"], "identifiers": [{"identifier": "f-vta-s-2961", "tags": {"stop_lat": "37.293983025999999", "zone_id": "1", "stop_lon": "-121.913637982", "stop_id": "2961", "stop_desc": "", "stop_name": "MERIDIAN & HAMILTON"}}], "type": "Feature", "properties": {}}, {"onestopId": "s-9q9k184y8x-leigh~geneva", "name": "LEIGH & GENEVA", "tags": {}, "geometry": {"type": "Point", "coordinates": [-121.9224615, 37.266782722]}, "servedBy": ["o-9q9-vta"], "identifiers": [{"identifier": "f-vta-s-3161", "tags": {"stop_lat": "37.266782722000002", "zone_id": "1", "stop_lon": "-121.9224615", "stop_id": "3161", "stop_desc": "", "stop_name": "LEIGH & GENEVA"}}], "type": "Feature", "properties": {}}, {"onestopId": "s-9q9k1x77kn-leigh~southwestexpwy", "name": "LEIGH & SOUTHWEST EXPWY", "tags": {}, "geometry": {"type": "Point", "coordinates": [-121.921633868, 37.306042411]}, "servedBy": ["o-9q9-vta"], "identifiers": [{"identifier": "f-vta-s-3149", "tags": {"stop_lat": "37.306042411", "zone_id": "1", "stop_lon": "-121.921633868", "stop_id": "3149", "stop_desc": "", "stop_name": "LEIGH & SOUTHWEST EXPWY"}}], "type": "Feature", "properties": {}}, {"onestopId": "s-9q9k1fuzvv-curtner~briarwood", "name": "CURTNER & BRIARWOOD", "tags": {}, "geometry": {"type": "Point", "coordinates": [-121.908510888, 37.282091979]}, "servedBy": ["o-9q9-vta"], "identifiers": [{"identifier": "f-vta-s-968", "tags": {"stop_lat": "37.282091979", "zone_id": "1", "stop_lon": "-121.908510888", "stop_id": "968", "stop_desc": "", "stop_name": "CURTNER & BRIARWOOD"}}], "type": "Feature", "properties": {}}, {"onestopId": "s-9q9k1tfeyt-leigh~hamiltonplace", "name": "LEIGH & HAMILTON PLACE", "tags": {}, "geometry": {"type": "Point", "coordinates": [-121.922556881, 37.297886403]}, "servedBy": ["o-9q9-vta"], "identifiers": [{"identifier": "f-vta-s-3129", "tags": {"stop_lat": "37.297886403", "zone_id": "1", "stop_lon": "-121.92255688100001", "stop_id": "3129", "stop_desc": "", "stop_name": "LEIGH & HAMILTON PLACE"}}], "type": "Feature", "properties": {}}, {"onestopId": "s-9q9k1f5bky-meridian~harte", "name": "MERIDIAN & HARTE", "tags": {}, "geometry": {"type": "Point", "coordinates": [-121.909921468, 37.276688263]}, "servedBy": ["o-9q9-vta"], "identifiers": [{"identifier": "f-vta-s-2966", "tags": {"stop_lat": "37.276688262999997", "zone_id": "1", "stop_lon": "-121.90992146799999", "stop_id": "2966", "stop_desc": "", "stop_name": "MERIDIAN & HARTE"}}], "type": "Feature", "properties": {}}, {"onestopId": "s-9q9k1dh87j-curtner~parquet", "name": "CURTNER & PARQUET", "tags": {}, "geometry": {"type": "Point", "coordinates": [-121.919956515, 37.276685457]}, "servedBy": ["o-9q9-vta"], "identifiers": [{"identifier": "f-vta-s-922", "tags": {"stop_lat": "37.276685456999999", "zone_id": "1", "stop_lon": "-121.919956515", "stop_id": "922", "stop_desc": "", "stop_name": "CURTNER & PARQUET"}}], "type": "Feature", "properties": {}}, {"onestopId": "s-9q9k137hbn-union~curtner", "name": "UNION & CURTNER", "tags": {}, "geometry": {"type": "Point", "coordinates": [-121.933135336, 37.2733412]}, "servedBy": ["o-9q9-vta"], "identifiers": [{"identifier": "f-vta-s-974", "tags": {"stop_lat": "37.273341199999997", "zone_id": "1", "stop_lon": "-121.93313533600001", "stop_id": "974", "stop_desc": "", "stop_name": "UNION & CURTNER"}}], "type": "Feature", "properties": {}}, {"onestopId": "s-9q9k1v17eu-meridian~hamilton", "name": "MERIDIAN & HAMILTON", "tags": {}, "geometry": {"type": "Point", "coordinates": [-121.913399938, 37.293717321]}, "servedBy": ["o-9q9-vta"], "identifiers": [{"identifier": "f-vta-s-2925", "tags": {"stop_lat": "37.293717321000003", "zone_id": "1", "stop_lon": "-121.913399938", "stop_id": "2925", "stop_desc": "", "stop_name": "MERIDIAN & HAMILTON"}}], "type": "Feature", "properties": {}}, {"onestopId": "s-9q9k195uk1-leigh~coit", "name": "LEIGH & COIT", "tags": {}, "geometry": {"type": "Point", "coordinates": [-121.920942602, 37.271853925]}, "servedBy": ["o-9q9-vta"], "identifiers": [{"identifier": "f-vta-s-3159", "tags": {"stop_lat": "37.271853925000002", "zone_id": "1", "stop_lon": "-121.920942602", "stop_id": "3159", "stop_desc": "", "stop_name": "LEIGH & COIT"}}], "type": "Feature", "properties": {}}, {"onestopId": "s-9q9k1mq2mg-hamilton~greyland", "name": "HAMILTON & GREYLAND", "tags": {}, "geometry": {"type": "Point", "coordinates": [-121.928417077, 37.294527473]}, "servedBy": ["o-9q9-vta"], "identifiers": [{"identifier": "f-vta-s-4189", "tags": {"stop_lat": "37.294527473000002", "zone_id": "1", "stop_lon": "-121.92841707700001", "stop_id": "4189", "stop_desc": "", "stop_name": "HAMILTON & GREYLAND"}}], "type": "Feature", "properties": {}}, {"onestopId": "s-9q9k1g9rsz-meridian~drycreek", "name": "MERIDIAN & DRY CREEK", "tags": {}, "geometry": {"type": "Point", "coordinates": [-121.91335785, 37.286176868]}, "servedBy": ["o-9q9-vta"], "identifiers": [{"identifier": "f-vta-s-2923", "tags": {"stop_lat": "37.286176867999998", "zone_id": "1", "stop_lon": "-121.91335785", "stop_id": "2923", "stop_desc": "", "stop_name": "MERIDIAN & DRY CREEK"}}], "type": "Feature", "properties": {}}, {"onestopId": "s-9q9k1z9h4x-meridian~curci", "name": "MERIDIAN & CURCI", "tags": {}, "geometry": {"type": "Point", "coordinates": [-121.913801, 37.307552]}, "servedBy": ["o-9q9-vta"], "identifiers": [{"identifier": "f-vta-s-5695", "tags": {"stop_lat": "37.307552000000001", "zone_id": "1", "stop_lon": "-121.91380100000001", "stop_id": "5695", "stop_desc": "", "stop_name": "MERIDIAN & CURCI"}}], "type": "Feature", "properties": {}}, {"onestopId": "s-9q9k1ct1td-meridian~husted", "name": "MERIDIAN & HUSTED", "tags": {}, "geometry": {"type": "Point", "coordinates": [-121.90817777, 37.274133736]}, "servedBy": ["o-9q9-vta"], "identifiers": [{"identifier": "f-vta-s-2967", "tags": {"stop_lat": "37.274133736000003", "zone_id": "1", "stop_lon": "-121.90817776999999", "stop_id": "2967", "stop_desc": "", "stop_name": "MERIDIAN & HUSTED"}}], "type": "Feature", "properties": {}}, {"onestopId": "s-9q9k1s6877-leigh~mcbain", "name": "LEIGH & MC BAIN", "tags": {}, "geometry": {"type": "Point", "coordinates": [-121.922688467, 37.289031417]}, "servedBy": ["o-9q9-vta"], "identifiers": [{"identifier": "f-vta-s-3154", "tags": {"stop_lat": "37.289031416999997", "zone_id": "1", "stop_lon": "-121.922688467", "stop_id": "3154", "stop_desc": "", "stop_name": "LEIGH & MC BAIN"}}], "type": "Feature", "properties": {}}, {"onestopId": "s-9q9k1tm24v-hamilton~grace", "name": "HAMILTON & GRACE", "tags": {}, "geometry": {"type": "Point", "coordinates": [-121.918939998, 37.294494718]}, "servedBy": ["o-9q9-vta"], "identifiers": [{"identifier": "f-vta-s-4187", "tags": {"stop_lat": "37.294494718000003", "zone_id": "1", "stop_lon": "-121.918939998", "stop_id": "4187", "stop_desc": "", "stop_name": "HAMILTON & GRACE"}}], "type": "Feature", "properties": {}}, {"onestopId": "s-9q9k1efy2w-leigh~cabana", "name": "LEIGH & CABANA", "tags": {}, "geometry": {"type": "Point", "coordinates": [-121.922466405, 37.287329795]}, "servedBy": ["o-9q9-vta"], "identifiers": [{"identifier": "f-vta-s-3126", "tags": {"stop_lat": "37.287329794999998", "zone_id": "1", "stop_lon": "-121.92246640499999", "stop_id": "3126", "stop_desc": "", "stop_name": "LEIGH & CABANA"}}], "type": "Feature", "properties": {}}, {"onestopId": "s-9q9k1t4d60-leigh~hamilton", "name": "LEIGH & HAMILTON", "tags": {}, "geometry": {"type": "Point", "coordinates": [-121.922747076, 37.293480816]}, "servedBy": ["o-9q9-vta"], "identifiers": [{"identifier": "f-vta-s-3153", "tags": {"stop_lat": "37.293480815999999", "zone_id": "1", "stop_lon": "-121.92274707599999", "stop_id": "3153", "stop_desc": "", "stop_name": "LEIGH & HAMILTON"}}], "type": "Feature", "properties": {}}, {"onestopId": "s-9q9k1qgymn-bascom~eisenhower", "name": "BASCOM & EISENHOWER", "tags": {}, "geometry": {"type": "Point", "coordinates": [-121.931881396, 37.303811501]}, "servedBy": ["o-9q9-vta"], "identifiers": [{"identifier": "f-vta-s-2877", "tags": {"stop_lat": "37.303811500999998", "zone_id": "1", "stop_lon": "-121.93188139599999", "stop_id": "2877", "stop_desc": "", "stop_name": "BASCOM & EISENHOWER"}}], "type": "Feature", "properties": {}}, {"onestopId": "s-9q9k1ms5v9-bascom~hamilton", "name": "BASCOM & HAMILTON", "tags": {}, "geometry": {"type": "Point", "coordinates": [-121.931518111, 37.29648972]}, "servedBy": ["o-9q9-vta"], "identifiers": [{"identifier": "f-vta-s-2815", "tags": {"stop_lat": "37.296489719999997", "zone_id": "1", "stop_lon": "-121.931518111", "stop_id": "2815", "stop_desc": "", "stop_name": "BASCOM & HAMILTON"}}], "type": "Feature", "properties": {}}, {"onestopId": "s-9q9k1fdqnz-curtner~meridian", "name": "CURTNER & MERIDIAN", "tags": {}, "geometry": {"type": "Point", "coordinates": [-121.911899456, 37.280429255]}, "servedBy": ["o-9q9-vta"], "identifiers": [{"identifier": "f-vta-s-924", "tags": {"stop_lat": "37.280429255000001", "zone_id": "1", "stop_lon": "-121.911899456", "stop_id": "924", "stop_desc": "", "stop_name": "CURTNER & MERIDIAN"}}], "type": "Feature", "properties": {}}, {"onestopId": "s-9q9k1vhqy2-hamilton~hamilton", "name": "HAMILTON & HAMILTON WAY", "tags": {}, "geometry": {"type": "Point", "coordinates": [-121.909177812, 37.294250351]}, "servedBy": ["o-9q9-vta"], "identifiers": [{"identifier": "f-vta-s-4185", "tags": {"stop_lat": "37.294250351000002", "zone_id": "1", "stop_lon": "-121.909177812", "stop_id": "4185", "stop_desc": "", "stop_name": "HAMILTON & HAMILTON WAY"}}], "type": "Feature", "properties": {}}, {"onestopId": "s-9q9k10hz1u-camden~olympiabascom", "name": "CAMDEN & OLYMPIA (BASCOM)", "tags": {}, "geometry": {"type": "Point", "coordinates": [-121.941641512, 37.266851253]}, "servedBy": ["o-9q9-vta"], "identifiers": [{"identifier": "f-vta-s-4432", "tags": {"stop_lat": "37.266851252999999", "zone_id": "1", "stop_lon": "-121.941641512", "stop_id": "4432", "stop_desc": "", "stop_name": "CAMDEN & OLYMPIA (BASCOM)"}}], "type": "Feature", "properties": {}}, {"onestopId": "s-9q9k17unvy-bascom~campbell", "name": "BASCOM & CAMPBELL", "tags": {}, "geometry": {"type": "Point", "coordinates": [-121.931508428, 37.28741645]}, "servedBy": ["o-9q9-vta"], "identifiers": [{"identifier": "f-vta-s-2813", "tags": {"stop_lat": "37.287416450000002", "zone_id": "1", "stop_lon": "-121.931508428", "stop_id": "2813", "stop_desc": "", "stop_name": "BASCOM & CAMPBELL"}}], "type": "Feature", "properties": {}}, {"onestopId": "s-9q9k1y3nk6-meridian~isabel", "name": "MERIDIAN & ISABEL", "tags": {}, "geometry": {"type": "Point", "coordinates": [-121.913723043, 37.301042796]}, "servedBy": ["o-9q9-vta"], "identifiers": [{"identifier": "f-vta-s-2959", "tags": {"stop_lat": "37.301042795999997", "zone_id": "1", "stop_lon": "-121.913723043", "stop_id": "2959", "stop_desc": "", "stop_name": "MERIDIAN & ISABEL"}}], "type": "Feature", "properties": {}}, {"onestopId": "s-9q9k1z34gr-meridian~westwood", "name": "MERIDIAN & WESTWOOD", "tags": {}, "geometry": {"type": "Point", "coordinates": [-121.913767703, 37.305964838]}, "servedBy": ["o-9q9-vta"], "identifiers": [{"identifier": "f-vta-s-738", "tags": {"stop_lat": "37.305964838000001", "zone_id": "1", "stop_lon": "-121.913767703", "stop_id": "738", "stop_desc": "", "stop_name": "MERIDIAN & WESTWOOD"}}], "type": "Feature", "properties": {}}, {"onestopId": "s-9q9k1t60jr-hamilton~leigh", "name": "HAMILTON & LEIGH", "tags": {}, "geometry": {"type": "Point", "coordinates": [-121.92329648, 37.294502543]}, "servedBy": ["o-9q9-vta"], "identifiers": [{"identifier": "f-vta-s-4188", "tags": {"stop_lat": "37.294502543", "zone_id": "1", "stop_lon": "-121.92329648", "stop_id": "4188", "stop_desc": "", "stop_name": "HAMILTON & LEIGH"}}], "type": "Feature", "properties": {}}, {"onestopId": "s-9q9k1bpzpg-meridian~york", "name": "MERIDIAN & YORK", "tags": {}, "geometry": {"type": "Point", "coordinates": [-121.904300318, 37.266843685]}, "servedBy": ["o-9q9-vta"], "identifiers": [{"identifier": "f-vta-s-2970", "tags": {"stop_lat": "37.266843684999998", "zone_id": "1", "stop_lon": "-121.904300318", "stop_id": "2970", "stop_desc": "", "stop_name": "MERIDIAN & YORK"}}], "type": "Feature", "properties": {}}, {"onestopId": "s-9q9k1dr14h-curtner~schooldale", "name": "CURTNER & SCHOOLDALE", "tags": {}, "geometry": {"type": "Point", "coordinates": [-121.916567735, 37.278181449]}, "servedBy": ["o-9q9-vta"], "identifiers": [{"identifier": "f-vta-s-970", "tags": {"stop_lat": "37.278181449000002", "zone_id": "1", "stop_lon": "-121.916567735", "stop_id": "970", "stop_desc": "", "stop_name": "CURTNER & SCHOOLDALE"}}], "type": "Feature", "properties": {}}, {"onestopId": "s-9q9k1fdx9u-curtner~meridian", "name": "CURTNER & MERIDIAN", "tags": {}, "geometry": {"type": "Point", "coordinates": [-121.91176915, 37.28067098]}, "servedBy": ["o-9q9-vta"], "identifiers": [{"identifier": "f-vta-s-969", "tags": {"stop_lat": "37.280670979999996", "zone_id": "1", "stop_lon": "-121.91176915", "stop_id": "969", "stop_desc": "", "stop_name": "CURTNER & MERIDIAN"}}], "type": "Feature", "properties": {}}, {"onestopId": "s-9q9k1tprnw-hamilton~birch", "name": "HAMILTON & BIRCH", "tags": {}, "geometry": {"type": "Point", "coordinates": [-121.916023697, 37.294325275]}, "servedBy": ["o-9q9-vta"], "identifiers": [{"identifier": "f-vta-s-4112", "tags": {"stop_lat": "37.294325274999998", "zone_id": "1", "stop_lon": "-121.916023697", "stop_id": "4112", "stop_desc": "", "stop_name": "HAMILTON & BIRCH"}}], "type": "Feature", "properties": {}}, {"onestopId": "s-9q9k10wffh-bascom~shamrock", "name": "BASCOM & SHAMROCK", "tags": {}, "geometry": {"type": "Point", "coordinates": [-121.938883014, 37.268865408]}, "servedBy": ["o-9q9-vta"], "identifiers": [{"identifier": "f-vta-s-2888", "tags": {"stop_lat": "37.268865408000003", "zone_id": "1", "stop_lon": "-121.938883014", "stop_id": "2888", "stop_desc": "", "stop_name": "BASCOM & SHAMROCK"}}], "type": "Feature", "properties": {}}, {"onestopId": "s-9q9k10jzk3-bascom~camden", "name": "BASCOM & CAMDEN", "tags": {}, "geometry": {"type": "Point", "coordinates": [-121.940157594, 37.266876272]}, "servedBy": ["o-9q9-vta"], "identifiers": [{"identifier": "f-vta-s-1688", "tags": {"stop_lat": "37.266876271999998", "zone_id": "1", "stop_lon": "-121.940157594", "stop_id": "1688", "stop_desc": "", "stop_name": "BASCOM & CAMDEN"}}], "type": "Feature", "properties": {}}, {"onestopId": "s-9q9k1mkbpq-hamilton~bascom", "name": "HAMILTON & BASCOM", "tags": {}, "geometry": {"type": "Point", "coordinates": [-121.930415173, 37.294500684]}, "servedBy": ["o-9q9-vta"], "identifiers": [{"identifier": "f-vta-s-4190", "tags": {"stop_lat": "37.294500683999999", "zone_id": "1", "stop_lon": "-121.930415173", "stop_id": "4190", "stop_desc": "", "stop_name": "HAMILTON & BASCOM"}}], "type": "Feature", "properties": {}}, {"onestopId": "s-9q9k19gzqx-curtner~custer", "name": "CURTNER & CUSTER", "tags": {}, "geometry": {"type": "Point", "coordinates": [-121.920830858, 37.276524776]}, "servedBy": ["o-9q9-vta"], "identifiers": [{"identifier": "f-vta-s-971", "tags": {"stop_lat": "37.276524776000002", "zone_id": "1", "stop_lon": "-121.920830858", "stop_id": "971", "stop_desc": "", "stop_name": "CURTNER & CUSTER"}}], "type": "Feature", "properties": {}}, {"onestopId": "s-9q9k1brxqz-meridian~hillsdale", "name": "MERIDIAN & HILLSDALE", "tags": {}, "geometry": {"type": "Point", "coordinates": [-121.904690245, 37.268284727]}, "servedBy": ["o-9q9-vta"], "identifiers": [{"identifier": "f-vta-s-2917", "tags": {"stop_lat": "37.268284727000001", "zone_id": "1", "stop_lon": "-121.904690245", "stop_id": "2917", "stop_desc": "", "stop_name": "MERIDIAN & HILLSDALE"}}], "type": "Feature", "properties": {}}, {"onestopId": "s-9q9k1dfxwt-leigh~drycreek", "name": "LEIGH & DRY CREEK", "tags": {}, "geometry": {"type": "Point", "coordinates": [-121.922551069, 37.282048844]}, "servedBy": ["o-9q9-vta"], "identifiers": [{"identifier": "f-vta-s-3156", "tags": {"stop_lat": "37.282048844000002", "zone_id": "1", "stop_lon": "-121.92255106899999", "stop_id": "3156", "stop_desc": "", "stop_name": "LEIGH & DRY CREEK"}}], "type": "Feature", "properties": {}}, {"onestopId": "s-9q9k1wdd0u-leigh~stokes", "name": "LEIGH & STOKES", "tags": {}, "geometry": {"type": "Point", "coordinates": [-121.922797039, 37.301696564]}, "servedBy": ["o-9q9-vta"], "identifiers": [{"identifier": "f-vta-s-3130", "tags": {"stop_lat": "37.301696563999997", "zone_id": "1", "stop_lon": "-121.922797039", "stop_id": "3130", "stop_desc": "", "stop_name": "LEIGH & STOKES"}}], "type": "Feature", "properties": {}}, {"onestopId": "s-9q9k1x4bfh-leigh~derose", "name": "LEIGH & DE ROSE", "tags": {}, "geometry": {"type": "Point", "coordinates": [-121.92240522, 37.304228693]}, "servedBy": ["o-9q9-vta"], "identifiers": [{"identifier": "f-vta-s-3150", "tags": {"stop_lat": "37.304228692999999", "zone_id": "1", "stop_lon": "-121.92240522", "stop_id": "3150", "stop_desc": "", "stop_name": "LEIGH & DE ROSE"}}], "type": "Feature", "properties": {}}, {"onestopId": "s-9q9k15ym3m-campbell~gilman", "name": "CAMPBELL & GILMAN", "tags": {}, "geometry": {"type": "Point", "coordinates": [-121.939598, 37.287153]}, "servedBy": ["o-9q9-vta"], "identifiers": [{"identifier": "f-vta-s-982", "tags": {"stop_lat": "37.287153000000004", "zone_id": "1", "stop_lon": "-121.939598", "stop_id": "982", "stop_desc": "", "stop_name": "CAMPBELL & GILMAN"}}], "type": "Feature", "properties": {}}, {"onestopId": "s-9q9k17cjec-campbell~union", "name": "CAMPBELL & UNION", "tags": {}, "geometry": {"type": "Point", "coordinates": [-121.935714422, 37.287174537]}, "servedBy": ["o-9q9-vta"], "identifiers": [{"identifier": "f-vta-s-981", "tags": {"stop_lat": "37.287174536999999", "zone_id": "1", "stop_lon": "-121.935714422", "stop_id": "981", "stop_desc": "", "stop_name": "CAMPBELL & UNION"}}], "type": "Feature", "properties": {}}, {"onestopId": "s-9q9k1megjy-bascom~southwestexpwy", "name": "BASCOM & SOUTHWEST EXPWY", "tags": {}, "geometry": {"type": "Point", "coordinates": [-121.93184888, 37.296389442]}, "servedBy": ["o-9q9-vta"], "identifiers": [{"identifier": "f-vta-s-2880", "tags": {"stop_lat": "37.296389441999999", "zone_id": "1", "stop_lon": "-121.93184888", "stop_id": "2880", "stop_desc": "", "stop_name": "BASCOM & SOUTHWEST EXPWY"}}], "type": "Feature", "properties": {}}, {"onestopId": "s-9q9k1j5pdw-hamilton~central", "name": "HAMILTON & CENTRAL", "tags": {}, "geometry": {"type": "Point", "coordinates": [-121.944011504, 37.294412827]}, "servedBy": ["o-9q9-vta"], "identifiers": [{"identifier": "f-vta-s-4192", "tags": {"stop_lat": "37.294412827000002", "zone_id": "1", "stop_lon": "-121.944011504", "stop_id": "4192", "stop_desc": "", "stop_name": "HAMILTON & CENTRAL"}}], "type": "Feature", "properties": {}}]}